{
"type": "FeatureCollection",
"name": "merged",
"features": [
{ "type": "Feature", "properties": { "Name": "JH 135 — Jugendherberge Am Ettersberg", "description": "<b>JH Nr:</b> 135<br><b>Name:</b> Jugendherberge Am Ettersberg<br><b>Ort:</b> Weimar", "tessellate": -1, "extrude": 0, "visibility": -1 }, "geometry": { "type": "Point", "coordinates": [ 11.3093002, 51.0217193 ] } },
{ "type": "Feature", "properties": { "Name": "Schul- und Stadtteilbibliothek Schöndorf", "description": "<b>Kategorie:<\/b> Bildungsinfrastruktur — Bibliothek<br><b>Distanz:<\/b> 2069 m<br><b>Website:<\/b> <br><b>Wikipedia:<\/b> ", "tessellate": -1, "extrude": 0, "visibility": -1 }, "geometry": { "type": "Point", "coordinates": [ 11.33604, 51.0138887 ] } },
{ "type": "Feature", "properties": { "Name": "Bürgerhaus Akazienhof", "description": "<b>Kategorie:<\/b> Bildungsinfrastruktur — Gemeindezentrum<br><b>Distanz:<\/b> 2356 m<br><b>Website:<\/b> <br><b>Wikipedia:<\/b> ", "tessellate": -1, "extrude": 0, "visibility": -1 }, "geometry": { "type": "Point", "coordinates": [ 11.3144707, 51.0426504 ] } },
{ "type": "Feature", "properties": { "Name": "Infotafel Gedenkweg Buchenwaldbahn", "description": "<b>Kategorie:<\/b> Information — Besucherinformation<br><b>Distanz:<\/b>  886 m<br><b>Website:<\/b> <br><b>Wikipedia:<\/b> ", "tessellate": -1, "extrude": 0, "visibility": -1 }, "geometry": { "type": "Point", "coordinates": [ 11.297499, 51.0188746 ] } },
{ "type": "Feature", "properties": { "Name": "Die Pflanzenwelt des NSG Prinzenschneise", "description": "<b>Kategorie:<\/b> Information — Besucherinformation<br><b>Distanz:<\/b> 1468 m<br><b>Website:<\/b> <br><b>Wikipedia:<\/b> ", "tessellate": -1, "extrude": 0, "visibility": -1 }, "geometry": { "type": "Point", "coordinates": [ 11.3293055, 51.0178638 ] } },
{ "type": "Feature", "properties": { "Name": "Der Wald im NSG Prinzenschneise", "description": "<b>Kategorie:<\/b> Information — Besucherinformation<br><b>Distanz:<\/b> 1097 m<br><b>Website:<\/b> <br><b>Wikipedia:<\/b> ", "tessellate": -1, "extrude": 0, "visibility": -1 }, "geometry": { "type": "Point", "coordinates": [ 11.3236673, 51.0178391 ] } },
{ "type": "Feature", "properties": { "Name": "Infotafel Alte Burg", "description": "<b>Kategorie:<\/b> Information — Besucherinformation<br><b>Distanz:<\/b> 2654 m<br><b>Website:<\/b> <br><b>Wikipedia:<\/b> ", "tessellate": -1, "extrude": 0, "visibility": -1 }, "geometry": { "type": "Point", "coordinates": [ 11.2746881, 51.0313494 ] } },
{ "type": "Feature", "properties": { "Name": "Infotafel Naturwaldparzelle Raufenschlag", "description": "<b>Kategorie:<\/b> Information — Besucherinformation<br><b>Distanz:<\/b> 1657 m<br><b>Website:<\/b> <br><b>Wikipedia:<\/b> ", "tessellate": -1, "extrude": 0, "visibility": -1 }, "geometry": { "type": "Point", "coordinates": [ 11.2863763, 51.0252904 ] } },
{ "type": "Feature", "properties": { "Name": "Infotafel Gedenkweg Buchenwaldbahn - Alte Verladerampe", "description": "<b>Kategorie:<\/b> Information — Besucherinformation<br><b>Distanz:<\/b> 2168 m<br><b>Website:<\/b> <br><b>Wikipedia:<\/b> ", "tessellate": -1, "extrude": 0, "visibility": -1 }, "geometry": { "type": "Point", "coordinates": [ 11.2797678, 51.015981 ] } },
{ "type": "Feature", "properties": { "Name": "Infotafel Gedenkweg Buchenwaldbahn - Gedenksteine der deportierten Kinder", "description": "<b>Kategorie:<\/b> Information — Besucherinformation<br><b>Distanz:<\/b> 2520 m<br><b>Website:<\/b> <br><b>Wikipedia:<\/b> ", "tessellate": -1, "extrude": 0, "visibility": -1 }, "geometry": { "type": "Point", "coordinates": [ 11.2744417, 51.0162621 ] } },
{ "type": "Feature", "properties": { "Name": "Infotafel Blutstraße", "description": "<b>Kategorie:<\/b> Information — Besucherinformation<br><b>Distanz:<\/b> 1010 m<br><b>Website:<\/b> <br><b>Wikipedia:<\/b> ", "tessellate": -1, "extrude": 0, "visibility": -1 }, "geometry": { "type": "Point", "coordinates": [ 11.2960371, 51.0181927 ] } },
{ "type": "Feature", "properties": { "Name": "Bäume sicher erkennen", "description": "<b>Kategorie:<\/b> Information — Besucherinformation<br><b>Distanz:<\/b>  788 m<br><b>Website:<\/b> <br><b>Wikipedia:<\/b> ", "tessellate": -1, "extrude": 0, "visibility": -1 }, "geometry": { "type": "Point", "coordinates": [ 11.3205206, 51.0213864 ] } },
{ "type": "Feature", "properties": { "Name": "Blütenpflanzen und Wildgräser", "description": "<b>Kategorie:<\/b> Information — Besucherinformation<br><b>Distanz:<\/b>  829 m<br><b>Website:<\/b> <br><b>Wikipedia:<\/b> ", "tessellate": -1, "extrude": 0, "visibility": -1 }, "geometry": { "type": "Point", "coordinates": [ 11.3210383, 51.0208617 ] } },
{ "type": "Feature", "properties": { "Name": "Zur Prinzenschneise", "description": "<b>Kategorie:<\/b> Information — Besucherinformation<br><b>Distanz:<\/b>  977 m<br><b>Website:<\/b> <br><b>Wikipedia:<\/b> ", "tessellate": -1, "extrude": 0, "visibility": -1 }, "geometry": { "type": "Point", "coordinates": [ 11.3225672, 51.0190513 ] } },
{ "type": "Feature", "properties": { "Name": "Klassisches Weimar", "description": "<b>Kategorie:<\/b> Information — Besucherinformation<br><b>Distanz:<\/b> 2697 m<br><b>Website:<\/b> <br><b>Wikipedia:<\/b> ", "tessellate": -1, "extrude": 0, "visibility": -1 }, "geometry": { "type": "Point", "coordinates": [ 11.2749257, 51.0325696 ] } },
{ "type": "Feature", "properties": { "Name": "Klassisches Weimar", "description": "<b>Kategorie:<\/b> Information — Besucherinformation<br><b>Distanz:<\/b> 2694 m<br><b>Website:<\/b> <br><b>Wikipedia:<\/b> ", "tessellate": -1, "extrude": 0, "visibility": -1 }, "geometry": { "type": "Point", "coordinates": [ 11.2749833, 51.0325995 ] } },
{ "type": "Feature", "properties": { "Name": "Schloss und Park Ettersburg", "description": "<b>Kategorie:<\/b> Information — Besucherinformation<br><b>Distanz:<\/b> 2713 m<br><b>Website:<\/b> <br><b>Wikipedia:<\/b> ", "tessellate": -1, "extrude": 0, "visibility": -1 }, "geometry": { "type": "Point", "coordinates": [ 11.2744693, 51.0323252 ] } },
{ "type": "Feature", "properties": { "Name": "KindergARTen Waldstadt", "description": "<b>Kategorie:<\/b> Kinder & Jugend — Kindergarten<br><b>Distanz:<\/b> 1984 m<br><b>Website:<\/b> <br><b>Wikipedia:<\/b> ", "tessellate": -1, "extrude": 0, "visibility": -1 }, "geometry": { "type": "Point", "coordinates": [ 11.3342277, 51.0133013 ] } },
{ "type": "Feature", "properties": { "Name": "Spielplatz Siedlung Schöndorf", "description": "<b>Kategorie:<\/b> Kinder & Jugend — Spielplatz<br><b>Distanz:<\/b> 2236 m<br><b>Website:<\/b> <br><b>Wikipedia:<\/b> ", "tessellate": -1, "extrude": 0, "visibility": -1 }, "geometry": { "type": "Point", "coordinates": [ 11.337143, 51.0119397 ] } },
{ "type": "Feature", "properties": { "Name": "Kita \"Heichelheimer Kartoffelknirpse\"", "description": "<b>Kategorie:<\/b> Kinder & Jugend — Kinderbetreuung<br><b>Distanz:<\/b> 2259 m<br><b>Website:<\/b> <br><b>Wikipedia:<\/b> ", "tessellate": -1, "extrude": 0, "visibility": -1 }, "geometry": { "type": "Point", "coordinates": [ 11.3112076, 51.0419935 ] } },
{ "type": "Feature", "properties": { "Name": "Kloßmuseum", "description": "<b>Kategorie:<\/b> Kultur & Geschichte — Museum<br><b>Distanz:<\/b> 2201 m<br><b>Website:<\/b> <br><b>Wikipedia:<\/b> ", "tessellate": -1, "extrude": 0, "visibility": -1 }, "geometry": { "type": "Point", "coordinates": [ 11.3103731, 51.0414956 ] } },
{ "type": "Feature", "properties": { "Name": "Ginkgo Bilbao", "description": "<b>Kategorie:<\/b> Natur & Landschaft — Natur-Feature (alle)<br><b>Distanz:<\/b> 1744 m<br><b>Website:<\/b> <br><b>Wikipedia:<\/b> ", "tessellate": -1, "extrude": 0, "visibility": -1 }, "geometry": { "type": "Point", "coordinates": [ 11.3192385, 51.0073473 ] } }
]
}
