{
"type": "FeatureCollection",
"name": "merged",
"features": [
{ "type": "Feature", "properties": { "Name": "JH 118 — Graf-Zeppelin-Jugendherberge", "description": "<b>JH Nr:</b> 118<br><b>Name:</b> Graf-Zeppelin-Jugendherberge<br><b>Ort:</b> Friedrichshafen", "tessellate": -1, "extrude": 0, "visibility": -1 }, "geometry": { "type": "Point", "coordinates": [ 9.4966255, 47.6505027 ] } },
{ "type": "Feature", "properties": { "Name": "Medienhaus am See", "description": "<b>Kategorie:<\/b> Bildungsinfrastruktur — Bibliothek<br><b>Distanz:<\/b>  1075 m<br><b>Website:<\/b> <br><b>Wikipedia:<\/b> <br><b>Telefon:<\/b> ", "tessellate": -1, "extrude": 0, "visibility": -1 }, "geometry": { "type": "Point", "coordinates": [ 9.4823174, 47.650213 ] } },
{ "type": "Feature", "properties": { "Name": "VHS Friedrichshafen", "description": "<b>Kategorie:<\/b> Bildungsinfrastruktur — Schule<br><b>Distanz:<\/b>  1490 m<br><b>Website:<\/b> <br><b>Wikipedia:<\/b> <br><b>Telefon:<\/b> ", "tessellate": -1, "extrude": 0, "visibility": -1 }, "geometry": { "type": "Point", "coordinates": [ 9.4772877, 47.653515 ] } },
{ "type": "Feature", "properties": { "Name": "IdeenWerkstatt im Hinterhof Meßmer", "description": "<b>Kategorie:<\/b> Bildungsinfrastruktur — Kunstzentrum<br><b>Distanz:<\/b>  1850 m<br><b>Website:<\/b> https:\/\/www.brigittemessmer.de\/<br><b>Wikipedia:<\/b> <br><b>Telefon:<\/b> +49 7541 57534", "tessellate": -1, "extrude": 0, "visibility": -1 }, "geometry": { "type": "Point", "coordinates": [ 9.4728333, 47.6548266 ] } },
{ "type": "Feature", "properties": { "Name": "bfz Friedrichshafen", "description": "<b>Kategorie:<\/b> Bildungsinfrastruktur — Schule<br><b>Distanz:<\/b>  2459 m<br><b>Website:<\/b> https:\/\/www.bfz.de\/standorte\/unterallgaeu-bodensee-oberschwaben\/kontakt\/bfz-friedrichshafen-donaustrasse\/<br><b>Wikipedia:<\/b> <br><b>Telefon:<\/b> +49 7541 50190", "tessellate": -1, "extrude": 0, "visibility": -1 }, "geometry": { "type": "Point", "coordinates": [ 9.4914907, 47.6723579 ] } },
{ "type": "Feature", "properties": { "Name": "bfz - Berufl. Fortbildungszentrum", "description": "<b>Kategorie:<\/b> Bildungsinfrastruktur — Schule<br><b>Distanz:<\/b>  2849 m<br><b>Website:<\/b> <br><b>Wikipedia:<\/b> <br><b>Telefon:<\/b> ", "tessellate": -1, "extrude": 0, "visibility": -1 }, "geometry": { "type": "Point", "coordinates": [ 9.4773174, 47.672572 ] } },
{ "type": "Feature", "properties": { "Name": "Spielehaus", "description": "<b>Kategorie:<\/b> Bildungsinfrastruktur — Gemeindezentrum<br><b>Distanz:<\/b>  1815 m<br><b>Website:<\/b> https:\/\/spielehaus.friedrichshafen.de\/<br><b>Wikipedia:<\/b> <br><b>Telefon:<\/b> ", "tessellate": -1, "extrude": 0, "visibility": -1 }, "geometry": { "type": "Point", "coordinates": [ 9.4812695, 47.6631114 ] } },
{ "type": "Feature", "properties": { "Name": "Volkstrachten und Heimatverein \"Bodenseer\"", "description": "<b>Kategorie:<\/b> Bildungsinfrastruktur — Kunstzentrum<br><b>Distanz:<\/b>   127 m<br><b>Website:<\/b> https:\/\/www.bodenseegau-trachtenverband.de\/<br><b>Wikipedia:<\/b> <br><b>Telefon:<\/b> ", "tessellate": -1, "extrude": 0, "visibility": -1 }, "geometry": { "type": "Point", "coordinates": [ 9.4972419, 47.6515661 ] } },
{ "type": "Feature", "properties": { "Name": "Hugo-Eckener-Schule", "description": "<b>Kategorie:<\/b> Bildungsinfrastruktur — Schule<br><b>Distanz:<\/b>   278 m<br><b>Website:<\/b> <br><b>Wikipedia:<\/b> <br><b>Telefon:<\/b> ", "tessellate": -1, "extrude": 0, "visibility": -1 }, "geometry": { "type": "Point", "coordinates": [ 9.4996074, 47.6519885 ] } },
{ "type": "Feature", "properties": { "Name": "Droste-Hülshoff-Schule", "description": "<b>Kategorie:<\/b> Bildungsinfrastruktur — Schule<br><b>Distanz:<\/b>   311 m<br><b>Website:<\/b> <br><b>Wikipedia:<\/b> <br><b>Telefon:<\/b> ", "tessellate": -1, "extrude": 0, "visibility": -1 }, "geometry": { "type": "Point", "coordinates": [ 9.5003455, 47.6517361 ] } },
{ "type": "Feature", "properties": { "Name": "Claude-Dornier-Schule", "description": "<b>Kategorie:<\/b> Bildungsinfrastruktur — Schule<br><b>Distanz:<\/b>   240 m<br><b>Website:<\/b> <br><b>Wikipedia:<\/b> <br><b>Telefon:<\/b> ", "tessellate": -1, "extrude": 0, "visibility": -1 }, "geometry": { "type": "Point", "coordinates": [ 9.4993874, 47.651591 ] } },
{ "type": "Feature", "properties": { "Name": "KIBERone Friedrichshafen", "description": "<b>Kategorie:<\/b> Bildungsinfrastruktur — Schule<br><b>Distanz:<\/b>  2465 m<br><b>Website:<\/b> https:\/\/friedrichshafen.kiber-one.de\/<br><b>Wikipedia:<\/b> <br><b>Telefon:<\/b> +49 75413563452", "tessellate": -1, "extrude": 0, "visibility": -1 }, "geometry": { "type": "Point", "coordinates": [ 9.4913143, 47.6723896 ] } },
{ "type": "Feature", "properties": { "Name": "Lernstudio Barbarossa", "description": "<b>Kategorie:<\/b> Bildungsinfrastruktur — Schule<br><b>Distanz:<\/b>  1749 m<br><b>Website:<\/b> https:\/\/www.lernstudio-fn.de\/<br><b>Wikipedia:<\/b> <br><b>Telefon:<\/b> +49 7541 700 56 96", "tessellate": -1, "extrude": 0, "visibility": -1 }, "geometry": { "type": "Point", "coordinates": [ 9.4738776, 47.6538703 ] } },
{ "type": "Feature", "properties": { "Name": "Gitarrenschule Bodensee", "description": "<b>Kategorie:<\/b> Bildungsinfrastruktur — Schule<br><b>Distanz:<\/b>  1930 m<br><b>Website:<\/b> https:\/\/www.gitarrenschule-bodensee.de\/<br><b>Wikipedia:<\/b> <br><b>Telefon:<\/b> +49 7541 37 87 80", "tessellate": -1, "extrude": 0, "visibility": -1 }, "geometry": { "type": "Point", "coordinates": [ 9.481826, 47.6647032 ] } },
{ "type": "Feature", "properties": { "Name": "Kiesel im k42", "description": "<b>Kategorie:<\/b> Bildungsinfrastruktur — Gemeindezentrum<br><b>Distanz:<\/b>  1077 m<br><b>Website:<\/b> https:\/\/www.friedrichshafen.de\/kultur-freizeit-einkaufen\/kultureinrichtungen\/kiesel-im-k42\/<br><b>Wikipedia:<\/b> de:Kiesel im k42<br><b>Telefon:<\/b> +49 7541 203 3322", "tessellate": -1, "extrude": 0, "visibility": -1 }, "geometry": { "type": "Point", "coordinates": [ 9.4822894, 47.6502912 ] } },
{ "type": "Feature", "properties": { "Name": "vhs FN K55", "description": "<b>Kategorie:<\/b> Bildungsinfrastruktur — Schule<br><b>Distanz:<\/b>  1695 m<br><b>Website:<\/b> https:\/\/www.vhs-fn.de\/service\/veranstaltungsorte\/bereich\/haus\/id\/119\/<br><b>Wikipedia:<\/b> <br><b>Telefon:<\/b> ", "tessellate": -1, "extrude": 0, "visibility": -1 }, "geometry": { "type": "Point", "coordinates": [ 9.4764586, 47.6573576 ] } },
{ "type": "Feature", "properties": { "Name": "CVJM Friedrichshafen", "description": "<b>Kategorie:<\/b> Bildungsinfrastruktur — Gemeindezentrum<br><b>Distanz:<\/b>  1656 m<br><b>Website:<\/b> https:\/\/www.cvjm-fn.de\/<br><b>Wikipedia:<\/b> <br><b>Telefon:<\/b> +49 754137513029", "tessellate": -1, "extrude": 0, "visibility": -1 }, "geometry": { "type": "Point", "coordinates": [ 9.4767766, 47.6569865 ] } },
{ "type": "Feature", "properties": { "Name": "Wissenswerkstatt Friedrichshafen e.V.", "description": "<b>Kategorie:<\/b> Bildungsinfrastruktur — Schule<br><b>Distanz:<\/b>  1816 m<br><b>Website:<\/b> https:\/\/www.wiwe-fn.de<br><b>Wikipedia:<\/b> <br><b>Telefon:<\/b> +49 7541 402 99 11", "tessellate": -1, "extrude": 0, "visibility": -1 }, "geometry": { "type": "Point", "coordinates": [ 9.4725864, 47.6522374 ] } },
{ "type": "Feature", "properties": { "Name": "Diakonisches Institut für Soziale Berufe", "description": "<b>Kategorie:<\/b> Bildungsinfrastruktur — Schule<br><b>Distanz:<\/b>   842 m<br><b>Website:<\/b> https:\/\/www.diakonisches-institut.de\/index.php\/friedrichshafen<br><b>Wikipedia:<\/b> <br><b>Telefon:<\/b> +49 7541 399091 0", "tessellate": -1, "extrude": 0, "visibility": -1 }, "geometry": { "type": "Point", "coordinates": [ 9.4886755, 47.6558449 ] } },
{ "type": "Feature", "properties": { "Name": "Gemeindesaal St. Nikolaus", "description": "<b>Kategorie:<\/b> Bildungsinfrastruktur — Gemeindezentrum<br><b>Distanz:<\/b>  1356 m<br><b>Website:<\/b> <br><b>Wikipedia:<\/b> <br><b>Telefon:<\/b> ", "tessellate": -1, "extrude": 0, "visibility": -1 }, "geometry": { "type": "Point", "coordinates": [ 9.4785665, 47.6506876 ] } },
{ "type": "Feature", "properties": { "Name": "Unabhängige evangelische Gemeinde e.V.", "description": "<b>Kategorie:<\/b> Bildungsinfrastruktur — Gemeindezentrum<br><b>Distanz:<\/b>  2470 m<br><b>Website:<\/b> https:\/\/ueg-fn.de\/<br><b>Wikipedia:<\/b> <br><b>Telefon:<\/b> +497541584647", "tessellate": -1, "extrude": 0, "visibility": -1 }, "geometry": { "type": "Point", "coordinates": [ 9.4911708, 47.6724146 ] } },
{ "type": "Feature", "properties": { "Name": "Jugendtreff PRO", "description": "<b>Kategorie:<\/b> Bildungsinfrastruktur — Gemeindezentrum<br><b>Distanz:<\/b>  2711 m<br><b>Website:<\/b> https:\/\/www.friedrichshafen.de\/buerger-stadt\/stadtportraet\/stadtplan\/einrichtungen-detail\/fuid\/4074\/facility\/jugendtreff-pro-albert-merglen-schule\/<br><b>Wikipedia:<\/b> <br><b>Telefon:<\/b> ", "tessellate": -1, "extrude": 0, "visibility": -1 }, "geometry": { "type": "Point", "coordinates": [ 9.4639194, 47.6608229 ] } },
{ "type": "Feature", "properties": { "Name": "Gemeindesaal", "description": "<b>Kategorie:<\/b> Bildungsinfrastruktur — Gemeindezentrum<br><b>Distanz:<\/b>  3074 m<br><b>Website:<\/b> <br><b>Wikipedia:<\/b> <br><b>Telefon:<\/b> ", "tessellate": -1, "extrude": 0, "visibility": -1 }, "geometry": { "type": "Point", "coordinates": [ 9.4687713, 47.6707675 ] } },
{ "type": "Feature", "properties": { "Name": "Friedrichshafener Integrations- und Bildungsverein", "description": "<b>Kategorie:<\/b> Bildungsinfrastruktur — Gemeindezentrum<br><b>Distanz:<\/b>  1485 m<br><b>Website:<\/b> <br><b>Wikipedia:<\/b> <br><b>Telefon:<\/b> ", "tessellate": -1, "extrude": 0, "visibility": -1 }, "geometry": { "type": "Point", "coordinates": [ 9.4908806, 47.6632878 ] } },
{ "type": "Feature", "properties": { "Name": "Hector Kinderakademie", "description": "<b>Kategorie:<\/b> Bildungsinfrastruktur — Schule<br><b>Distanz:<\/b>  2511 m<br><b>Website:<\/b> https:\/\/hector-kinderakademie.de\/standorte\/friedrichshafen\/<br><b>Wikipedia:<\/b> <br><b>Telefon:<\/b> +49 7541 604050", "tessellate": -1, "extrude": 0, "visibility": -1 }, "geometry": { "type": "Point", "coordinates": [ 9.4741648, 47.6672451 ] } },
{ "type": "Feature", "properties": { "Name": "Caritas - Sprachförderung und Elternbildung", "description": "<b>Kategorie:<\/b> Bildungsinfrastruktur — Schule<br><b>Distanz:<\/b>  1206 m<br><b>Website:<\/b> https:\/\/www.caritas-bodensee-oberschwaben.de\/hilfeundberatung\/integration-und-migration\/sprachfoerderung\/integrative-angebote\/integrative-angebote<br><b>Wikipedia:<\/b> <br><b>Telefon:<\/b> +49 7541 3000 71", "tessellate": -1, "extrude": 0, "visibility": -1 }, "geometry": { "type": "Point", "coordinates": [ 9.4805883, 47.6499513 ] } },
{ "type": "Feature", "properties": { "Name": "Stadtarchiv mit Bodenseebibliothek", "description": "<b>Kategorie:<\/b> Bildungsinfrastruktur — Bibliothek<br><b>Distanz:<\/b>  1697 m<br><b>Website:<\/b> https:\/\/stadtarchiv.friedrichshafen.de\/bodenseebibliothek\/<br><b>Wikipedia:<\/b> <br><b>Telefon:<\/b> +49 7541 209-150", "tessellate": -1, "extrude": 0, "visibility": -1 }, "geometry": { "type": "Point", "coordinates": [ 9.4765683, 47.6575325 ] } },
{ "type": "Feature", "properties": { "Name": "Zoller Hof", "description": "<b>Kategorie:<\/b> Freizeit & Sport — Sportzentrum<br><b>Distanz:<\/b>  2227 m<br><b>Website:<\/b> <br><b>Wikipedia:<\/b> <br><b>Telefon:<\/b> ", "tessellate": -1, "extrude": 0, "visibility": -1 }, "geometry": { "type": "Point", "coordinates": [ 9.4796637, 47.6669352 ] } },
{ "type": "Feature", "properties": { "Name": "Karate Team Bodensee", "description": "<b>Kategorie:<\/b> Freizeit & Sport — Sportzentrum<br><b>Distanz:<\/b>  1951 m<br><b>Website:<\/b> https:\/\/www.karate-team.de\/<br><b>Wikipedia:<\/b> <br><b>Telefon:<\/b> +49 800 1301405", "tessellate": -1, "extrude": 0, "visibility": -1 }, "geometry": { "type": "Point", "coordinates": [ 9.4790604, 47.6634417 ] } },
{ "type": "Feature", "properties": { "Name": "Trimm-Dich-Pfad Station 13. Klimmzüge", "description": "<b>Kategorie:<\/b> Freizeit & Sport — Fitnessstation<br><b>Distanz:<\/b>  1306 m<br><b>Website:<\/b> <br><b>Wikipedia:<\/b> <br><b>Telefon:<\/b> ", "tessellate": -1, "extrude": 0, "visibility": -1 }, "geometry": { "type": "Point", "coordinates": [ 9.5123948, 47.6554599 ] } },
{ "type": "Feature", "properties": { "Name": "Call of Fun", "description": "<b>Kategorie:<\/b> Freizeit & Sport — Sportzentrum<br><b>Distanz:<\/b>  2893 m<br><b>Website:<\/b> <br><b>Wikipedia:<\/b> <br><b>Telefon:<\/b> ", "tessellate": -1, "extrude": 0, "visibility": -1 }, "geometry": { "type": "Point", "coordinates": [ 9.520082, 47.6711495 ] } },
{ "type": "Feature", "properties": { "Name": "Greifbar", "description": "<b>Kategorie:<\/b> Freizeit & Sport — Sportzentrum<br><b>Distanz:<\/b>   525 m<br><b>Website:<\/b> <br><b>Wikipedia:<\/b> <br><b>Telefon:<\/b> +49 7541 9505828", "tessellate": -1, "extrude": 0, "visibility": -1 }, "geometry": { "type": "Point", "coordinates": [ 9.5032046, 47.6520878 ] } },
{ "type": "Feature", "properties": { "Name": "Trimm-Dich-Pfad Station 1. Armkreisen", "description": "<b>Kategorie:<\/b> Freizeit & Sport — Fitnessstation<br><b>Distanz:<\/b>  1624 m<br><b>Website:<\/b> <br><b>Wikipedia:<\/b> <br><b>Telefon:<\/b> ", "tessellate": -1, "extrude": 0, "visibility": -1 }, "geometry": { "type": "Point", "coordinates": [ 9.5114417, 47.6611495 ] } },
{ "type": "Feature", "properties": { "Name": "Trimm-Dich-Pfad Station 2. Dehnen.", "description": "<b>Kategorie:<\/b> Freizeit & Sport — Fitnessstation<br><b>Distanz:<\/b>  1718 m<br><b>Website:<\/b> <br><b>Wikipedia:<\/b> <br><b>Telefon:<\/b> ", "tessellate": -1, "extrude": 0, "visibility": -1 }, "geometry": { "type": "Point", "coordinates": [ 9.5123491, 47.6617254 ] } },
{ "type": "Feature", "properties": { "Name": "Trimm-Dich-Pfad Station 3. Hampelmann", "description": "<b>Kategorie:<\/b> Freizeit & Sport — Fitnessstation<br><b>Distanz:<\/b>  1715 m<br><b>Website:<\/b> <br><b>Wikipedia:<\/b> <br><b>Telefon:<\/b> ", "tessellate": -1, "extrude": 0, "visibility": -1 }, "geometry": { "type": "Point", "coordinates": [ 9.5133322, 47.6610236 ] } },
{ "type": "Feature", "properties": { "Name": "Trimm-Dich-Pfad Station 4. Beinwechsel", "description": "<b>Kategorie:<\/b> Freizeit & Sport — Fitnessstation<br><b>Distanz:<\/b>  1635 m<br><b>Website:<\/b> <br><b>Wikipedia:<\/b> <br><b>Telefon:<\/b> ", "tessellate": -1, "extrude": 0, "visibility": -1 }, "geometry": { "type": "Point", "coordinates": [ 9.5129027, 47.6602714 ] } },
{ "type": "Feature", "properties": { "Name": "Trimm-Dich-Pfad Station 5", "description": "<b>Kategorie:<\/b> Freizeit & Sport — Fitnessstation<br><b>Distanz:<\/b>  1617 m<br><b>Website:<\/b> <br><b>Wikipedia:<\/b> <br><b>Telefon:<\/b> ", "tessellate": -1, "extrude": 0, "visibility": -1 }, "geometry": { "type": "Point", "coordinates": [ 9.5140266, 47.6590731 ] } },
{ "type": "Feature", "properties": { "Name": "Trimm-Dich-Pfad Station 6. Ringe", "description": "<b>Kategorie:<\/b> Freizeit & Sport — Fitnessstation<br><b>Distanz:<\/b>  1620 m<br><b>Website:<\/b> <br><b>Wikipedia:<\/b> <br><b>Telefon:<\/b> ", "tessellate": -1, "extrude": 0, "visibility": -1 }, "geometry": { "type": "Point", "coordinates": [ 9.515445, 47.657632 ] } },
{ "type": "Feature", "properties": { "Name": "Trimm-Dich-Pfad Station 7. Springen", "description": "<b>Kategorie:<\/b> Freizeit & Sport — Fitnessstation<br><b>Distanz:<\/b>  1584 m<br><b>Website:<\/b> <br><b>Wikipedia:<\/b> <br><b>Telefon:<\/b> ", "tessellate": -1, "extrude": 0, "visibility": -1 }, "geometry": { "type": "Point", "coordinates": [ 9.5162504, 47.6557212 ] } },
{ "type": "Feature", "properties": { "Name": "Trimm-Dich-Pfad Station 8", "description": "<b>Kategorie:<\/b> Freizeit & Sport — Fitnessstation<br><b>Distanz:<\/b>  1620 m<br><b>Website:<\/b> <br><b>Wikipedia:<\/b> <br><b>Telefon:<\/b> ", "tessellate": -1, "extrude": 0, "visibility": -1 }, "geometry": { "type": "Point", "coordinates": [ 9.5173013, 47.6546754 ] } },
{ "type": "Feature", "properties": { "Name": "Trimm-Dich-Pfad Station 9. Push-up", "description": "<b>Kategorie:<\/b> Freizeit & Sport — Fitnessstation<br><b>Distanz:<\/b>  1585 m<br><b>Website:<\/b> <br><b>Wikipedia:<\/b> <br><b>Telefon:<\/b> ", "tessellate": -1, "extrude": 0, "visibility": -1 }, "geometry": { "type": "Point", "coordinates": [ 9.5172002, 47.6536915 ] } },
{ "type": "Feature", "properties": { "Name": "Trimm-Dich-Pfad Station 10. Beinschere", "description": "<b>Kategorie:<\/b> Freizeit & Sport — Fitnessstation<br><b>Distanz:<\/b>  1463 m<br><b>Website:<\/b> <br><b>Wikipedia:<\/b> <br><b>Telefon:<\/b> ", "tessellate": -1, "extrude": 0, "visibility": -1 }, "geometry": { "type": "Point", "coordinates": [ 9.5155468, 47.653642 ] } },
{ "type": "Feature", "properties": { "Name": "Trimm-Dich-Pfad Station 11. Wechselstrecken", "description": "<b>Kategorie:<\/b> Freizeit & Sport — Fitnessstation<br><b>Distanz:<\/b>  1370 m<br><b>Website:<\/b> <br><b>Wikipedia:<\/b> <br><b>Telefon:<\/b> ", "tessellate": -1, "extrude": 0, "visibility": -1 }, "geometry": { "type": "Point", "coordinates": [ 9.5142883, 47.653574 ] } },
{ "type": "Feature", "properties": { "Name": "Trimm-Dich-Pfad Station 12. Hindernisbahn", "description": "<b>Kategorie:<\/b> Freizeit & Sport — Fitnessstation<br><b>Distanz:<\/b>  1304 m<br><b>Website:<\/b> <br><b>Wikipedia:<\/b> <br><b>Telefon:<\/b> ", "tessellate": -1, "extrude": 0, "visibility": -1 }, "geometry": { "type": "Point", "coordinates": [ 9.5128553, 47.6546754 ] } },
{ "type": "Feature", "properties": { "Name": "Trimm-Dich-Pfad Station 14. Hüpfen", "description": "<b>Kategorie:<\/b> Freizeit & Sport — Fitnessstation<br><b>Distanz:<\/b>  1409 m<br><b>Website:<\/b> <br><b>Wikipedia:<\/b> <br><b>Telefon:<\/b> ", "tessellate": -1, "extrude": 0, "visibility": -1 }, "geometry": { "type": "Point", "coordinates": [ 9.5137937, 47.6556175 ] } },
{ "type": "Feature", "properties": { "Name": "Trimm-Dich-Pfad Station 15", "description": "<b>Kategorie:<\/b> Freizeit & Sport — Fitnessstation<br><b>Distanz:<\/b>  1411 m<br><b>Website:<\/b> <br><b>Wikipedia:<\/b> <br><b>Telefon:<\/b> ", "tessellate": -1, "extrude": 0, "visibility": -1 }, "geometry": { "type": "Point", "coordinates": [ 9.5118382, 47.6579507 ] } },
{ "type": "Feature", "properties": { "Name": "ADFC", "description": "<b>Kategorie:<\/b> Information — Besucherinformation<br><b>Distanz:<\/b>  1323 m<br><b>Website:<\/b> https:\/\/bodenseekreis.adfc.de\/<br><b>Wikipedia:<\/b> <br><b>Telefon:<\/b> +49 7541 382988", "tessellate": -1, "extrude": 0, "visibility": -1 }, "geometry": { "type": "Point", "coordinates": [ 9.4790702, 47.651541 ] } },
{ "type": "Feature", "properties": { "Name": "Rotachbrücke St. Blasius", "description": "<b>Kategorie:<\/b> Information — Besucherinformation<br><b>Distanz:<\/b>  2594 m<br><b>Website:<\/b> <br><b>Wikipedia:<\/b> <br><b>Telefon:<\/b> ", "tessellate": -1, "extrude": 0, "visibility": -1 }, "geometry": { "type": "Point", "coordinates": [ 9.4825374, 47.6718159 ] } },
{ "type": "Feature", "properties": { "Name": "Der Seewald", "description": "<b>Kategorie:<\/b> Information — Besucherinformation<br><b>Distanz:<\/b>  2018 m<br><b>Website:<\/b> <br><b>Wikipedia:<\/b> <br><b>Telefon:<\/b> ", "tessellate": -1, "extrude": 0, "visibility": -1 }, "geometry": { "type": "Point", "coordinates": [ 9.5136945, 47.66453 ] } },
{ "type": "Feature", "properties": { "Name": "FN F70", "description": "<b>Kategorie:<\/b> Information — Besucherinformation<br><b>Distanz:<\/b>  2033 m<br><b>Website:<\/b> <br><b>Wikipedia:<\/b> <br><b>Telefon:<\/b> ", "tessellate": -1, "extrude": 0, "visibility": -1 }, "geometry": { "type": "Point", "coordinates": [ 9.5138661, 47.6646037 ] } },
{ "type": "Feature", "properties": { "Name": "FN F72", "description": "<b>Kategorie:<\/b> Information — Besucherinformation<br><b>Distanz:<\/b>  2830 m<br><b>Website:<\/b> <br><b>Wikipedia:<\/b> <br><b>Telefon:<\/b> ", "tessellate": -1, "extrude": 0, "visibility": -1 }, "geometry": { "type": "Point", "coordinates": [ 9.5230539, 47.6686563 ] } },
{ "type": "Feature", "properties": { "Name": "FN F67", "description": "<b>Kategorie:<\/b> Information — Besucherinformation<br><b>Distanz:<\/b>  1152 m<br><b>Website:<\/b> <br><b>Wikipedia:<\/b> <br><b>Telefon:<\/b> ", "tessellate": -1, "extrude": 0, "visibility": -1 }, "geometry": { "type": "Point", "coordinates": [ 9.507398, 47.6578814 ] } },
{ "type": "Feature", "properties": { "Name": "Oberbaumgarten", "description": "<b>Kategorie:<\/b> Information — Besucherinformation<br><b>Distanz:<\/b>  2466 m<br><b>Website:<\/b> <br><b>Wikipedia:<\/b> <br><b>Telefon:<\/b> ", "tessellate": -1, "extrude": 0, "visibility": -1 }, "geometry": { "type": "Point", "coordinates": [ 9.5290883, 47.6538575 ] } },
{ "type": "Feature", "properties": { "Name": "Am Seewald Ost", "description": "<b>Kategorie:<\/b> Information — Besucherinformation<br><b>Distanz:<\/b>  2225 m<br><b>Website:<\/b> <br><b>Wikipedia:<\/b> <br><b>Telefon:<\/b> ", "tessellate": -1, "extrude": 0, "visibility": -1 }, "geometry": { "type": "Point", "coordinates": [ 9.5259577, 47.6532991 ] } },
{ "type": "Feature", "properties": { "Name": "Seewald", "description": "<b>Kategorie:<\/b> Information — Besucherinformation<br><b>Distanz:<\/b>  1614 m<br><b>Website:<\/b> <br><b>Wikipedia:<\/b> <br><b>Telefon:<\/b> ", "tessellate": -1, "extrude": 0, "visibility": -1 }, "geometry": { "type": "Point", "coordinates": [ 9.51809, 47.6512565 ] } },
{ "type": "Feature", "properties": { "Name": "Seewald", "description": "<b>Kategorie:<\/b> Information — Besucherinformation<br><b>Distanz:<\/b>  1038 m<br><b>Website:<\/b> <br><b>Wikipedia:<\/b> <br><b>Telefon:<\/b> ", "tessellate": -1, "extrude": 0, "visibility": -1 }, "geometry": { "type": "Point", "coordinates": [ 9.5103786, 47.6514061 ] } },
{ "type": "Feature", "properties": { "Name": "FN F66", "description": "<b>Kategorie:<\/b> Information — Besucherinformation<br><b>Distanz:<\/b>  1158 m<br><b>Website:<\/b> <br><b>Wikipedia:<\/b> <br><b>Telefon:<\/b> ", "tessellate": -1, "extrude": 0, "visibility": -1 }, "geometry": { "type": "Point", "coordinates": [ 9.5059484, 47.658806 ] } },
{ "type": "Feature", "properties": { "Name": "Tourist-Information", "description": "<b>Kategorie:<\/b> Information — Besucherinformation<br><b>Distanz:<\/b>  1708 m<br><b>Website:<\/b> https:\/\/www.friedrichshafen.de\/tourismus\/<br><b>Wikipedia:<\/b> <br><b>Telefon:<\/b> +49 7541 20355444", "tessellate": -1, "extrude": 0, "visibility": -1 }, "geometry": { "type": "Point", "coordinates": [ 9.4740257, 47.6521941 ] } },
{ "type": "Feature", "properties": { "Name": "Uferpromenade \"Italia\"", "description": "<b>Kategorie:<\/b> Information — Besucherinformation<br><b>Distanz:<\/b>  1271 m<br><b>Website:<\/b> <br><b>Wikipedia:<\/b> <br><b>Telefon:<\/b> ", "tessellate": -1, "extrude": 0, "visibility": -1 }, "geometry": { "type": "Point", "coordinates": [ 9.4798171, 47.6491862 ] } },
{ "type": "Feature", "properties": { "Name": "Zeppelin-Denkmal", "description": "<b>Kategorie:<\/b> Information — Besucherinformation<br><b>Distanz:<\/b>  1722 m<br><b>Website:<\/b> <br><b>Wikipedia:<\/b> <br><b>Telefon:<\/b> ", "tessellate": -1, "extrude": 0, "visibility": -1 }, "geometry": { "type": "Point", "coordinates": [ 9.473802, 47.6520053 ] } },
{ "type": "Feature", "properties": { "Name": "Eriskircher Ried Seewiesenstraße", "description": "<b>Kategorie:<\/b> Information — Besucherinformation<br><b>Distanz:<\/b>   650 m<br><b>Website:<\/b> <br><b>Wikipedia:<\/b> <br><b>Telefon:<\/b> ", "tessellate": -1, "extrude": 0, "visibility": -1 }, "geometry": { "type": "Point", "coordinates": [ 9.5030385, 47.6465726 ] } },
{ "type": "Feature", "properties": { "Name": "Hafenbahnhof", "description": "<b>Kategorie:<\/b> Information — Besucherinformation<br><b>Distanz:<\/b>   965 m<br><b>Website:<\/b> <br><b>Wikipedia:<\/b> <br><b>Telefon:<\/b> ", "tessellate": -1, "extrude": 0, "visibility": -1 }, "geometry": { "type": "Point", "coordinates": [ 9.4837891, 47.6508878 ] } },
{ "type": "Feature", "properties": { "Name": "Rotachmündung \"Rommele\"", "description": "<b>Kategorie:<\/b> Information — Besucherinformation<br><b>Distanz:<\/b>    53 m<br><b>Website:<\/b> <br><b>Wikipedia:<\/b> <br><b>Telefon:<\/b> ", "tessellate": -1, "extrude": 0, "visibility": -1 }, "geometry": { "type": "Point", "coordinates": [ 9.4959529, 47.6503686 ] } },
{ "type": "Feature", "properties": { "Name": "Rotachweg", "description": "<b>Kategorie:<\/b> Information — Besucherinformation<br><b>Distanz:<\/b>    43 m<br><b>Website:<\/b> <br><b>Wikipedia:<\/b> <br><b>Telefon:<\/b> ", "tessellate": -1, "extrude": 0, "visibility": -1 }, "geometry": { "type": "Point", "coordinates": [ 9.4960547, 47.6505393 ] } },
{ "type": "Feature", "properties": { "Name": "Schlosskirche", "description": "<b>Kategorie:<\/b> Information — Besucherinformation<br><b>Distanz:<\/b>  2425 m<br><b>Website:<\/b> <br><b>Wikipedia:<\/b> <br><b>Telefon:<\/b> ", "tessellate": -1, "extrude": 0, "visibility": -1 }, "geometry": { "type": "Point", "coordinates": [ 9.4643297, 47.6505428 ] } },
{ "type": "Feature", "properties": { "Name": "Seewiesen", "description": "<b>Kategorie:<\/b> Information — Besucherinformation<br><b>Distanz:<\/b>   327 m<br><b>Website:<\/b> <br><b>Wikipedia:<\/b> <br><b>Telefon:<\/b> ", "tessellate": -1, "extrude": 0, "visibility": -1 }, "geometry": { "type": "Point", "coordinates": [ 9.4925947, 47.6516213 ] } },
{ "type": "Feature", "properties": { "Name": "Friedrichshafen und Umgebung", "description": "<b>Kategorie:<\/b> Information — Besucherinformation<br><b>Distanz:<\/b>  1714 m<br><b>Website:<\/b> <br><b>Wikipedia:<\/b> <br><b>Telefon:<\/b> ", "tessellate": -1, "extrude": 0, "visibility": -1 }, "geometry": { "type": "Point", "coordinates": [ 9.4739381, 47.6521631 ] } },
{ "type": "Feature", "properties": { "Name": "Hotelbuchungstafel", "description": "<b>Kategorie:<\/b> Information — Besucherinformation<br><b>Distanz:<\/b>  1710 m<br><b>Website:<\/b> <br><b>Wikipedia:<\/b> <br><b>Telefon:<\/b> ", "tessellate": -1, "extrude": 0, "visibility": -1 }, "geometry": { "type": "Point", "coordinates": [ 9.4739914, 47.652165 ] } },
{ "type": "Feature", "properties": { "Name": "STATION 3 - Bauchmuskelübung auf der Bank", "description": "<b>Kategorie:<\/b> Information — Besucherinformation<br><b>Distanz:<\/b>  2050 m<br><b>Website:<\/b> <br><b>Wikipedia:<\/b> <br><b>Telefon:<\/b> ", "tessellate": -1, "extrude": 0, "visibility": -1 }, "geometry": { "type": "Point", "coordinates": [ 9.4767575, 47.6631564 ] } },
{ "type": "Feature", "properties": { "Name": "Riedlewald", "description": "<b>Kategorie:<\/b> Information — Besucherinformation<br><b>Distanz:<\/b>  2054 m<br><b>Website:<\/b> <br><b>Wikipedia:<\/b> <br><b>Telefon:<\/b> ", "tessellate": -1, "extrude": 0, "visibility": -1 }, "geometry": { "type": "Point", "coordinates": [ 9.4766646, 47.6631446 ] } },
{ "type": "Feature", "properties": { "Name": "Ehemaliges Ledigenheim", "description": "<b>Kategorie:<\/b> Information — Besucherinformation<br><b>Distanz:<\/b>  1935 m<br><b>Website:<\/b> <br><b>Wikipedia:<\/b> <br><b>Telefon:<\/b> ", "tessellate": -1, "extrude": 0, "visibility": -1 }, "geometry": { "type": "Point", "coordinates": [ 9.4727175, 47.6569889 ] } },
{ "type": "Feature", "properties": { "Name": "Wenn's Nacht wird im Schlosspark...", "description": "<b>Kategorie:<\/b> Information — Besucherinformation<br><b>Distanz:<\/b>  2372 m<br><b>Website:<\/b> <br><b>Wikipedia:<\/b> <br><b>Telefon:<\/b> ", "tessellate": -1, "extrude": 0, "visibility": -1 }, "geometry": { "type": "Point", "coordinates": [ 9.4651983, 47.6484165 ] } },
{ "type": "Feature", "properties": { "Name": "Schweizer Kinder", "description": "<b>Kategorie:<\/b> Information — Besucherinformation<br><b>Distanz:<\/b>  1028 m<br><b>Website:<\/b> <br><b>Wikipedia:<\/b> <br><b>Telefon:<\/b> ", "tessellate": -1, "extrude": 0, "visibility": -1 }, "geometry": { "type": "Point", "coordinates": [ 9.4829361, 47.6504738 ] } },
{ "type": "Feature", "properties": { "Name": "Am Riedlewald", "description": "<b>Kategorie:<\/b> Information — Besucherinformation<br><b>Distanz:<\/b>  1934 m<br><b>Website:<\/b> <br><b>Wikipedia:<\/b> <br><b>Telefon:<\/b> ", "tessellate": -1, "extrude": 0, "visibility": -1 }, "geometry": { "type": "Point", "coordinates": [ 9.4740491, 47.6588714 ] } },
{ "type": "Feature", "properties": { "Name": "Königin-Olga-Weg", "description": "<b>Kategorie:<\/b> Information — Besucherinformation<br><b>Distanz:<\/b>  1947 m<br><b>Website:<\/b> <br><b>Wikipedia:<\/b> <br><b>Telefon:<\/b> ", "tessellate": -1, "extrude": 0, "visibility": -1 }, "geometry": { "type": "Point", "coordinates": [ 9.4737594, 47.6587603 ] } },
{ "type": "Feature", "properties": { "Name": "Mobilitätsstation", "description": "<b>Kategorie:<\/b> Information — Besucherinformation<br><b>Distanz:<\/b>  1721 m<br><b>Website:<\/b> <br><b>Wikipedia:<\/b> <br><b>Telefon:<\/b> ", "tessellate": -1, "extrude": 0, "visibility": -1 }, "geometry": { "type": "Point", "coordinates": [ 9.4739682, 47.6528467 ] } },
{ "type": "Feature", "properties": { "Name": "Friedrichshafen und Umgebung", "description": "<b>Kategorie:<\/b> Information — Besucherinformation<br><b>Distanz:<\/b>  1056 m<br><b>Website:<\/b> <br><b>Wikipedia:<\/b> <br><b>Telefon:<\/b> ", "tessellate": -1, "extrude": 0, "visibility": -1 }, "geometry": { "type": "Point", "coordinates": [ 9.4826657, 47.6516148 ] } },
{ "type": "Feature", "properties": { "Name": "Evangelische Erlöserkirche", "description": "<b>Kategorie:<\/b> Information — Besucherinformation<br><b>Distanz:<\/b>  2190 m<br><b>Website:<\/b> <br><b>Wikipedia:<\/b> <br><b>Telefon:<\/b> ", "tessellate": -1, "extrude": 0, "visibility": -1 }, "geometry": { "type": "Point", "coordinates": [ 9.4892702, 47.6695703 ] } },
{ "type": "Feature", "properties": { "Name": "Naturschutzgebiet eriskircher Ried", "description": "<b>Kategorie:<\/b> Information — Besucherinformation<br><b>Distanz:<\/b>  1783 m<br><b>Website:<\/b> <br><b>Wikipedia:<\/b> <br><b>Telefon:<\/b> ", "tessellate": -1, "extrude": 0, "visibility": -1 }, "geometry": { "type": "Point", "coordinates": [ 9.5116141, 47.6380643 ] } },
{ "type": "Feature", "properties": { "Name": "Schoppenhof", "description": "<b>Kategorie:<\/b> Information — Besucherinformation<br><b>Distanz:<\/b>  2525 m<br><b>Website:<\/b> <br><b>Wikipedia:<\/b> <br><b>Telefon:<\/b> ", "tessellate": -1, "extrude": 0, "visibility": -1 }, "geometry": { "type": "Point", "coordinates": [ 9.5288127, 47.6439433 ] } },
{ "type": "Feature", "properties": { "Name": "Infotafel", "description": "<b>Kategorie:<\/b> Information — Besucherinformation<br><b>Distanz:<\/b>  3048 m<br><b>Website:<\/b> <br><b>Wikipedia:<\/b> <br><b>Telefon:<\/b> ", "tessellate": -1, "extrude": 0, "visibility": -1 }, "geometry": { "type": "Point", "coordinates": [ 9.4686043, 47.6703474 ] } },
{ "type": "Feature", "properties": { "Name": "Die Bodenseeschifffahrt", "description": "<b>Kategorie:<\/b> Information — Besucherinformation<br><b>Distanz:<\/b>   954 m<br><b>Website:<\/b> <br><b>Wikipedia:<\/b> <br><b>Telefon:<\/b> ", "tessellate": -1, "extrude": 0, "visibility": -1 }, "geometry": { "type": "Point", "coordinates": [ 9.4839373, 47.6509554 ] } },
{ "type": "Feature", "properties": { "Name": "Speisekarte", "description": "<b>Kategorie:<\/b> Information — Besucherinformation<br><b>Distanz:<\/b>  2471 m<br><b>Website:<\/b> <br><b>Wikipedia:<\/b> <br><b>Telefon:<\/b> ", "tessellate": -1, "extrude": 0, "visibility": -1 }, "geometry": { "type": "Point", "coordinates": [ 9.5036412, 47.6722273 ] } },
{ "type": "Feature", "properties": { "Name": "Mobilitätsstation Hinterer Hafen", "description": "<b>Kategorie:<\/b> Information — Besucherinformation<br><b>Distanz:<\/b>  1010 m<br><b>Website:<\/b> <br><b>Wikipedia:<\/b> <br><b>Telefon:<\/b> ", "tessellate": -1, "extrude": 0, "visibility": -1 }, "geometry": { "type": "Point", "coordinates": [ 9.4834596, 47.6523736 ] } },
{ "type": "Feature", "properties": { "Name": "Totes Holz - lebendiger Wald", "description": "<b>Kategorie:<\/b> Information — Besucherinformation<br><b>Distanz:<\/b>  1957 m<br><b>Website:<\/b> <br><b>Wikipedia:<\/b> <br><b>Telefon:<\/b> ", "tessellate": -1, "extrude": 0, "visibility": -1 }, "geometry": { "type": "Point", "coordinates": [ 9.4756566, 47.660964 ] } },
{ "type": "Feature", "properties": { "Name": "STATION 7 - Rudern an der Schaukel", "description": "<b>Kategorie:<\/b> Information — Besucherinformation<br><b>Distanz:<\/b>  1915 m<br><b>Website:<\/b> https:\/\/platzwechsel.jetzt\/courses\/bewegungsparcors-riedlewald\/<br><b>Wikipedia:<\/b> <br><b>Telefon:<\/b> ", "tessellate": -1, "extrude": 0, "visibility": -1 }, "geometry": { "type": "Point", "coordinates": [ 9.4766775, 47.6612346 ] } },
{ "type": "Feature", "properties": { "Name": "STATION 2 - Liegestütz an der Bank", "description": "<b>Kategorie:<\/b> Information — Besucherinformation<br><b>Distanz:<\/b>  1966 m<br><b>Website:<\/b> https:\/\/platzwechsel.jetzt\/courses\/bewegungsparcors-riedlewald\/<br><b>Wikipedia:<\/b> <br><b>Telefon:<\/b> ", "tessellate": -1, "extrude": 0, "visibility": -1 }, "geometry": { "type": "Point", "coordinates": [ 9.4749223, 47.6603995 ] } },
{ "type": "Feature", "properties": { "Name": "STATION 1 - Hampelmann", "description": "<b>Kategorie:<\/b> Information — Besucherinformation<br><b>Distanz:<\/b>  1951 m<br><b>Website:<\/b> https:\/\/platzwechsel.jetzt\/courses\/bewegungsparcors-riedlewald\/<br><b>Wikipedia:<\/b> <br><b>Telefon:<\/b> ", "tessellate": -1, "extrude": 0, "visibility": -1 }, "geometry": { "type": "Point", "coordinates": [ 9.4746269, 47.6598448 ] } },
{ "type": "Feature", "properties": { "Name": "Trimm-Pfad Seewald", "description": "<b>Kategorie:<\/b> Information — Besucherinformation<br><b>Distanz:<\/b>  2015 m<br><b>Website:<\/b> <br><b>Wikipedia:<\/b> <br><b>Telefon:<\/b> ", "tessellate": -1, "extrude": 0, "visibility": -1 }, "geometry": { "type": "Point", "coordinates": [ 9.5136488, 47.6645196 ] } },
{ "type": "Feature", "properties": { "Name": "STATION 4 - Step Up's auf den Stein", "description": "<b>Kategorie:<\/b> Information — Besucherinformation<br><b>Distanz:<\/b>  1972 m<br><b>Website:<\/b> https:\/\/platzwechsel.jetzt\/courses\/bewegungsparcors-riedlewald\/<br><b>Wikipedia:<\/b> <br><b>Telefon:<\/b> ", "tessellate": -1, "extrude": 0, "visibility": -1 }, "geometry": { "type": "Point", "coordinates": [ 9.477572, 47.6627161 ] } },
{ "type": "Feature", "properties": { "Name": "Rathaus von 1907", "description": "<b>Kategorie:<\/b> Information — Besucherinformation<br><b>Distanz:<\/b>  1264 m<br><b>Website:<\/b> <br><b>Wikipedia:<\/b> <br><b>Telefon:<\/b> ", "tessellate": -1, "extrude": 0, "visibility": -1 }, "geometry": { "type": "Point", "coordinates": [ 9.4798315, 47.649817 ] } },
{ "type": "Feature", "properties": { "Name": "STATION 6 - Squatjumps auf den Betonblock", "description": "<b>Kategorie:<\/b> Information — Besucherinformation<br><b>Distanz:<\/b>  1782 m<br><b>Website:<\/b> https:\/\/platzwechsel.jetzt\/courses\/bewegungsparcors-riedlewald\/<br><b>Wikipedia:<\/b> <br><b>Telefon:<\/b> ", "tessellate": -1, "extrude": 0, "visibility": -1 }, "geometry": { "type": "Point", "coordinates": [ 9.4785274, 47.6608674 ] } },
{ "type": "Feature", "properties": { "Name": "Columban Aktuell", "description": "<b>Kategorie:<\/b> Information — Besucherinformation<br><b>Distanz:<\/b>   880 m<br><b>Website:<\/b> <br><b>Wikipedia:<\/b> <br><b>Telefon:<\/b> ", "tessellate": -1, "extrude": 0, "visibility": -1 }, "geometry": { "type": "Point", "coordinates": [ 9.4960037, 47.6584132 ] } },
{ "type": "Feature", "properties": { "Name": "Dorfplatz \"Am Anger\"", "description": "<b>Kategorie:<\/b> Information — Besucherinformation<br><b>Distanz:<\/b>  2266 m<br><b>Website:<\/b> <br><b>Wikipedia:<\/b> <br><b>Telefon:<\/b> ", "tessellate": -1, "extrude": 0, "visibility": -1 }, "geometry": { "type": "Point", "coordinates": [ 9.4887977, 47.6701944 ] } },
{ "type": "Feature", "properties": { "Name": "Gemeinschaft Siedlung Löwental", "description": "<b>Kategorie:<\/b> Information — Besucherinformation<br><b>Distanz:<\/b>  2287 m<br><b>Website:<\/b> <br><b>Wikipedia:<\/b> <br><b>Telefon:<\/b> ", "tessellate": -1, "extrude": 0, "visibility": -1 }, "geometry": { "type": "Point", "coordinates": [ 9.4892518, 47.6704647 ] } },
{ "type": "Feature", "properties": { "Name": "Württembergisches Bodenseeufer", "description": "<b>Kategorie:<\/b> Information — Besucherinformation<br><b>Distanz:<\/b>  2297 m<br><b>Website:<\/b> <br><b>Wikipedia:<\/b> <br><b>Telefon:<\/b> ", "tessellate": -1, "extrude": 0, "visibility": -1 }, "geometry": { "type": "Point", "coordinates": [ 9.4660412, 47.650857 ] } },
{ "type": "Feature", "properties": { "Name": "Im Geißenwäldle", "description": "<b>Kategorie:<\/b> Information — Besucherinformation<br><b>Distanz:<\/b>  2210 m<br><b>Website:<\/b> <br><b>Wikipedia:<\/b> <br><b>Telefon:<\/b> ", "tessellate": -1, "extrude": 0, "visibility": -1 }, "geometry": { "type": "Point", "coordinates": [ 9.4864242, 47.6691505 ] } },
{ "type": "Feature", "properties": { "Name": "Villa Bühler-Scupin", "description": "<b>Kategorie:<\/b> Information — Besucherinformation<br><b>Distanz:<\/b>  1514 m<br><b>Website:<\/b> <br><b>Wikipedia:<\/b> <br><b>Telefon:<\/b> ", "tessellate": -1, "extrude": 0, "visibility": -1 }, "geometry": { "type": "Point", "coordinates": [ 9.4764683, 47.6507956 ] } },
{ "type": "Feature", "properties": { "Name": "Siedlung Löwental", "description": "<b>Kategorie:<\/b> Information — Besucherinformation<br><b>Distanz:<\/b>  2262 m<br><b>Website:<\/b> <br><b>Wikipedia:<\/b> <br><b>Telefon:<\/b> ", "tessellate": -1, "extrude": 0, "visibility": -1 }, "geometry": { "type": "Point", "coordinates": [ 9.4886817, 47.6701303 ] } },
{ "type": "Feature", "properties": { "Name": "Sportpark Friedrichshafen", "description": "<b>Kategorie:<\/b> Information — Besucherinformation<br><b>Distanz:<\/b>  1943 m<br><b>Website:<\/b> <br><b>Wikipedia:<\/b> <br><b>Telefon:<\/b> ", "tessellate": -1, "extrude": 0, "visibility": -1 }, "geometry": { "type": "Point", "coordinates": [ 9.4798678, 47.6638208 ] } },
{ "type": "Feature", "properties": { "Name": "Sportpark Friedrichshafen", "description": "<b>Kategorie:<\/b> Information — Besucherinformation<br><b>Distanz:<\/b>  2058 m<br><b>Website:<\/b> <br><b>Wikipedia:<\/b> <br><b>Telefon:<\/b> ", "tessellate": -1, "extrude": 0, "visibility": -1 }, "geometry": { "type": "Point", "coordinates": [ 9.4792192, 47.6648003 ] } },
{ "type": "Feature", "properties": { "Name": "Polizeidirektion", "description": "<b>Kategorie:<\/b> Information — Besucherinformation<br><b>Distanz:<\/b>  1311 m<br><b>Website:<\/b> <br><b>Wikipedia:<\/b> <br><b>Telefon:<\/b> ", "tessellate": -1, "extrude": 0, "visibility": -1 }, "geometry": { "type": "Point", "coordinates": [ 9.4792717, 47.6517573 ] } },
{ "type": "Feature", "properties": { "Name": "Messe Friedrichshafen: Erster Standort", "description": "<b>Kategorie:<\/b> Information — Besucherinformation<br><b>Distanz:<\/b>  1613 m<br><b>Website:<\/b> <br><b>Wikipedia:<\/b> <br><b>Telefon:<\/b> ", "tessellate": -1, "extrude": 0, "visibility": -1 }, "geometry": { "type": "Point", "coordinates": [ 9.4772712, 47.6568018 ] } },
{ "type": "Feature", "properties": { "Name": "MiniaturGolf", "description": "<b>Kategorie:<\/b> Information — Besucherinformation<br><b>Distanz:<\/b>  1886 m<br><b>Website:<\/b> <br><b>Wikipedia:<\/b> <br><b>Telefon:<\/b> ", "tessellate": -1, "extrude": 0, "visibility": -1 }, "geometry": { "type": "Point", "coordinates": [ 9.4715473, 47.6514763 ] } },
{ "type": "Feature", "properties": { "Name": "Katholische Pfarrkirche St. Nikolaus", "description": "<b>Kategorie:<\/b> Information — Besucherinformation<br><b>Distanz:<\/b>  1298 m<br><b>Website:<\/b> <br><b>Wikipedia:<\/b> <br><b>Telefon:<\/b> ", "tessellate": -1, "extrude": 0, "visibility": -1 }, "geometry": { "type": "Point", "coordinates": [ 9.4793479, 47.6501637 ] } },
{ "type": "Feature", "properties": { "Name": "Hafenbahnhof", "description": "<b>Kategorie:<\/b> Information — Besucherinformation<br><b>Distanz:<\/b>  1041 m<br><b>Website:<\/b> <br><b>Wikipedia:<\/b> <br><b>Telefon:<\/b> ", "tessellate": -1, "extrude": 0, "visibility": -1 }, "geometry": { "type": "Point", "coordinates": [ 9.4827698, 47.6504674 ] } },
{ "type": "Feature", "properties": { "Name": "Kaiser Wilhelm Denkmal", "description": "<b>Kategorie:<\/b> Information — Besucherinformation<br><b>Distanz:<\/b>  1546 m<br><b>Website:<\/b> <br><b>Wikipedia:<\/b> <br><b>Telefon:<\/b> ", "tessellate": -1, "extrude": 0, "visibility": -1 }, "geometry": { "type": "Point", "coordinates": [ 9.476054, 47.6509545 ] } },
{ "type": "Feature", "properties": { "Name": "Willkommen im Riedlewald-Parcours! Hier geht's los!", "description": "<b>Kategorie:<\/b> Information — Besucherinformation<br><b>Distanz:<\/b>  1954 m<br><b>Website:<\/b> https:\/\/www.bwegt.de\/land-und-leute\/das-land-erleben\/ausflugsziele\/detail\/joggingstrecke-friedrichshafen\/bewegungsparcour-riedlewald\/0d90980b-ea35-4ace-9f7c-288d3d087f79<br><b>Wikipedia:<\/b> <br><b>Telefon:<\/b> ", "tessellate": -1, "extrude": 0, "visibility": -1 }, "geometry": { "type": "Point", "coordinates": [ 9.4737547, 47.6588872 ] } },
{ "type": "Feature", "properties": { "Name": "Messe Friedrichshafen 2. Standort", "description": "<b>Kategorie:<\/b> Information — Besucherinformation<br><b>Distanz:<\/b>  1930 m<br><b>Website:<\/b> <br><b>Wikipedia:<\/b> <br><b>Telefon:<\/b> ", "tessellate": -1, "extrude": 0, "visibility": -1 }, "geometry": { "type": "Point", "coordinates": [ 9.4738137, 47.658501 ] } },
{ "type": "Feature", "properties": { "Name": "Uferpromenade", "description": "<b>Kategorie:<\/b> Information — Besucherinformation<br><b>Distanz:<\/b>  1460 m<br><b>Website:<\/b> <br><b>Wikipedia:<\/b> <br><b>Telefon:<\/b> ", "tessellate": -1, "extrude": 0, "visibility": -1 }, "geometry": { "type": "Point", "coordinates": [ 9.4771904, 47.6502314 ] } },
{ "type": "Feature", "properties": { "Name": "Kurhaus und Kurgartenhotel", "description": "<b>Kategorie:<\/b> Information — Besucherinformation<br><b>Distanz:<\/b>  1981 m<br><b>Website:<\/b> <br><b>Wikipedia:<\/b> <br><b>Telefon:<\/b> ", "tessellate": -1, "extrude": 0, "visibility": -1 }, "geometry": { "type": "Point", "coordinates": [ 9.4702552, 47.6510239 ] } },
{ "type": "Feature", "properties": { "Name": "STATION 5 - Seitwärtslaufen um den Wasserturm", "description": "<b>Kategorie:<\/b> Information — Besucherinformation<br><b>Distanz:<\/b>  1653 m<br><b>Website:<\/b> <br><b>Wikipedia:<\/b> <br><b>Telefon:<\/b> ", "tessellate": -1, "extrude": 0, "visibility": -1 }, "geometry": { "type": "Point", "coordinates": [ 9.4801533, 47.6603653 ] } },
{ "type": "Feature", "properties": { "Name": "Buchhorner Stadtmauer", "description": "<b>Kategorie:<\/b> Information — Besucherinformation<br><b>Distanz:<\/b>  1336 m<br><b>Website:<\/b> <br><b>Wikipedia:<\/b> <br><b>Telefon:<\/b> ", "tessellate": -1, "extrude": 0, "visibility": -1 }, "geometry": { "type": "Point", "coordinates": [ 9.4788644, 47.6497847 ] } },
{ "type": "Feature", "properties": { "Name": "Löwentalsiedlung", "description": "<b>Kategorie:<\/b> Information — Besucherinformation<br><b>Distanz:<\/b>  2552 m<br><b>Website:<\/b> <br><b>Wikipedia:<\/b> <br><b>Telefon:<\/b> ", "tessellate": -1, "extrude": 0, "visibility": -1 }, "geometry": { "type": "Point", "coordinates": [ 9.4876826, 47.6726542 ] } },
{ "type": "Feature", "properties": { "Name": "Altes Pfarrhaus", "description": "<b>Kategorie:<\/b> Information — Besucherinformation<br><b>Distanz:<\/b>  1329 m<br><b>Website:<\/b> <br><b>Wikipedia:<\/b> <br><b>Telefon:<\/b> ", "tessellate": -1, "extrude": 0, "visibility": -1 }, "geometry": { "type": "Point", "coordinates": [ 9.4789581, 47.6497464 ] } },
{ "type": "Feature", "properties": { "Name": "Rund- und Seefahrten mit der \"MS\" Seeschwalbe", "description": "<b>Kategorie:<\/b> Information — Besucherinformation<br><b>Distanz:<\/b>  1262 m<br><b>Website:<\/b> <br><b>Wikipedia:<\/b> <br><b>Telefon:<\/b> ", "tessellate": -1, "extrude": 0, "visibility": -1 }, "geometry": { "type": "Point", "coordinates": [ 9.479962, 47.6490332 ] } },
{ "type": "Feature", "properties": { "Name": "Maybachstraße", "description": "<b>Kategorie:<\/b> Information — Besucherinformation<br><b>Distanz:<\/b>  1912 m<br><b>Website:<\/b> https:\/\/www.kmg-fn.de\/index.php\/maybach-weg<br><b>Wikipedia:<\/b> <br><b>Telefon:<\/b> ", "tessellate": -1, "extrude": 0, "visibility": -1 }, "geometry": { "type": "Point", "coordinates": [ 9.4738796, 47.6582418 ] } },
{ "type": "Feature", "properties": { "Name": "Fön - Fernsicht mit Nebenwirkungen", "description": "<b>Kategorie:<\/b> Information — Besucherinformation<br><b>Distanz:<\/b>  1474 m<br><b>Website:<\/b> <br><b>Wikipedia:<\/b> <br><b>Telefon:<\/b> ", "tessellate": -1, "extrude": 0, "visibility": -1 }, "geometry": { "type": "Point", "coordinates": [ 9.4770051, 47.6503585 ] } },
{ "type": "Feature", "properties": { "Name": "Luftwaffenhelfer in Friedrichshafen", "description": "<b>Kategorie:<\/b> Information — Besucherinformation<br><b>Distanz:<\/b>  1510 m<br><b>Website:<\/b> <br><b>Wikipedia:<\/b> <br><b>Telefon:<\/b> ", "tessellate": -1, "extrude": 0, "visibility": -1 }, "geometry": { "type": "Point", "coordinates": [ 9.4779515, 47.6555416 ] } },
{ "type": "Feature", "properties": { "Name": "Gefederte Städter", "description": "<b>Kategorie:<\/b> Information — Besucherinformation<br><b>Distanz:<\/b>  1368 m<br><b>Website:<\/b> <br><b>Wikipedia:<\/b> <br><b>Telefon:<\/b> ", "tessellate": -1, "extrude": 0, "visibility": -1 }, "geometry": { "type": "Point", "coordinates": [ 9.4784567, 47.649599 ] } },
{ "type": "Feature", "properties": { "Name": "Von der Schulbank weg in den Krieg", "description": "<b>Kategorie:<\/b> Information — Besucherinformation<br><b>Distanz:<\/b>  1509 m<br><b>Website:<\/b> <br><b>Wikipedia:<\/b> <br><b>Telefon:<\/b> ", "tessellate": -1, "extrude": 0, "visibility": -1 }, "geometry": { "type": "Point", "coordinates": [ 9.4779754, 47.6555471 ] } },
{ "type": "Feature", "properties": { "Name": "Maybachplatz mit Maybach-Stelen", "description": "<b>Kategorie:<\/b> Information — Besucherinformation<br><b>Distanz:<\/b>  1913 m<br><b>Website:<\/b> https:\/\/www.kmg-fn.de\/index.php\/maybach-weg<br><b>Wikipedia:<\/b> <br><b>Telefon:<\/b> ", "tessellate": -1, "extrude": 0, "visibility": -1 }, "geometry": { "type": "Point", "coordinates": [ 9.4734525, 47.6576467 ] } },
{ "type": "Feature", "properties": { "Name": "Partnerstadt, Patenschaften und Freundschaften der Stadt Friedrichshafen", "description": "<b>Kategorie:<\/b> Information — Besucherinformation<br><b>Distanz:<\/b>  1403 m<br><b>Website:<\/b> <br><b>Wikipedia:<\/b> <br><b>Telefon:<\/b> ", "tessellate": -1, "extrude": 0, "visibility": -1 }, "geometry": { "type": "Point", "coordinates": [ 9.4779512, 47.6501449 ] } },
{ "type": "Feature", "properties": { "Name": "Graf Zeppelin Gymnasium", "description": "<b>Kategorie:<\/b> Information — Besucherinformation<br><b>Distanz:<\/b>  1505 m<br><b>Website:<\/b> <br><b>Wikipedia:<\/b> <br><b>Telefon:<\/b> ", "tessellate": -1, "extrude": 0, "visibility": -1 }, "geometry": { "type": "Point", "coordinates": [ 9.4780824, 47.6556313 ] } },
{ "type": "Feature", "properties": { "Name": "Spital", "description": "<b>Kategorie:<\/b> Information — Besucherinformation<br><b>Distanz:<\/b>  1370 m<br><b>Website:<\/b> <br><b>Wikipedia:<\/b> <br><b>Telefon:<\/b> ", "tessellate": -1, "extrude": 0, "visibility": -1 }, "geometry": { "type": "Point", "coordinates": [ 9.4784258, 47.6496959 ] } },
{ "type": "Feature", "properties": { "Name": "Salzstadel und buchhorner Rathaus", "description": "<b>Kategorie:<\/b> Information — Besucherinformation<br><b>Distanz:<\/b>  1130 m<br><b>Website:<\/b> <br><b>Wikipedia:<\/b> <br><b>Telefon:<\/b> ", "tessellate": -1, "extrude": 0, "visibility": -1 }, "geometry": { "type": "Point", "coordinates": [ 9.4816213, 47.6497137 ] } },
{ "type": "Feature", "properties": { "Name": "Firmengelände der ehemaligen Maybach-Motorenbau GmbH, heute MTU Friedrichshafen", "description": "<b>Kategorie:<\/b> Information — Besucherinformation<br><b>Distanz:<\/b>  1918 m<br><b>Website:<\/b> https:\/\/www.kmg-fn.de\/index.php\/maybach-weg<br><b>Wikipedia:<\/b> <br><b>Telefon:<\/b> ", "tessellate": -1, "extrude": 0, "visibility": -1 }, "geometry": { "type": "Point", "coordinates": [ 9.4730642, 47.6571641 ] } },
{ "type": "Feature", "properties": { "Name": "Buchhorner Brunnen", "description": "<b>Kategorie:<\/b> Information — Besucherinformation<br><b>Distanz:<\/b>  1170 m<br><b>Website:<\/b> <br><b>Wikipedia:<\/b> <br><b>Telefon:<\/b> ", "tessellate": -1, "extrude": 0, "visibility": -1 }, "geometry": { "type": "Point", "coordinates": [ 9.4810406, 47.6504925 ] } },
{ "type": "Feature", "properties": { "Name": "Hafen", "description": "<b>Kategorie:<\/b> Information — Besucherinformation<br><b>Distanz:<\/b>  1083 m<br><b>Website:<\/b> <br><b>Wikipedia:<\/b> <br><b>Telefon:<\/b> ", "tessellate": -1, "extrude": 0, "visibility": -1 }, "geometry": { "type": "Point", "coordinates": [ 9.4822324, 47.6499517 ] } },
{ "type": "Feature", "properties": { "Name": "Rundelmühle", "description": "<b>Kategorie:<\/b> Information — Besucherinformation<br><b>Distanz:<\/b>  1283 m<br><b>Website:<\/b> <br><b>Wikipedia:<\/b> <br><b>Telefon:<\/b> ", "tessellate": -1, "extrude": 0, "visibility": -1 }, "geometry": { "type": "Point", "coordinates": [ 9.4945928, 47.6619687 ] } },
{ "type": "Feature", "properties": { "Name": "Schmitthennersiedlung", "description": "<b>Kategorie:<\/b> Information — Besucherinformation<br><b>Distanz:<\/b>  2068 m<br><b>Website:<\/b> <br><b>Wikipedia:<\/b> <br><b>Telefon:<\/b> ", "tessellate": -1, "extrude": 0, "visibility": -1 }, "geometry": { "type": "Point", "coordinates": [ 9.4831362, 47.6667242 ] } },
{ "type": "Feature", "properties": { "Name": "Trautenmühle", "description": "<b>Kategorie:<\/b> Information — Besucherinformation<br><b>Distanz:<\/b>  2104 m<br><b>Website:<\/b> <br><b>Wikipedia:<\/b> <br><b>Telefon:<\/b> ", "tessellate": -1, "extrude": 0, "visibility": -1 }, "geometry": { "type": "Point", "coordinates": [ 9.4875659, 47.6684147 ] } },
{ "type": "Feature", "properties": { "Name": "Natur erleben - erkennen  - schützen", "description": "<b>Kategorie:<\/b> Information — Besucherinformation<br><b>Distanz:<\/b>   949 m<br><b>Website:<\/b> <br><b>Wikipedia:<\/b> <br><b>Telefon:<\/b> ", "tessellate": -1, "extrude": 0, "visibility": -1 }, "geometry": { "type": "Point", "coordinates": [ 9.4840016, 47.6508936 ] } },
{ "type": "Feature", "properties": { "Name": "Uferpromenade", "description": "<b>Kategorie:<\/b> Information — Besucherinformation<br><b>Distanz:<\/b>  1752 m<br><b>Website:<\/b> <br><b>Wikipedia:<\/b> <br><b>Telefon:<\/b> ", "tessellate": -1, "extrude": 0, "visibility": -1 }, "geometry": { "type": "Point", "coordinates": [ 9.4733959, 47.6519788 ] } },
{ "type": "Feature", "properties": { "Name": "Findlingsfund", "description": "<b>Kategorie:<\/b> Information — Besucherinformation<br><b>Distanz:<\/b>  2920 m<br><b>Website:<\/b> https:\/\/www.bodenseepfad.de\/<br><b>Wikipedia:<\/b> <br><b>Telefon:<\/b> ", "tessellate": -1, "extrude": 0, "visibility": -1 }, "geometry": { "type": "Point", "coordinates": [ 9.4747994, 47.6722441 ] } },
{ "type": "Feature", "properties": { "Name": "Villa Colsman", "description": "<b>Kategorie:<\/b> Information — Besucherinformation<br><b>Distanz:<\/b>  1944 m<br><b>Website:<\/b> <br><b>Wikipedia:<\/b> <br><b>Telefon:<\/b> ", "tessellate": -1, "extrude": 0, "visibility": -1 }, "geometry": { "type": "Point", "coordinates": [ 9.473197, 47.6579455 ] } },
{ "type": "Feature", "properties": { "Name": "Riedlehof", "description": "<b>Kategorie:<\/b> Information — Besucherinformation<br><b>Distanz:<\/b>  1673 m<br><b>Website:<\/b> <br><b>Wikipedia:<\/b> <br><b>Telefon:<\/b> ", "tessellate": -1, "extrude": 0, "visibility": -1 }, "geometry": { "type": "Point", "coordinates": [ 9.4832179, 47.6625289 ] } },
{ "type": "Feature", "properties": { "Name": "Zollhaus", "description": "<b>Kategorie:<\/b> Information — Besucherinformation<br><b>Distanz:<\/b>  2186 m<br><b>Website:<\/b> <br><b>Wikipedia:<\/b> <br><b>Telefon:<\/b> ", "tessellate": -1, "extrude": 0, "visibility": -1 }, "geometry": { "type": "Point", "coordinates": [ 9.4675242, 47.6504278 ] } },
{ "type": "Feature", "properties": { "Name": "Schloß Friedrichshafen", "description": "<b>Kategorie:<\/b> Information — Besucherinformation<br><b>Distanz:<\/b>  2437 m<br><b>Website:<\/b> <br><b>Wikipedia:<\/b> <br><b>Telefon:<\/b> ", "tessellate": -1, "extrude": 0, "visibility": -1 }, "geometry": { "type": "Point", "coordinates": [ 9.4641807, 47.6504897 ] } },
{ "type": "Feature", "properties": { "Name": "Schloßhafen", "description": "<b>Kategorie:<\/b> Information — Besucherinformation<br><b>Distanz:<\/b>  2241 m<br><b>Website:<\/b> <br><b>Wikipedia:<\/b> <br><b>Telefon:<\/b> ", "tessellate": -1, "extrude": 0, "visibility": -1 }, "geometry": { "type": "Point", "coordinates": [ 9.4668042, 47.6497106 ] } },
{ "type": "Feature", "properties": { "Name": "Fledermäuse live hören", "description": "<b>Kategorie:<\/b> Information — Besucherinformation<br><b>Distanz:<\/b>   116 m<br><b>Website:<\/b> <br><b>Wikipedia:<\/b> <br><b>Telefon:<\/b> ", "tessellate": -1, "extrude": 0, "visibility": -1 }, "geometry": { "type": "Point", "coordinates": [ 9.4956766, 47.6496742 ] } },
{ "type": "Feature", "properties": { "Name": "Fressen will gelernt sein!", "description": "<b>Kategorie:<\/b> Information — Besucherinformation<br><b>Distanz:<\/b>   735 m<br><b>Website:<\/b> <br><b>Wikipedia:<\/b> <br><b>Telefon:<\/b> ", "tessellate": -1, "extrude": 0, "visibility": -1 }, "geometry": { "type": "Point", "coordinates": [ 9.4868791, 47.6511395 ] } },
{ "type": "Feature", "properties": { "Name": "Karl-Olga-Brunnen", "description": "<b>Kategorie:<\/b> Information — Besucherinformation<br><b>Distanz:<\/b>  2023 m<br><b>Website:<\/b> <br><b>Wikipedia:<\/b> <br><b>Telefon:<\/b> ", "tessellate": -1, "extrude": 0, "visibility": -1 }, "geometry": { "type": "Point", "coordinates": [ 9.4697849, 47.6520606 ] } },
{ "type": "Feature", "properties": { "Name": "Villa Winz", "description": "<b>Kategorie:<\/b> Information — Besucherinformation<br><b>Distanz:<\/b>  2406 m<br><b>Website:<\/b> <br><b>Wikipedia:<\/b> <br><b>Telefon:<\/b> ", "tessellate": -1, "extrude": 0, "visibility": -1 }, "geometry": { "type": "Point", "coordinates": [ 9.4647115, 47.6523747 ] } },
{ "type": "Feature", "properties": { "Name": "Kapelle St. Georg", "description": "<b>Kategorie:<\/b> Information — Besucherinformation<br><b>Distanz:<\/b>  1204 m<br><b>Website:<\/b> <br><b>Wikipedia:<\/b> <br><b>Telefon:<\/b> ", "tessellate": -1, "extrude": 0, "visibility": -1 }, "geometry": { "type": "Point", "coordinates": [ 9.5016302, 47.6607958 ] } },
{ "type": "Feature", "properties": { "Name": "7 Zeppelindorf", "description": "<b>Kategorie:<\/b> Information — Besucherinformation<br><b>Distanz:<\/b>  2271 m<br><b>Website:<\/b> <br><b>Wikipedia:<\/b> <br><b>Telefon:<\/b> ", "tessellate": -1, "extrude": 0, "visibility": -1 }, "geometry": { "type": "Point", "coordinates": [ 9.4757945, 47.6653156 ] } },
{ "type": "Feature", "properties": { "Name": "Schwanenbrunnen", "description": "<b>Kategorie:<\/b> Information — Besucherinformation<br><b>Distanz:<\/b>  1245 m<br><b>Website:<\/b> <br><b>Wikipedia:<\/b> <br><b>Telefon:<\/b> ", "tessellate": -1, "extrude": 0, "visibility": -1 }, "geometry": { "type": "Point", "coordinates": [ 9.4800413, 47.6505397 ] } },
{ "type": "Feature", "properties": { "Name": "Südwestbank Informationen", "description": "<b>Kategorie:<\/b> Information — Besucherinformation<br><b>Distanz:<\/b>  1094 m<br><b>Website:<\/b> <br><b>Wikipedia:<\/b> <br><b>Telefon:<\/b> ", "tessellate": -1, "extrude": 0, "visibility": -1 }, "geometry": { "type": "Point", "coordinates": [ 9.4820528, 47.650637 ] } },
{ "type": "Feature", "properties": { "Name": "Friedrichshafen in den 1920ern", "description": "<b>Kategorie:<\/b> Information — Besucherinformation<br><b>Distanz:<\/b>  1591 m<br><b>Website:<\/b> <br><b>Wikipedia:<\/b> <br><b>Telefon:<\/b> ", "tessellate": -1, "extrude": 0, "visibility": -1 }, "geometry": { "type": "Point", "coordinates": [ 9.4754553, 47.6509485 ] } },
{ "type": "Feature", "properties": { "Name": "Friedensbaum", "description": "<b>Kategorie:<\/b> Information — Besucherinformation<br><b>Distanz:<\/b>  1761 m<br><b>Website:<\/b> https:\/\/friedensbaum-fn.de\/<br><b>Wikipedia:<\/b> <br><b>Telefon:<\/b> ", "tessellate": -1, "extrude": 0, "visibility": -1 }, "geometry": { "type": "Point", "coordinates": [ 9.4732122, 47.6514442 ] } },
{ "type": "Feature", "properties": { "Name": "Rathaus von 1965", "description": "<b>Kategorie:<\/b> Information — Besucherinformation<br><b>Distanz:<\/b>  1241 m<br><b>Website:<\/b> <br><b>Wikipedia:<\/b> <br><b>Telefon:<\/b> ", "tessellate": -1, "extrude": 0, "visibility": -1 }, "geometry": { "type": "Point", "coordinates": [ 9.4801082, 47.6503041 ] } },
{ "type": "Feature", "properties": { "Name": "Öffentliche Bekanntmachungen", "description": "<b>Kategorie:<\/b> Information — Besucherinformation<br><b>Distanz:<\/b>  1240 m<br><b>Website:<\/b> <br><b>Wikipedia:<\/b> <br><b>Telefon:<\/b> ", "tessellate": -1, "extrude": 0, "visibility": -1 }, "geometry": { "type": "Point", "coordinates": [ 9.4801173, 47.6502965 ] } },
{ "type": "Feature", "properties": { "Name": "Schmitthenner Siedlung", "description": "<b>Kategorie:<\/b> Information — Besucherinformation<br><b>Distanz:<\/b>  2150 m<br><b>Website:<\/b> <br><b>Wikipedia:<\/b> <br><b>Telefon:<\/b> ", "tessellate": -1, "extrude": 0, "visibility": -1 }, "geometry": { "type": "Point", "coordinates": [ 9.4827203, 47.6674085 ] } },
{ "type": "Feature", "properties": { "Name": "Schmitthennersiedlung", "description": "<b>Kategorie:<\/b> Information — Besucherinformation<br><b>Distanz:<\/b>  2136 m<br><b>Website:<\/b> <br><b>Wikipedia:<\/b> <br><b>Telefon:<\/b> ", "tessellate": -1, "extrude": 0, "visibility": -1 }, "geometry": { "type": "Point", "coordinates": [ 9.480488, 47.6663275 ] } },
{ "type": "Feature", "properties": { "Name": "Speisekarte Lukullum", "description": "<b>Kategorie:<\/b> Information — Besucherinformation<br><b>Distanz:<\/b>  2075 m<br><b>Website:<\/b> <br><b>Wikipedia:<\/b> <br><b>Telefon:<\/b> ", "tessellate": -1, "extrude": 0, "visibility": -1 }, "geometry": { "type": "Point", "coordinates": [ 9.4691317, 47.6523574 ] } },
{ "type": "Feature", "properties": { "Name": "Graf-Zeppelin-Haus", "description": "<b>Kategorie:<\/b> Information — Besucherinformation<br><b>Distanz:<\/b>  2040 m<br><b>Website:<\/b> <br><b>Wikipedia:<\/b> <br><b>Telefon:<\/b> ", "tessellate": -1, "extrude": 0, "visibility": -1 }, "geometry": { "type": "Point", "coordinates": [ 9.4695528, 47.6520452 ] } },
{ "type": "Feature", "properties": { "Name": "Kinderhaus St. Agnes", "description": "<b>Kategorie:<\/b> Kinder & Jugend — Kindergarten<br><b>Distanz:<\/b>  2403 m<br><b>Website:<\/b> <br><b>Wikipedia:<\/b> <br><b>Telefon:<\/b> +49 7541 22266", "tessellate": -1, "extrude": 0, "visibility": -1 }, "geometry": { "type": "Point", "coordinates": [ 9.4657063, 47.6560783 ] } },
{ "type": "Feature", "properties": { "Name": "Kinderbetreuung im Kindernest", "description": "<b>Kategorie:<\/b> Kinder & Jugend — Kindergarten<br><b>Distanz:<\/b>  1317 m<br><b>Website:<\/b> https:\/\/kinderschutzbund-friedrichshafen.de\/familienangebot\/kindernest<br><b>Wikipedia:<\/b> <br><b>Telefon:<\/b> +49 7541 35241", "tessellate": -1, "extrude": 0, "visibility": -1 }, "geometry": { "type": "Point", "coordinates": [ 9.4791549, 47.651581 ] } },
{ "type": "Feature", "properties": { "Name": "element-i Kinderhaus WiKi", "description": "<b>Kategorie:<\/b> Kinder & Jugend — Kindergarten<br><b>Distanz:<\/b>  1354 m<br><b>Website:<\/b> https:\/\/www.element-i.de\/kinderhaeuser\/wiki\/<br><b>Wikipedia:<\/b> <br><b>Telefon:<\/b> +49 7541 9530162", "tessellate": -1, "extrude": 0, "visibility": -1 }, "geometry": { "type": "Point", "coordinates": [ 9.4997077, 47.662509 ] } },
{ "type": "Feature", "properties": { "Name": "element-i Kinderhaus Seehasen", "description": "<b>Kategorie:<\/b> Kinder & Jugend — Kindergarten<br><b>Distanz:<\/b>  1372 m<br><b>Website:<\/b> https:\/\/www.element-i.de\/kinderhaeuser\/seehasen\/<br><b>Wikipedia:<\/b> <br><b>Telefon:<\/b> ", "tessellate": -1, "extrude": 0, "visibility": -1 }, "geometry": { "type": "Point", "coordinates": [ 9.4993236, 47.6627114 ] } },
{ "type": "Feature", "properties": { "Name": "Zwergenhaus", "description": "<b>Kategorie:<\/b> Kinder & Jugend — Kindergarten<br><b>Distanz:<\/b>  2205 m<br><b>Website:<\/b> https:\/\/kindergarten.friedrichshafen.de\/friedrichshafen\/Zwergenhaus<br><b>Wikipedia:<\/b> <br><b>Telefon:<\/b> +49 7541 4893996", "tessellate": -1, "extrude": 0, "visibility": -1 }, "geometry": { "type": "Point", "coordinates": [ 9.4887763, 47.669617 ] } },
{ "type": "Feature", "properties": { "Name": "Kindergarten Katharina", "description": "<b>Kategorie:<\/b> Kinder & Jugend — Kindergarten<br><b>Distanz:<\/b>  1698 m<br><b>Website:<\/b> https:\/\/kindergarten.friedrichshafen.de\/Friedrichshafen\/Kindergarten+Katharina<br><b>Wikipedia:<\/b> <br><b>Telefon:<\/b> +49754120355870", "tessellate": -1, "extrude": 0, "visibility": -1 }, "geometry": { "type": "Point", "coordinates": [ 9.4765139, 47.6574954 ] } },
{ "type": "Feature", "properties": { "Name": "Cineplex Friedrichshafen", "description": "<b>Kategorie:<\/b> Kultur & Geschichte — Kino<br><b>Distanz:<\/b>  1931 m<br><b>Website:<\/b> https:\/\/www.cineplex.de\/friedrichshafen\/<br><b>Wikipedia:<\/b> <br><b>Telefon:<\/b> +49 1805 546636", "tessellate": -1, "extrude": 0, "visibility": -1 }, "geometry": { "type": "Point", "coordinates": [ 9.4821765, 47.6648744 ] } },
{ "type": "Feature", "properties": { "Name": "Häfler Mammutbaum", "description": "<b>Kategorie:<\/b> Kultur & Geschichte — Attraktion<br><b>Distanz:<\/b>  1495 m<br><b>Website:<\/b> https:\/\/www.monumentaltrees.com\/de\/deu\/badenwurttemberg\/bodensee\/4710_bodensees\/9555\/<br><b>Wikipedia:<\/b> <br><b>Telefon:<\/b> ", "tessellate": -1, "extrude": 0, "visibility": -1 }, "geometry": { "type": "Point", "coordinates": [ 9.476754, 47.6512452 ] } },
{ "type": "Feature", "properties": { "Name": "Schulmuseum", "description": "<b>Kategorie:<\/b> Kultur & Geschichte — Museum<br><b>Distanz:<\/b>  2072 m<br><b>Website:<\/b> https:\/\/www.schulmuseum-fn.de\/<br><b>Wikipedia:<\/b> de:Schulmuseum Friedrichshafen<br><b>Telefon:<\/b> +49 7541 32622", "tessellate": -1, "extrude": 0, "visibility": -1 }, "geometry": { "type": "Point", "coordinates": [ 9.4691392, 47.652171 ] } },
{ "type": "Feature", "properties": { "Name": "Galerie Gros", "description": "<b>Kategorie:<\/b> Kultur & Geschichte — Galerie<br><b>Distanz:<\/b>  1935 m<br><b>Website:<\/b> https:\/\/galerie-gros.jimdo.com\/<br><b>Wikipedia:<\/b> <br><b>Telefon:<\/b> +49 7541 9530624", "tessellate": -1, "extrude": 0, "visibility": -1 }, "geometry": { "type": "Point", "coordinates": [ 9.4709931, 47.652274 ] } },
{ "type": "Feature", "properties": { "Name": "Kunstverein", "description": "<b>Kategorie:<\/b> Kultur & Geschichte — Galerie<br><b>Distanz:<\/b>  1048 m<br><b>Website:<\/b> <br><b>Wikipedia:<\/b> <br><b>Telefon:<\/b> ", "tessellate": -1, "extrude": 0, "visibility": -1 }, "geometry": { "type": "Point", "coordinates": [ 9.4826896, 47.6509396 ] } },
{ "type": "Feature", "properties": { "Name": "ZF Forum", "description": "<b>Kategorie:<\/b> Kultur & Geschichte — Museum<br><b>Distanz:<\/b>  1120 m<br><b>Website:<\/b> https:\/\/www.zf.com\/site\/zfforum\/de\/homepage\/zf_forum.html<br><b>Wikipedia:<\/b> <br><b>Telefon:<\/b> +49 7541 77 0", "tessellate": -1, "extrude": 0, "visibility": -1 }, "geometry": { "type": "Point", "coordinates": [ 9.4837221, 47.6555507 ] } },
{ "type": "Feature", "properties": { "Name": "Galerie Bernd Lutze", "description": "<b>Kategorie:<\/b> Kultur & Geschichte — Galerie<br><b>Distanz:<\/b>  2430 m<br><b>Website:<\/b> <br><b>Wikipedia:<\/b> <br><b>Telefon:<\/b> +497541 22 713", "tessellate": -1, "extrude": 0, "visibility": -1 }, "geometry": { "type": "Point", "coordinates": [ 9.4644939, 47.6531093 ] } },
{ "type": "Feature", "properties": { "Name": "Cinéma 17", "description": "<b>Kategorie:<\/b> Kultur & Geschichte — Kino<br><b>Distanz:<\/b>  1899 m<br><b>Website:<\/b> https:\/\/www.kulturhaus-caserne.de\/<br><b>Wikipedia:<\/b> <br><b>Telefon:<\/b> ", "tessellate": -1, "extrude": 0, "visibility": -1 }, "geometry": { "type": "Point", "coordinates": [ 9.4732664, 47.6570481 ] } },
{ "type": "Feature", "properties": { "Name": "Bild & Macht", "description": "<b>Kategorie:<\/b> Kultur & Geschichte — Galerie<br><b>Distanz:<\/b>  1008 m<br><b>Website:<\/b> https:\/\/www.zeppelin-museum.de\/ausstellungen\/bild-und-macht<br><b>Wikipedia:<\/b> <br><b>Telefon:<\/b> ", "tessellate": -1, "extrude": 0, "visibility": -1 }, "geometry": { "type": "Point", "coordinates": [ 9.4832088, 47.6508297 ] } },
{ "type": "Feature", "properties": { "Name": "Aussichtsplattform Moleturm", "description": "<b>Kategorie:<\/b> Natur & Landschaft — Aussichtspunkt<br><b>Distanz:<\/b>  1113 m<br><b>Website:<\/b> <br><b>Wikipedia:<\/b> <br><b>Telefon:<\/b> ", "tessellate": -1, "extrude": 0, "visibility": -1 }, "geometry": { "type": "Point", "coordinates": [ 9.4820736, 47.6486161 ] } },
{ "type": "Feature", "properties": { "Name": "Seedole", "description": "<b>Kategorie:<\/b> Natur & Landschaft — Aussichtspunkt<br><b>Distanz:<\/b>   649 m<br><b>Website:<\/b> <br><b>Wikipedia:<\/b> <br><b>Telefon:<\/b> ", "tessellate": -1, "extrude": 0, "visibility": -1 }, "geometry": { "type": "Point", "coordinates": [ 9.501736, 47.6457963 ] } },
{ "type": "Feature", "properties": { "Name": "Aussichtsplatform Eriskircher Ried", "description": "<b>Kategorie:<\/b> Natur & Landschaft — Aussichtspunkt<br><b>Distanz:<\/b>  2444 m<br><b>Website:<\/b> <br><b>Wikipedia:<\/b> <br><b>Telefon:<\/b> ", "tessellate": -1, "extrude": 0, "visibility": -1 }, "geometry": { "type": "Point", "coordinates": [ 9.5165136, 47.6330963 ] } },
{ "type": "Feature", "properties": { "Name": "Kippenhorn", "description": "<b>Kategorie:<\/b> Natur & Landschaft — Natur-Feature (alle)<br><b>Distanz:<\/b> 10548 m<br><b>Website:<\/b> <br><b>Wikipedia:<\/b> <br><b>Telefon:<\/b> ", "tessellate": -1, "extrude": 0, "visibility": -1 }, "geometry": { "type": "Point", "coordinates": [ 9.3568867, 47.660117 ] } },
{ "type": "Feature", "properties": { "Name": "Rotachmündung", "description": "<b>Kategorie:<\/b> Natur & Landschaft — Aussichtspunkt<br><b>Distanz:<\/b>   193 m<br><b>Website:<\/b> <br><b>Wikipedia:<\/b> <br><b>Telefon:<\/b> ", "tessellate": -1, "extrude": 0, "visibility": -1 }, "geometry": { "type": "Point", "coordinates": [ 9.4959141, 47.6488337 ] } },
{ "type": "Feature", "properties": { "Name": "Friedensbaum", "description": "<b>Kategorie:<\/b> Natur & Landschaft — Natur-Feature (alle)<br><b>Distanz:<\/b>  1755 m<br><b>Website:<\/b> https:\/\/friedensbaum-fn.de\/<br><b>Wikipedia:<\/b> <br><b>Telefon:<\/b> ", "tessellate": -1, "extrude": 0, "visibility": -1 }, "geometry": { "type": "Point", "coordinates": [ 9.4733042, 47.6514875 ] } },
{ "type": "Feature", "properties": { "Name": "Schlosshorn", "description": "<b>Kategorie:<\/b> Natur & Landschaft — Aussichtspunkt<br><b>Distanz:<\/b>  2379 m<br><b>Website:<\/b> <br><b>Wikipedia:<\/b> <br><b>Telefon:<\/b> ", "tessellate": -1, "extrude": 0, "visibility": -1 }, "geometry": { "type": "Point", "coordinates": [ 9.4651171, 47.648282 ] } },
{ "type": "Feature", "properties": { "Name": "Berg", "description": "<b>Kategorie:<\/b> Natur & Landschaft — Natur-Feature (alle)<br><b>Distanz:<\/b> 21824 m<br><b>Website:<\/b> <br><b>Wikipedia:<\/b> <br><b>Telefon:<\/b> ", "tessellate": -1, "extrude": 0, "visibility": -1 }, "geometry": { "type": "Point", "coordinates": [ 9.4883831, 47.8467878 ] } }
]
}
