{
"type": "FeatureCollection",
"name": "merged",
"features": [
{ "type": "Feature", "properties": { "Name": "JH 17 — Jugendherberge Mannheim International", "description": "<b>JH Nr:</b> 17<br><b>Name:</b> Jugendherberge Mannheim International<br><b>Ort:</b> Mannheim", "tessellate": -1, "extrude": 0, "visibility": -1 }, "geometry": { "type": "Point", "coordinates": [ 8.4638865, 49.4767632 ] } },
{ "type": "Feature", "properties": { "Name": "Universität Mannheim", "description": "<b>Kategorie:<\/b> Bildungsinfrastruktur — Universität<br><b>Distanz:<\/b>  722 m<br><b>Website:<\/b> https:\/\/www.uni-mannheim.de\/<br><b>Wikipedia:<\/b> de:Universität Mannheim<br><b>Telefon:<\/b> +49 621 1812222", "tessellate": -1, "extrude": 0, "visibility": -1 }, "geometry": { "type": "Point", "coordinates": [ 8.4645749, 49.4832445 ] } },
{ "type": "Feature", "properties": { "Name": "Stadtteilbibliothek Neckarau", "description": "<b>Kategorie:<\/b> Bildungsinfrastruktur — Bibliothek<br><b>Distanz:<\/b> 2564 m<br><b>Website:<\/b> https:\/\/www.mannheim.de\/de\/bildung-staerken\/stadtbibliothek\/adressen-und-oeffnungszeiten\/zweigstellen-in-den-stadtteilen\/neckarau<br><b>Wikipedia:<\/b> <br><b>Telefon:<\/b> +49 621 293 183860", "tessellate": -1, "extrude": 0, "visibility": -1 }, "geometry": { "type": "Point", "coordinates": [ 8.4860312, 49.4587799 ] } },
{ "type": "Feature", "properties": { "Name": "Jugendkulturzentrum FORUM", "description": "<b>Kategorie:<\/b> Bildungsinfrastruktur — Kunstzentrum<br><b>Distanz:<\/b> 2251 m<br><b>Website:<\/b> https:\/\/www.forum-mannheim.de\/<br><b>Wikipedia:<\/b> <br><b>Telefon:<\/b> ", "tessellate": -1, "extrude": 0, "visibility": -1 }, "geometry": { "type": "Point", "coordinates": [ 8.4787963, 49.494532 ] } },
{ "type": "Feature", "properties": { "Name": "Almenhofschule - Grundschule", "description": "<b>Kategorie:<\/b> Bildungsinfrastruktur — Schule<br><b>Distanz:<\/b> 2342 m<br><b>Website:<\/b> <br><b>Wikipedia:<\/b> <br><b>Telefon:<\/b> ", "tessellate": -1, "extrude": 0, "visibility": -1 }, "geometry": { "type": "Point", "coordinates": [ 8.4826037, 49.4595843 ] } },
{ "type": "Feature", "properties": { "Name": "Bibliothek der Technischen Hochschule Mannheim", "description": "<b>Kategorie:<\/b> Bildungsinfrastruktur — Bibliothek<br><b>Distanz:<\/b> 1465 m<br><b>Website:<\/b> https:\/\/www.bib.hs-mannheim.de\/<br><b>Wikipedia:<\/b> <br><b>Telefon:<\/b> ", "tessellate": -1, "extrude": 0, "visibility": -1 }, "geometry": { "type": "Point", "coordinates": [ 8.4821201, 49.4710583 ] } },
{ "type": "Feature", "properties": { "Name": "Stadtbibliothek Mannheim", "description": "<b>Kategorie:<\/b> Bildungsinfrastruktur — Bibliothek<br><b>Distanz:<\/b> 1050 m<br><b>Website:<\/b> <br><b>Wikipedia:<\/b> de:Stadtbibliothek Mannheim<br><b>Telefon:<\/b> +49 621 2938935", "tessellate": -1, "extrude": 0, "visibility": -1 }, "geometry": { "type": "Point", "coordinates": [ 8.4653282, 49.486165 ] } },
{ "type": "Feature", "properties": { "Name": "Bibliothek des Landesmuseum für Technik und Arbeit", "description": "<b>Kategorie:<\/b> Bildungsinfrastruktur — Bibliothek<br><b>Distanz:<\/b> 2367 m<br><b>Website:<\/b> <br><b>Wikipedia:<\/b> <br><b>Telefon:<\/b> ", "tessellate": -1, "extrude": 0, "visibility": -1 }, "geometry": { "type": "Point", "coordinates": [ 8.4965594, 49.4767832 ] } },
{ "type": "Feature", "properties": { "Name": "Geschwister-Scholl-Gymnasium", "description": "<b>Kategorie:<\/b> Bildungsinfrastruktur — Schule<br><b>Distanz:<\/b>  914 m<br><b>Website:<\/b> https:\/\/www.schollonline.de\/<br><b>Wikipedia:<\/b> de:Geschwister-Scholl-Gymnasium (Ludwigshafen)<br><b>Telefon:<\/b> +49 621 504431110", "tessellate": -1, "extrude": 0, "visibility": -1 }, "geometry": { "type": "Point", "coordinates": [ 8.4523317, 49.4734625 ] } },
{ "type": "Feature", "properties": { "Name": "Stadtbibliothek", "description": "<b>Kategorie:<\/b> Bildungsinfrastruktur — Bibliothek<br><b>Distanz:<\/b> 1199 m<br><b>Website:<\/b> <br><b>Wikipedia:<\/b> <br><b>Telefon:<\/b> ", "tessellate": -1, "extrude": 0, "visibility": -1 }, "geometry": { "type": "Point", "coordinates": [ 8.4486158, 49.4809326 ] } },
{ "type": "Feature", "properties": { "Name": "Städt. Musikschule Mannheim", "description": "<b>Kategorie:<\/b> Bildungsinfrastruktur — Kunstzentrum<br><b>Distanz:<\/b> 1370 m<br><b>Website:<\/b> https:\/\/www.mannheim.de\/bildung-staerken\/musikschule<br><b>Wikipedia:<\/b> <br><b>Telefon:<\/b> +49 621 2938752", "tessellate": -1, "extrude": 0, "visibility": -1 }, "geometry": { "type": "Point", "coordinates": [ 8.4633137, 49.4890826 ] } },
{ "type": "Feature", "properties": { "Name": "Kinder- und Jugendbibliothek", "description": "<b>Kategorie:<\/b> Bildungsinfrastruktur — Bibliothek<br><b>Distanz:<\/b> 1029 m<br><b>Website:<\/b> https:\/\/www.mannheim.de\/bildung-staerken\/kinder-und-jugendbibliothek-im-dalberghaus<br><b>Wikipedia:<\/b> <br><b>Telefon:<\/b> +49 621 2938916", "tessellate": -1, "extrude": 0, "visibility": -1 }, "geometry": { "type": "Point", "coordinates": [ 8.4668922, 49.4858105 ] } },
{ "type": "Feature", "properties": { "Name": "Theaterakademie Mannheim e.V.", "description": "<b>Kategorie:<\/b> Bildungsinfrastruktur — Schule<br><b>Distanz:<\/b> 2552 m<br><b>Website:<\/b> <br><b>Wikipedia:<\/b> <br><b>Telefon:<\/b> ", "tessellate": -1, "extrude": 0, "visibility": -1 }, "geometry": { "type": "Point", "coordinates": [ 8.4763132, 49.4982422 ] } },
{ "type": "Feature", "properties": { "Name": "Bernhard-Kahn-Bücherei Stadtbibliothek", "description": "<b>Kategorie:<\/b> Bildungsinfrastruktur — Bibliothek<br><b>Distanz:<\/b> 2448 m<br><b>Website:<\/b> https:\/\/www.neckarstadt-west.de\/bildung\/ausserschulische-bildungsangebote\/bernhard-kahn-buecherei<br><b>Wikipedia:<\/b> <br><b>Telefon:<\/b> +49 621 2939198", "tessellate": -1, "extrude": 0, "visibility": -1 }, "geometry": { "type": "Point", "coordinates": [ 8.4688467, 49.4985482 ] } },
{ "type": "Feature", "properties": { "Name": "Akademie für Kommunikation Mannheim", "description": "<b>Kategorie:<\/b> Bildungsinfrastruktur — Schule<br><b>Distanz:<\/b> 1433 m<br><b>Website:<\/b> https:\/\/www.akademie-bw.de\/<br><b>Wikipedia:<\/b> <br><b>Telefon:<\/b> +49 621 3364400", "tessellate": -1, "extrude": 0, "visibility": -1 }, "geometry": { "type": "Point", "coordinates": [ 8.4826352, 49.4808859 ] } },
{ "type": "Feature", "properties": { "Name": "Technische Hochschule Mannheim", "description": "<b>Kategorie:<\/b> Bildungsinfrastruktur — Universität<br><b>Distanz:<\/b> 1508 m<br><b>Website:<\/b> https:\/\/www.hs-mannheim.de\/<br><b>Wikipedia:<\/b> de:Hochschule Mannheim<br><b>Telefon:<\/b> ", "tessellate": -1, "extrude": 0, "visibility": -1 }, "geometry": { "type": "Point", "coordinates": [ 8.4819024, 49.4699765 ] } },
{ "type": "Feature", "properties": { "Name": "Carlo Schmid Schule", "description": "<b>Kategorie:<\/b> Bildungsinfrastruktur — Schule<br><b>Distanz:<\/b> 2344 m<br><b>Website:<\/b> http:\/\/www.carlo-schmid-schule.de\/bildungsangebot\/mit-realschulabschluss\/berufskolleg-fremdsprachen\/<br><b>Wikipedia:<\/b> <br><b>Telefon:<\/b> ", "tessellate": -1, "extrude": 0, "visibility": -1 }, "geometry": { "type": "Point", "coordinates": [ 8.488841, 49.4633401 ] } },
{ "type": "Feature", "properties": { "Name": "Rockschule melle beats Mannheim", "description": "<b>Kategorie:<\/b> Bildungsinfrastruktur — Schule<br><b>Distanz:<\/b> 2319 m<br><b>Website:<\/b> https:\/\/www.rockschule-mannheim.de\/<br><b>Wikipedia:<\/b> <br><b>Telefon:<\/b> ", "tessellate": -1, "extrude": 0, "visibility": -1 }, "geometry": { "type": "Point", "coordinates": [ 8.488651, 49.4635506 ] } },
{ "type": "Feature", "properties": { "Name": "Stadtbibliothek Mannheim, Verwaltung", "description": "<b>Kategorie:<\/b> Bildungsinfrastruktur — Bibliothek<br><b>Distanz:<\/b> 1029 m<br><b>Website:<\/b> <br><b>Wikipedia:<\/b> <br><b>Telefon:<\/b> ", "tessellate": -1, "extrude": 0, "visibility": -1 }, "geometry": { "type": "Point", "coordinates": [ 8.4669084, 49.4858044 ] } },
{ "type": "Feature", "properties": { "Name": "Musikbibliothek", "description": "<b>Kategorie:<\/b> Bildungsinfrastruktur — Bibliothek<br><b>Distanz:<\/b> 1028 m<br><b>Website:<\/b> https:\/\/www.mannheim.de\/bildung-staerken\/musikbibliothek-im-dalberghaus<br><b>Wikipedia:<\/b> <br><b>Telefon:<\/b> +49 621 2938900", "tessellate": -1, "extrude": 0, "visibility": -1 }, "geometry": { "type": "Point", "coordinates": [ 8.4669257, 49.4857978 ] } },
{ "type": "Feature", "properties": { "Name": "Universitätsbibliothek Bereich Schloss Ehrenhof", "description": "<b>Kategorie:<\/b> Bildungsinfrastruktur — Bibliothek<br><b>Distanz:<\/b>  677 m<br><b>Website:<\/b> <br><b>Wikipedia:<\/b> <br><b>Telefon:<\/b> ", "tessellate": -1, "extrude": 0, "visibility": -1 }, "geometry": { "type": "Point", "coordinates": [ 8.4622595, 49.4827626 ] } },
{ "type": "Feature", "properties": { "Name": "VWA - Verwaltungs- und Wirtschafts-Akademie Rhein-Neckar e.V.", "description": "<b>Kategorie:<\/b> Bildungsinfrastruktur — Schule<br><b>Distanz:<\/b>  816 m<br><b>Website:<\/b> https:\/\/www.vwa-rhein-neckar.de\/<br><b>Wikipedia:<\/b> <br><b>Telefon:<\/b> ", "tessellate": -1, "extrude": 0, "visibility": -1 }, "geometry": { "type": "Point", "coordinates": [ 8.4738689, 49.4801573 ] } },
{ "type": "Feature", "properties": { "Name": "DAA Kaufmännisches Trainingszentrum", "description": "<b>Kategorie:<\/b> Bildungsinfrastruktur — Schule<br><b>Distanz:<\/b>  664 m<br><b>Website:<\/b> http:\/\/www.daa-job-plus.de\/home.html<br><b>Wikipedia:<\/b> <br><b>Telefon:<\/b> +49 621 129420", "tessellate": -1, "extrude": 0, "visibility": -1 }, "geometry": { "type": "Point", "coordinates": [ 8.4712833, 49.4802925 ] } },
{ "type": "Feature", "properties": { "Name": "HFH Hamburger Fern-Hochschule Studienzentrum Mannheim", "description": "<b>Kategorie:<\/b> Bildungsinfrastruktur — Schule<br><b>Distanz:<\/b>  665 m<br><b>Website:<\/b> https:\/\/www.hamburger-fh.de\/studienzentren\/mannheim\/mannheim-gesundheit-und-pflege\/252<br><b>Wikipedia:<\/b> <br><b>Telefon:<\/b> +49 621 1294225", "tessellate": -1, "extrude": 0, "visibility": -1 }, "geometry": { "type": "Point", "coordinates": [ 8.4713561, 49.4802363 ] } },
{ "type": "Feature", "properties": { "Name": "Universität Mannheim", "description": "<b>Kategorie:<\/b> Bildungsinfrastruktur — Universität<br><b>Distanz:<\/b>  719 m<br><b>Website:<\/b> <br><b>Wikipedia:<\/b> <br><b>Telefon:<\/b> ", "tessellate": -1, "extrude": 0, "visibility": -1 }, "geometry": { "type": "Point", "coordinates": [ 8.4716426, 49.480795 ] } },
{ "type": "Feature", "properties": { "Name": "Universitätsbibliothek Bereich A5", "description": "<b>Kategorie:<\/b> Bildungsinfrastruktur — Bibliothek<br><b>Distanz:<\/b> 1299 m<br><b>Website:<\/b> https:\/\/www.bib.uni-mannheim.de\/standorte\/bb-a5\/<br><b>Wikipedia:<\/b> <br><b>Telefon:<\/b> +49 621 1813030", "tessellate": -1, "extrude": 0, "visibility": -1 }, "geometry": { "type": "Point", "coordinates": [ 8.456604, 49.4874406 ] } },
{ "type": "Feature", "properties": { "Name": "Lernstudio Barbarossa", "description": "<b>Kategorie:<\/b> Bildungsinfrastruktur — Schule<br><b>Distanz:<\/b> 1084 m<br><b>Website:<\/b> https:\/\/www.lernstudio-barbarossa.de\/mannheim-mitte<br><b>Wikipedia:<\/b> <br><b>Telefon:<\/b> +49 621 121414", "tessellate": -1, "extrude": 0, "visibility": -1 }, "geometry": { "type": "Point", "coordinates": [ 8.4664895, 49.4863639 ] } },
{ "type": "Feature", "properties": { "Name": "Bürgersaal", "description": "<b>Kategorie:<\/b> Bildungsinfrastruktur — Gemeindezentrum<br><b>Distanz:<\/b> 1059 m<br><b>Website:<\/b> http:\/\/www.tourist-mannheim.de\/en\/Events\/Event-Locations\/Stadthaus-N1--Buergersaal<br><b>Wikipedia:<\/b> <br><b>Telefon:<\/b> ", "tessellate": -1, "extrude": 0, "visibility": -1 }, "geometry": { "type": "Point", "coordinates": [ 8.4653962, 49.4862352 ] } },
{ "type": "Feature", "properties": { "Name": "Ratssaal", "description": "<b>Kategorie:<\/b> Bildungsinfrastruktur — Gemeindezentrum<br><b>Distanz:<\/b> 1067 m<br><b>Website:<\/b> <br><b>Wikipedia:<\/b> <br><b>Telefon:<\/b> ", "tessellate": -1, "extrude": 0, "visibility": -1 }, "geometry": { "type": "Point", "coordinates": [ 8.4654589, 49.4863025 ] } },
{ "type": "Feature", "properties": { "Name": "Kurpfalz ML-Schule", "description": "<b>Kategorie:<\/b> Bildungsinfrastruktur — Schule<br><b>Distanz:<\/b> 1018 m<br><b>Website:<\/b> http:\/\/www.kurpfalz-ml-schule.de\/<br><b>Wikipedia:<\/b> <br><b>Telefon:<\/b> +49 700 1234 5617", "tessellate": -1, "extrude": 0, "visibility": -1 }, "geometry": { "type": "Point", "coordinates": [ 8.4729573, 49.4837516 ] } },
{ "type": "Feature", "properties": { "Name": "Flow Yogaschule", "description": "<b>Kategorie:<\/b> Bildungsinfrastruktur — Schule<br><b>Distanz:<\/b> 1720 m<br><b>Website:<\/b> https:\/\/www.yogaflow-mannheim.de<br><b>Wikipedia:<\/b> <br><b>Telefon:<\/b> +49 176 62941665", "tessellate": -1, "extrude": 0, "visibility": -1 }, "geometry": { "type": "Point", "coordinates": [ 8.4602192, 49.492049 ] } },
{ "type": "Feature", "properties": { "Name": "inlingua", "description": "<b>Kategorie:<\/b> Bildungsinfrastruktur — Schule<br><b>Distanz:<\/b> 1544 m<br><b>Website:<\/b> https:\/\/www.inlingua.de\/<br><b>Wikipedia:<\/b> <br><b>Telefon:<\/b> +49 621 150690", "tessellate": -1, "extrude": 0, "visibility": -1 }, "geometry": { "type": "Point", "coordinates": [ 8.4756339, 49.4883515 ] } },
{ "type": "Feature", "properties": { "Name": "Kurdisch & Arabischer Freizeitverein", "description": "<b>Kategorie:<\/b> Bildungsinfrastruktur — Gemeindezentrum<br><b>Distanz:<\/b> 1615 m<br><b>Website:<\/b> <br><b>Wikipedia:<\/b> <br><b>Telefon:<\/b> ", "tessellate": -1, "extrude": 0, "visibility": -1 }, "geometry": { "type": "Point", "coordinates": [ 8.4702344, 49.4906922 ] } },
{ "type": "Feature", "properties": { "Name": "Wing Tsun & Escrima Schule", "description": "<b>Kategorie:<\/b> Bildungsinfrastruktur — Schule<br><b>Distanz:<\/b> 1653 m<br><b>Website:<\/b> https:\/\/wt-mannheim.com\/<br><b>Wikipedia:<\/b> <br><b>Telefon:<\/b> +49 176 61348504", "tessellate": -1, "extrude": 0, "visibility": -1 }, "geometry": { "type": "Point", "coordinates": [ 8.4741105, 49.4900582 ] } },
{ "type": "Feature", "properties": { "Name": "Modeschule Brigitte Kehrer", "description": "<b>Kategorie:<\/b> Bildungsinfrastruktur — Hochschule<br><b>Distanz:<\/b> 1242 m<br><b>Website:<\/b> https:\/\/www.modeschule-kehrer.de\/<br><b>Wikipedia:<\/b> <br><b>Telefon:<\/b> +49 621 8283605", "tessellate": -1, "extrude": 0, "visibility": -1 }, "geometry": { "type": "Point", "coordinates": [ 8.474248, 49.4856681 ] } },
{ "type": "Feature", "properties": { "Name": "Lernretter. Institut für Angewandte Lernwissenschaften", "description": "<b>Kategorie:<\/b> Bildungsinfrastruktur — Schule<br><b>Distanz:<\/b> 1285 m<br><b>Website:<\/b> https:\/\/www.lernretter.de\/<br><b>Wikipedia:<\/b> <br><b>Telefon:<\/b> +49 621 1781948", "tessellate": -1, "extrude": 0, "visibility": -1 }, "geometry": { "type": "Point", "coordinates": [ 8.4750905, 49.4857212 ] } },
{ "type": "Feature", "properties": { "Name": "Griechische Gemeinde Mannheim", "description": "<b>Kategorie:<\/b> Bildungsinfrastruktur — Gemeindezentrum<br><b>Distanz:<\/b> 1898 m<br><b>Website:<\/b> <br><b>Wikipedia:<\/b> <br><b>Telefon:<\/b> ", "tessellate": -1, "extrude": 0, "visibility": -1 }, "geometry": { "type": "Point", "coordinates": [ 8.4686522, 49.493551 ] } },
{ "type": "Feature", "properties": { "Name": "Staatliches Kolleg Mannheim", "description": "<b>Kategorie:<\/b> Bildungsinfrastruktur — Schule<br><b>Distanz:<\/b> 1130 m<br><b>Website:<\/b> https:\/\/www.staatliches-kolleg-mannheim.de\/kontakt.php<br><b>Wikipedia:<\/b> <br><b>Telefon:<\/b> +49 621 2936701", "tessellate": -1, "extrude": 0, "visibility": -1 }, "geometry": { "type": "Point", "coordinates": [ 8.479473, 49.4772084 ] } },
{ "type": "Feature", "properties": { "Name": "Akademie für Kommunikation", "description": "<b>Kategorie:<\/b> Bildungsinfrastruktur — Schule<br><b>Distanz:<\/b> 1459 m<br><b>Website:<\/b> https:\/\/www.akademie-bw.de\/<br><b>Wikipedia:<\/b> <br><b>Telefon:<\/b> +49 621 3247090", "tessellate": -1, "extrude": 0, "visibility": -1 }, "geometry": { "type": "Point", "coordinates": [ 8.4826097, 49.4816052 ] } },
{ "type": "Feature", "properties": { "Name": "Community Art Center", "description": "<b>Kategorie:<\/b> Bildungsinfrastruktur — Kunstzentrum<br><b>Distanz:<\/b> 2377 m<br><b>Website:<\/b> https:\/\/www.communityartcenter-mannheim.de\/<br><b>Wikipedia:<\/b> <br><b>Telefon:<\/b> +49 621 72492826", "tessellate": -1, "extrude": 0, "visibility": -1 }, "geometry": { "type": "Point", "coordinates": [ 8.4708521, 49.4976594 ] } },
{ "type": "Feature", "properties": { "Name": "Vis-A-Vis - Studio für Gebärdensprache", "description": "<b>Kategorie:<\/b> Bildungsinfrastruktur — Schule<br><b>Distanz:<\/b> 1227 m<br><b>Website:<\/b> https:\/\/www.vis-a-vis-gebaerdensprache.de\/<br><b>Wikipedia:<\/b> <br><b>Telefon:<\/b> +49 621 43730900", "tessellate": -1, "extrude": 0, "visibility": -1 }, "geometry": { "type": "Point", "coordinates": [ 8.4807999, 49.4772793 ] } },
{ "type": "Feature", "properties": { "Name": "Jugendtreff Lindenhof Mannheim", "description": "<b>Kategorie:<\/b> Bildungsinfrastruktur — Gemeindezentrum<br><b>Distanz:<\/b> 1320 m<br><b>Website:<\/b> <br><b>Wikipedia:<\/b> <br><b>Telefon:<\/b> ", "tessellate": -1, "extrude": 0, "visibility": -1 }, "geometry": { "type": "Point", "coordinates": [ 8.4720191, 49.4661388 ] } },
{ "type": "Feature", "properties": { "Name": "Internationaler Bund Berufsbildungszentrum", "description": "<b>Kategorie:<\/b> Bildungsinfrastruktur — Schule<br><b>Distanz:<\/b> 2546 m<br><b>Website:<\/b> <br><b>Wikipedia:<\/b> <br><b>Telefon:<\/b> ", "tessellate": -1, "extrude": 0, "visibility": -1 }, "geometry": { "type": "Point", "coordinates": [ 8.4908797, 49.4621008 ] } },
{ "type": "Feature", "properties": { "Name": "FOM Hochschule", "description": "<b>Kategorie:<\/b> Bildungsinfrastruktur — Hochschule<br><b>Distanz:<\/b> 1008 m<br><b>Website:<\/b> https:\/\/www.fom.de\/studienorte\/studium-in-mannheim.html<br><b>Wikipedia:<\/b> <br><b>Telefon:<\/b> +49 621 17894050", "tessellate": -1, "extrude": 0, "visibility": -1 }, "geometry": { "type": "Point", "coordinates": [ 8.4742622, 49.4827996 ] } },
{ "type": "Feature", "properties": { "Name": "Paracelsus Heilpraktikerschule", "description": "<b>Kategorie:<\/b> Bildungsinfrastruktur — Schule<br><b>Distanz:<\/b>  657 m<br><b>Website:<\/b> http:\/\/www.paracelsus.de\/map\/ort68\/ort68.asp<br><b>Wikipedia:<\/b> <br><b>Telefon:<\/b> +49 621 4183232", "tessellate": -1, "extrude": 0, "visibility": -1 }, "geometry": { "type": "Point", "coordinates": [ 8.4712313, 49.4802354 ] } },
{ "type": "Feature", "properties": { "Name": "Abbruch&Demontage.", "description": "<b>Kategorie:<\/b> Bildungsinfrastruktur — Kunstzentrum<br><b>Distanz:<\/b> 1746 m<br><b>Website:<\/b> <br><b>Wikipedia:<\/b> <br><b>Telefon:<\/b> ", "tessellate": -1, "extrude": 0, "visibility": -1 }, "geometry": { "type": "Point", "coordinates": [ 8.4586329, 49.492088 ] } },
{ "type": "Feature", "properties": { "Name": "Kulturbrücken Jungbusch e.V.", "description": "<b>Kategorie:<\/b> Bildungsinfrastruktur — Kunstzentrum<br><b>Distanz:<\/b> 2054 m<br><b>Website:<\/b> https:\/\/www.kulturbruecken-jungbusch.de\/<br><b>Wikipedia:<\/b> <br><b>Telefon:<\/b> +49 621 43715046", "tessellate": -1, "extrude": 0, "visibility": -1 }, "geometry": { "type": "Point", "coordinates": [ 8.4579655, 49.4948318 ] } },
{ "type": "Feature", "properties": { "Name": "Pädagogische Zentralbibliothek Mannheim", "description": "<b>Kategorie:<\/b> Bildungsinfrastruktur — Universität<br><b>Distanz:<\/b> 1295 m<br><b>Website:<\/b> http:\/\/www.lehrer.uni-karlsruhe.de\/~za1766\/<br><b>Wikipedia:<\/b> <br><b>Telefon:<\/b> +49 621 2924311", "tessellate": -1, "extrude": 0, "visibility": -1 }, "geometry": { "type": "Point", "coordinates": [ 8.4797516, 49.4821363 ] } },
{ "type": "Feature", "properties": { "Name": "Staatliches Seminar für Didaktik und Lehrerbildung", "description": "<b>Kategorie:<\/b> Bildungsinfrastruktur — Universität<br><b>Distanz:<\/b> 1296 m<br><b>Website:<\/b> <br><b>Wikipedia:<\/b> <br><b>Telefon:<\/b> ", "tessellate": -1, "extrude": 0, "visibility": -1 }, "geometry": { "type": "Point", "coordinates": [ 8.479759, 49.4821457 ] } },
{ "type": "Feature", "properties": { "Name": "Senioren Treff", "description": "<b>Kategorie:<\/b> Bildungsinfrastruktur — Gemeindezentrum<br><b>Distanz:<\/b>  522 m<br><b>Website:<\/b> <br><b>Wikipedia:<\/b> <br><b>Telefon:<\/b> ", "tessellate": -1, "extrude": 0, "visibility": -1 }, "geometry": { "type": "Point", "coordinates": [ 8.4706355, 49.4751217 ] } },
{ "type": "Feature", "properties": { "Name": "Universitätsbiliothek Bereich A3", "description": "<b>Kategorie:<\/b> Bildungsinfrastruktur — Bibliothek<br><b>Distanz:<\/b>  996 m<br><b>Website:<\/b> <br><b>Wikipedia:<\/b> <br><b>Telefon:<\/b> ", "tessellate": -1, "extrude": 0, "visibility": -1 }, "geometry": { "type": "Point", "coordinates": [ 8.461063, 49.4855311 ] } },
{ "type": "Feature", "properties": { "Name": "Katholische Hochschulgemeinde (KHG)", "description": "<b>Kategorie:<\/b> Bildungsinfrastruktur — Gemeindezentrum<br><b>Distanz:<\/b> 1395 m<br><b>Website:<\/b> http:\/\/khg-mannheim.kath-musterhausen.de\/<br><b>Wikipedia:<\/b> <br><b>Telefon:<\/b> ", "tessellate": -1, "extrude": 0, "visibility": -1 }, "geometry": { "type": "Point", "coordinates": [ 8.4607066, 49.489143 ] } },
{ "type": "Feature", "properties": { "Name": "GBG Mietertreff Wohlgelegen", "description": "<b>Kategorie:<\/b> Bildungsinfrastruktur — Gemeindezentrum<br><b>Distanz:<\/b> 3140 m<br><b>Website:<\/b> https:\/\/www.caritas-mannheim.de\/hilfe-und-beratung\/stadtteilarbeit\/quartierbuero-wohlgelegen\/quartierbuero-wohlgelegen<br><b>Wikipedia:<\/b> <br><b>Telefon:<\/b> +49 621 1569 9011", "tessellate": -1, "extrude": 0, "visibility": -1 }, "geometry": { "type": "Point", "coordinates": [ 8.4918169, 49.4983697 ] } },
{ "type": "Feature", "properties": { "Name": "Helene-Lange-Schule - Fröbel-Seminar", "description": "<b>Kategorie:<\/b> Bildungsinfrastruktur — Schule<br><b>Distanz:<\/b> 1133 m<br><b>Website:<\/b> https:\/\/www.helene-lange-schule-mannheim.de\/die-schule.html<br><b>Wikipedia:<\/b> <br><b>Telefon:<\/b> +49 621 2936527", "tessellate": -1, "extrude": 0, "visibility": -1 }, "geometry": { "type": "Point", "coordinates": [ 8.4795146, 49.4771744 ] } },
{ "type": "Feature", "properties": { "Name": "Max-Hachenburg-Schule Außenstelle", "description": "<b>Kategorie:<\/b> Bildungsinfrastruktur — Schule<br><b>Distanz:<\/b>  842 m<br><b>Website:<\/b> <br><b>Wikipedia:<\/b> <br><b>Telefon:<\/b> ", "tessellate": -1, "extrude": 0, "visibility": -1 }, "geometry": { "type": "Point", "coordinates": [ 8.4728806, 49.4815569 ] } },
{ "type": "Feature", "properties": { "Name": "Gemeinschaftszentrum Jungbusch (Quartiermanagement)", "description": "<b>Kategorie:<\/b> Bildungsinfrastruktur — Gemeindezentrum<br><b>Distanz:<\/b> 1918 m<br><b>Website:<\/b> <br><b>Wikipedia:<\/b> <br><b>Telefon:<\/b> ", "tessellate": -1, "extrude": 0, "visibility": -1 }, "geometry": { "type": "Point", "coordinates": [ 8.4583022, 49.4936238 ] } },
{ "type": "Feature", "properties": { "Name": "Arbeitersportverein (ASV)", "description": "<b>Kategorie:<\/b> Bildungsinfrastruktur — Gemeindezentrum<br><b>Distanz:<\/b> 1930 m<br><b>Website:<\/b> https:\/\/www.asv-mannheim.de\/<br><b>Wikipedia:<\/b> <br><b>Telefon:<\/b> +49621 49 07 85 54", "tessellate": -1, "extrude": 0, "visibility": -1 }, "geometry": { "type": "Point", "coordinates": [ 8.4600474, 49.4939418 ] } },
{ "type": "Feature", "properties": { "Name": "UMM Bibliothek", "description": "<b>Kategorie:<\/b> Bildungsinfrastruktur — Bibliothek<br><b>Distanz:<\/b> 2452 m<br><b>Website:<\/b> https:\/\/www.umm.uni-heidelberg.de\/bibliothek\/<br><b>Wikipedia:<\/b> <br><b>Telefon:<\/b> +49 621 3833700", "tessellate": -1, "extrude": 0, "visibility": -1 }, "geometry": { "type": "Point", "coordinates": [ 8.4888512, 49.4916528 ] } },
{ "type": "Feature", "properties": { "Name": "MEV Eisenbahn-Verkehrsgesellschaft mbH", "description": "<b>Kategorie:<\/b> Bildungsinfrastruktur — Hochschule<br><b>Distanz:<\/b> 1877 m<br><b>Website:<\/b> https:\/\/www.m-e-v.de\/<br><b>Wikipedia:<\/b> <br><b>Telefon:<\/b> +49 621 7284510", "tessellate": -1, "extrude": 0, "visibility": -1 }, "geometry": { "type": "Point", "coordinates": [ 8.4869807, 49.469103 ] } },
{ "type": "Feature", "properties": { "Name": "Mannheimer Abendakademie", "description": "<b>Kategorie:<\/b> Bildungsinfrastruktur — Schule<br><b>Distanz:<\/b> 1480 m<br><b>Website:<\/b> https:\/\/www.abendakademie-mannheim.de\/<br><b>Wikipedia:<\/b> <br><b>Telefon:<\/b> ", "tessellate": -1, "extrude": 0, "visibility": -1 }, "geometry": { "type": "Point", "coordinates": [ 8.4708906, 49.4892703 ] } },
{ "type": "Feature", "properties": { "Name": "Universitätsbibliothek Bereich Schloss Westflügel", "description": "<b>Kategorie:<\/b> Bildungsinfrastruktur — Bibliothek<br><b>Distanz:<\/b>  924 m<br><b>Website:<\/b> <br><b>Wikipedia:<\/b> <br><b>Telefon:<\/b> ", "tessellate": -1, "extrude": 0, "visibility": -1 }, "geometry": { "type": "Point", "coordinates": [ 8.460593, 49.4847921 ] } },
{ "type": "Feature", "properties": { "Name": "Universitätsbibliothek Bereich Schloss Schneckenhof", "description": "<b>Kategorie:<\/b> Bildungsinfrastruktur — Bibliothek<br><b>Distanz:<\/b>  659 m<br><b>Website:<\/b> <br><b>Wikipedia:<\/b> <br><b>Telefon:<\/b> ", "tessellate": -1, "extrude": 0, "visibility": -1 }, "geometry": { "type": "Point", "coordinates": [ 8.4639289, 49.4826926 ] } },
{ "type": "Feature", "properties": { "Name": "Jugendtreff Westend", "description": "<b>Kategorie:<\/b> Bildungsinfrastruktur — Gemeindezentrum<br><b>Distanz:<\/b> 1705 m<br><b>Website:<\/b> <br><b>Wikipedia:<\/b> <br><b>Telefon:<\/b> +49 621 5723866", "tessellate": -1, "extrude": 0, "visibility": -1 }, "geometry": { "type": "Point", "coordinates": [ 8.4405561, 49.4788028 ] } },
{ "type": "Feature", "properties": { "Name": "Bernd-Blindow-Schulen Mannheim", "description": "<b>Kategorie:<\/b> Bildungsinfrastruktur — Schule<br><b>Distanz:<\/b> 3058 m<br><b>Website:<\/b> https:\/\/www.blindow.de<br><b>Wikipedia:<\/b> <br><b>Telefon:<\/b> ", "tessellate": -1, "extrude": 0, "visibility": -1 }, "geometry": { "type": "Point", "coordinates": [ 8.4931335, 49.4966035 ] } },
{ "type": "Feature", "properties": { "Name": "Mannheim Business School Education Center Dalbergplatz", "description": "<b>Kategorie:<\/b> Bildungsinfrastruktur — Hochschule<br><b>Distanz:<\/b> 1060 m<br><b>Website:<\/b> https:\/\/www.mannheim-business-school.com<br><b>Wikipedia:<\/b> <br><b>Telefon:<\/b> +49 621 1811281", "tessellate": -1, "extrude": 0, "visibility": -1 }, "geometry": { "type": "Point", "coordinates": [ 8.4665848, 49.486133 ] } },
{ "type": "Feature", "properties": { "Name": "Pfarrgemeinde Liebfrauen", "description": "<b>Kategorie:<\/b> Bildungsinfrastruktur — Gemeindezentrum<br><b>Distanz:<\/b> 1921 m<br><b>Website:<\/b> <br><b>Wikipedia:<\/b> <br><b>Telefon:<\/b> ", "tessellate": -1, "extrude": 0, "visibility": -1 }, "geometry": { "type": "Point", "coordinates": [ 8.4625136, 49.4940156 ] } },
{ "type": "Feature", "properties": { "Name": "Seniorentreff Mitte \/ Café Klick \/ LU kompakt", "description": "<b>Kategorie:<\/b> Bildungsinfrastruktur — Gemeindezentrum<br><b>Distanz:<\/b> 1968 m<br><b>Website:<\/b> https:\/\/www.ludwigshafen.de\/buergernah\/soziales-und-gesellschaft\/aeltere-menschen\/seniorentreffs<br><b>Wikipedia:<\/b> <br><b>Telefon:<\/b> ", "tessellate": -1, "extrude": 0, "visibility": -1 }, "geometry": { "type": "Point", "coordinates": [ 8.4373808, 49.480657 ] } },
{ "type": "Feature", "properties": { "Name": "Seniorentreff Hemshof Aktiv", "description": "<b>Kategorie:<\/b> Bildungsinfrastruktur — Gemeindezentrum<br><b>Distanz:<\/b> 2706 m<br><b>Website:<\/b> https:\/\/www.ludwigshafen.de\/buergernah\/soziales-und-gesellschaft\/aeltere-menschen\/seniorentreffs<br><b>Wikipedia:<\/b> <br><b>Telefon:<\/b> ", "tessellate": -1, "extrude": 0, "visibility": -1 }, "geometry": { "type": "Point", "coordinates": [ 8.4342896, 49.4916154 ] } },
{ "type": "Feature", "properties": { "Name": "zeitraumexit", "description": "<b>Kategorie:<\/b> Bildungsinfrastruktur — Kunstzentrum<br><b>Distanz:<\/b> 2124 m<br><b>Website:<\/b> <br><b>Wikipedia:<\/b> <br><b>Telefon:<\/b> ", "tessellate": -1, "extrude": 0, "visibility": -1 }, "geometry": { "type": "Point", "coordinates": [ 8.4579277, 49.4954655 ] } },
{ "type": "Feature", "properties": { "Name": "Queeres Zentrum Mannheim", "description": "<b>Kategorie:<\/b> Bildungsinfrastruktur — Gemeindezentrum<br><b>Distanz:<\/b> 1724 m<br><b>Website:<\/b> https:\/\/qzm-rn.de<br><b>Wikipedia:<\/b> <br><b>Telefon:<\/b> ", "tessellate": -1, "extrude": 0, "visibility": -1 }, "geometry": { "type": "Point", "coordinates": [ 8.4620213, 49.4922212 ] } },
{ "type": "Feature", "properties": { "Name": "Deutscher Frauenring e. V. Ortsring Mannheim", "description": "<b>Kategorie:<\/b> Bildungsinfrastruktur — Gemeindezentrum<br><b>Distanz:<\/b> 1753 m<br><b>Website:<\/b> https:\/\/deutscher-frauenring.de\/ortsring-mannheim\/<br><b>Wikipedia:<\/b> <br><b>Telefon:<\/b> ", "tessellate": -1, "extrude": 0, "visibility": -1 }, "geometry": { "type": "Point", "coordinates": [ 8.479671, 49.4887113 ] } },
{ "type": "Feature", "properties": { "Name": "Lessing-Gymnasium", "description": "<b>Kategorie:<\/b> Bildungsinfrastruktur — Schule<br><b>Distanz:<\/b> 2039 m<br><b>Website:<\/b> <br><b>Wikipedia:<\/b> <br><b>Telefon:<\/b> ", "tessellate": -1, "extrude": 0, "visibility": -1 }, "geometry": { "type": "Point", "coordinates": [ 8.484904, 49.48897 ] } },
{ "type": "Feature", "properties": { "Name": "Schule für Physiotherapie", "description": "<b>Kategorie:<\/b> Bildungsinfrastruktur — Hochschule<br><b>Distanz:<\/b> 2704 m<br><b>Website:<\/b> https:\/\/www.med-akademie.de\/gesundheitsfachberuf\/schule-fuer-physiotherapie-mannheim\/<br><b>Wikipedia:<\/b> <br><b>Telefon:<\/b> ", "tessellate": -1, "extrude": 0, "visibility": -1 }, "geometry": { "type": "Point", "coordinates": [ 8.4891272, 49.4946798 ] } },
{ "type": "Feature", "properties": { "Name": "Studiendekanat der Fakultät für Medizin Mannheim", "description": "<b>Kategorie:<\/b> Bildungsinfrastruktur — Universität<br><b>Distanz:<\/b> 2707 m<br><b>Website:<\/b> https:\/\/www.umm.uni-heidelberg.de\/studium\/studiendekanat\/<br><b>Wikipedia:<\/b> <br><b>Telefon:<\/b> ", "tessellate": -1, "extrude": 0, "visibility": -1 }, "geometry": { "type": "Point", "coordinates": [ 8.4895114, 49.494489 ] } },
{ "type": "Feature", "properties": { "Name": "Interkulturelle Bildungszentrum – ikubiz", "description": "<b>Kategorie:<\/b> Bildungsinfrastruktur — Gemeindezentrum<br><b>Distanz:<\/b> 1282 m<br><b>Website:<\/b> https:\/\/www.ikubiz.de\/<br><b>Wikipedia:<\/b> <br><b>Telefon:<\/b> +49 621 14730", "tessellate": -1, "extrude": 0, "visibility": -1 }, "geometry": { "type": "Point", "coordinates": [ 8.4687263, 49.4878527 ] } },
{ "type": "Feature", "properties": { "Name": "bfw Mannheim", "description": "<b>Kategorie:<\/b> Bildungsinfrastruktur — Schule<br><b>Distanz:<\/b> 3071 m<br><b>Website:<\/b> https:\/\/www.bfw.de<br><b>Wikipedia:<\/b> <br><b>Telefon:<\/b> ", "tessellate": -1, "extrude": 0, "visibility": -1 }, "geometry": { "type": "Point", "coordinates": [ 8.4929337, 49.4968812 ] } },
{ "type": "Feature", "properties": { "Name": "Volkshochschule Rhein-Pfalz-Kreis", "description": "<b>Kategorie:<\/b> Bildungsinfrastruktur — Hochschule<br><b>Distanz:<\/b> 1965 m<br><b>Website:<\/b> https:\/\/www.vhs-rpk.de\/<br><b>Wikipedia:<\/b> <br><b>Telefon:<\/b> ", "tessellate": -1, "extrude": 0, "visibility": -1 }, "geometry": { "type": "Point", "coordinates": [ 8.439614, 49.4846608 ] } },
{ "type": "Feature", "properties": { "Name": "Begegnungsstätte Westliche Unterstadt e.V.", "description": "<b>Kategorie:<\/b> Bildungsinfrastruktur — Gemeindezentrum<br><b>Distanz:<\/b> 1721 m<br><b>Website:<\/b> <br><b>Wikipedia:<\/b> <br><b>Telefon:<\/b> ", "tessellate": -1, "extrude": 0, "visibility": -1 }, "geometry": { "type": "Point", "coordinates": [ 8.4644594, 49.4922402 ] } },
{ "type": "Feature", "properties": { "Name": "Gut so", "description": "<b>Kategorie:<\/b> Bildungsinfrastruktur — Gemeindezentrum<br><b>Distanz:<\/b> 1717 m<br><b>Website:<\/b> https:\/\/jugend.plus-mannheim.de\/gut-so<br><b>Wikipedia:<\/b> <br><b>Telefon:<\/b> ", "tessellate": -1, "extrude": 0, "visibility": -1 }, "geometry": { "type": "Point", "coordinates": [ 8.4620157, 49.4921574 ] } },
{ "type": "Feature", "properties": { "Name": "Katholische öffentliche Bücherei", "description": "<b>Kategorie:<\/b> Bildungsinfrastruktur — Bibliothek<br><b>Distanz:<\/b>  623 m<br><b>Website:<\/b> <br><b>Wikipedia:<\/b> <br><b>Telefon:<\/b> ", "tessellate": -1, "extrude": 0, "visibility": -1 }, "geometry": { "type": "Point", "coordinates": [ 8.4705323, 49.4732118 ] } },
{ "type": "Feature", "properties": { "Name": "TUMO Mannheim", "description": "<b>Kategorie:<\/b> Bildungsinfrastruktur — Hochschule<br><b>Distanz:<\/b>  886 m<br><b>Website:<\/b> https:\/\/mannheim.tumo.de<br><b>Wikipedia:<\/b> <br><b>Telefon:<\/b> +4962156006000", "tessellate": -1, "extrude": 0, "visibility": -1 }, "geometry": { "type": "Point", "coordinates": [ 8.4746868, 49.4730244 ] } },
{ "type": "Feature", "properties": { "Name": "Budokan Karate", "description": "<b>Kategorie:<\/b> Freizeit & Sport — Sportzentrum<br><b>Distanz:<\/b> 1426 m<br><b>Website:<\/b> https:\/\/www.budokan-mannheim.de\/<br><b>Wikipedia:<\/b> <br><b>Telefon:<\/b> +49 1511 2744896", "tessellate": -1, "extrude": 0, "visibility": -1 }, "geometry": { "type": "Point", "coordinates": [ 8.4591372, 49.4892125 ] } },
{ "type": "Feature", "properties": { "Name": "Ki und Aikido Dojo Mannheim", "description": "<b>Kategorie:<\/b> Freizeit & Sport — Sportzentrum<br><b>Distanz:<\/b> 2473 m<br><b>Website:<\/b> <br><b>Wikipedia:<\/b> <br><b>Telefon:<\/b> ", "tessellate": -1, "extrude": 0, "visibility": -1 }, "geometry": { "type": "Point", "coordinates": [ 8.4760327, 49.4975497 ] } },
{ "type": "Feature", "properties": { "Name": "Qi Gong Institut", "description": "<b>Kategorie:<\/b> Freizeit & Sport — Sportzentrum<br><b>Distanz:<\/b> 1287 m<br><b>Website:<\/b> <br><b>Wikipedia:<\/b> <br><b>Telefon:<\/b> ", "tessellate": -1, "extrude": 0, "visibility": -1 }, "geometry": { "type": "Point", "coordinates": [ 8.48164, 49.4771498 ] } },
{ "type": "Feature", "properties": { "Name": "Mannheimer Billardcafe", "description": "<b>Kategorie:<\/b> Freizeit & Sport — Sportzentrum<br><b>Distanz:<\/b>  900 m<br><b>Website:<\/b> http:\/\/www.mannheimer-billardcafe.com\/<br><b>Wikipedia:<\/b> <br><b>Telefon:<\/b> +49 621 40170823", "tessellate": -1, "extrude": 0, "visibility": -1 }, "geometry": { "type": "Point", "coordinates": [ 8.4729757, 49.4822773 ] } },
{ "type": "Feature", "properties": { "Name": "Moksha Yoga Center", "description": "<b>Kategorie:<\/b> Freizeit & Sport — Sportzentrum<br><b>Distanz:<\/b> 1324 m<br><b>Website:<\/b> https:\/\/www.mokshayogastudio.de\/<br><b>Wikipedia:<\/b> <br><b>Telefon:<\/b> ", "tessellate": -1, "extrude": 0, "visibility": -1 }, "geometry": { "type": "Point", "coordinates": [ 8.4742593, 49.4865712 ] } },
{ "type": "Feature", "properties": { "Name": "Mannerz Sport", "description": "<b>Kategorie:<\/b> Freizeit & Sport — Sportzentrum<br><b>Distanz:<\/b> 1157 m<br><b>Website:<\/b> http:\/\/www.mannerz-sport.de\/<br><b>Wikipedia:<\/b> <br><b>Telefon:<\/b> ", "tessellate": -1, "extrude": 0, "visibility": -1 }, "geometry": { "type": "Point", "coordinates": [ 8.4479339, 49.4762392 ] } },
{ "type": "Feature", "properties": { "Name": "SV Südwest Ludwigshafen - Hauptverein", "description": "<b>Kategorie:<\/b> Freizeit & Sport — Sportzentrum<br><b>Distanz:<\/b> 2294 m<br><b>Website:<\/b> <br><b>Wikipedia:<\/b> <br><b>Telefon:<\/b> ", "tessellate": -1, "extrude": 0, "visibility": -1 }, "geometry": { "type": "Point", "coordinates": [ 8.4377182, 49.4651483 ] } },
{ "type": "Feature", "properties": { "Name": "SV Südwest Ludwigshafen - Jugendfußball", "description": "<b>Kategorie:<\/b> Freizeit & Sport — Sportzentrum<br><b>Distanz:<\/b> 2149 m<br><b>Website:<\/b> <br><b>Wikipedia:<\/b> <br><b>Telefon:<\/b> ", "tessellate": -1, "extrude": 0, "visibility": -1 }, "geometry": { "type": "Point", "coordinates": [ 8.4382602, 49.4670308 ] } },
{ "type": "Feature", "properties": { "Name": "Body street", "description": "<b>Kategorie:<\/b> Freizeit & Sport — Sportzentrum<br><b>Distanz:<\/b>  289 m<br><b>Website:<\/b> https:\/\/www.bodystreet.com\/standorte\/mannheim-gontardplatz.html<br><b>Wikipedia:<\/b> <br><b>Telefon:<\/b> +49 621 43760061", "tessellate": -1, "extrude": 0, "visibility": -1 }, "geometry": { "type": "Point", "coordinates": [ 8.4677546, 49.4761308 ] } },
{ "type": "Feature", "properties": { "Name": "ABC Ludwigshafen (Kraftraum)", "description": "<b>Kategorie:<\/b> Freizeit & Sport — Sportzentrum<br><b>Distanz:<\/b> 2138 m<br><b>Website:<\/b> <br><b>Wikipedia:<\/b> <br><b>Telefon:<\/b> ", "tessellate": -1, "extrude": 0, "visibility": -1 }, "geometry": { "type": "Point", "coordinates": [ 8.438419, 49.4670572 ] } },
{ "type": "Feature", "properties": { "Name": "Martial Arts Academy Mannheim", "description": "<b>Kategorie:<\/b> Freizeit & Sport — Sportzentrum<br><b>Distanz:<\/b> 2059 m<br><b>Website:<\/b> https:\/\/www.thaiboxen-mannheim.de\/<br><b>Wikipedia:<\/b> <br><b>Telefon:<\/b> +49 176 63866046", "tessellate": -1, "extrude": 0, "visibility": -1 }, "geometry": { "type": "Point", "coordinates": [ 8.457905, 49.4948645 ] } },
{ "type": "Feature", "properties": { "Name": "Fit-Fabrik Mannheim", "description": "<b>Kategorie:<\/b> Freizeit & Sport — Sportzentrum<br><b>Distanz:<\/b> 3101 m<br><b>Website:<\/b> http:\/\/www.fit-fabrik.de\/<br><b>Wikipedia:<\/b> <br><b>Telefon:<\/b> +49 621 3709888", "tessellate": -1, "extrude": 0, "visibility": -1 }, "geometry": { "type": "Point", "coordinates": [ 8.492222, 49.4976756 ] } },
{ "type": "Feature", "properties": { "Name": "Tao-Zentrum", "description": "<b>Kategorie:<\/b> Freizeit & Sport — Sportzentrum<br><b>Distanz:<\/b> 2723 m<br><b>Website:<\/b> https:\/\/taolife.de\/<br><b>Wikipedia:<\/b> <br><b>Telefon:<\/b> +49 621 36931", "tessellate": -1, "extrude": 0, "visibility": -1 }, "geometry": { "type": "Point", "coordinates": [ 8.4890102, 49.4949872 ] } },
{ "type": "Feature", "properties": { "Name": "Wing Chun Akademie Mannheim", "description": "<b>Kategorie:<\/b> Freizeit & Sport — Sportzentrum<br><b>Distanz:<\/b> 2712 m<br><b>Website:<\/b> https:\/\/wingchun-mannheim.de\/<br><b>Wikipedia:<\/b> <br><b>Telefon:<\/b> +49 1577 1459565", "tessellate": -1, "extrude": 0, "visibility": -1 }, "geometry": { "type": "Point", "coordinates": [ 8.4887213, 49.4950197 ] } },
{ "type": "Feature", "properties": { "Name": "JBO Personal Training - Jürgen Bock", "description": "<b>Kategorie:<\/b> Freizeit & Sport — Sportzentrum<br><b>Distanz:<\/b> 2958 m<br><b>Website:<\/b> https:\/\/www.jbo-personaltraining.de\/<br><b>Wikipedia:<\/b> <br><b>Telefon:<\/b> +49 171 5330203", "tessellate": -1, "extrude": 0, "visibility": -1 }, "geometry": { "type": "Point", "coordinates": [ 8.488684, 49.4556223 ] } },
{ "type": "Feature", "properties": { "Name": "Kung Fu To'a Schule", "description": "<b>Kategorie:<\/b> Freizeit & Sport — Sportzentrum<br><b>Distanz:<\/b>  815 m<br><b>Website:<\/b> http:\/\/www.kungfuto-a.de\/<br><b>Wikipedia:<\/b> <br><b>Telefon:<\/b> +49 621 5668005", "tessellate": -1, "extrude": 0, "visibility": -1 }, "geometry": { "type": "Point", "coordinates": [ 8.4526521, 49.4770556 ] } },
{ "type": "Feature", "properties": { "Name": "Yoga Zentrum C7 - Universitaet Mannheim", "description": "<b>Kategorie:<\/b> Freizeit & Sport — Sportzentrum<br><b>Distanz:<\/b> 1419 m<br><b>Website:<\/b> https:\/\/www.uni-mannheim.de\/sport\/studios\/yoga\/<br><b>Wikipedia:<\/b> <br><b>Telefon:<\/b> +49 621 1813419", "tessellate": -1, "extrude": 0, "visibility": -1 }, "geometry": { "type": "Point", "coordinates": [ 8.4586897, 49.4890723 ] } },
{ "type": "Feature", "properties": { "Name": "Aikido Dojo Mannheim", "description": "<b>Kategorie:<\/b> Freizeit & Sport — Sportzentrum<br><b>Distanz:<\/b> 1429 m<br><b>Website:<\/b> http:\/\/aikidomannheim.de\/<br><b>Wikipedia:<\/b> <br><b>Telefon:<\/b> ", "tessellate": -1, "extrude": 0, "visibility": -1 }, "geometry": { "type": "Point", "coordinates": [ 8.4591637, 49.4892419 ] } },
{ "type": "Feature", "properties": { "Name": "Wing Chun Akademie Mannheim", "description": "<b>Kategorie:<\/b> Freizeit & Sport — Sportzentrum<br><b>Distanz:<\/b> 1504 m<br><b>Website:<\/b> http:\/\/www.iaw-mannheim.com<br><b>Wikipedia:<\/b> <br><b>Telefon:<\/b> +49 621 7296938", "tessellate": -1, "extrude": 0, "visibility": -1 }, "geometry": { "type": "Point", "coordinates": [ 8.4740233, 49.4885648 ] } },
{ "type": "Feature", "properties": { "Name": "Sportschule Hanuman Mannheim", "description": "<b>Kategorie:<\/b> Freizeit & Sport — Sportzentrum<br><b>Distanz:<\/b> 1476 m<br><b>Website:<\/b> http:\/\/www.hanuman-mannheim.de\/<br><b>Wikipedia:<\/b> <br><b>Telefon:<\/b> +49 174 2116142", "tessellate": -1, "extrude": 0, "visibility": -1 }, "geometry": { "type": "Point", "coordinates": [ 8.4735168, 49.488468 ] } },
{ "type": "Feature", "properties": { "Name": "DEIN SPORT mal anders", "description": "<b>Kategorie:<\/b> Freizeit & Sport — Sportzentrum<br><b>Distanz:<\/b> 2515 m<br><b>Website:<\/b> https:\/\/www.sport-ma.de\/<br><b>Wikipedia:<\/b> <br><b>Telefon:<\/b> +49 621 17885726", "tessellate": -1, "extrude": 0, "visibility": -1 }, "geometry": { "type": "Point", "coordinates": [ 8.4767343, 49.4977747 ] } },
{ "type": "Feature", "properties": { "Name": "TSOM TSOM Gym", "description": "<b>Kategorie:<\/b> Freizeit & Sport — Sportzentrum<br><b>Distanz:<\/b> 3111 m<br><b>Website:<\/b> http:\/\/www.tsomtsomgym-mannheim.de\/<br><b>Wikipedia:<\/b> <br><b>Telefon:<\/b> ", "tessellate": -1, "extrude": 0, "visibility": -1 }, "geometry": { "type": "Point", "coordinates": [ 8.4922056, 49.4977992 ] } },
{ "type": "Feature", "properties": { "Name": "Santosha Yoga Studio - Yoga Vidya Mannheim", "description": "<b>Kategorie:<\/b> Freizeit & Sport — Sportzentrum<br><b>Distanz:<\/b> 1581 m<br><b>Website:<\/b> https:\/\/www.yoga-vidya.de\/center\/mannheim\/start\/<br><b>Wikipedia:<\/b> <br><b>Telefon:<\/b> +49 1575 8807404", "tessellate": -1, "extrude": 0, "visibility": -1 }, "geometry": { "type": "Point", "coordinates": [ 8.4638865, 49.4909883 ] } },
{ "type": "Feature", "properties": { "Name": "Bala-Shanti Yoga Zentrum", "description": "<b>Kategorie:<\/b> Freizeit & Sport — Sportzentrum<br><b>Distanz:<\/b>  905 m<br><b>Website:<\/b> https:\/\/www.bala-shanti.de\/<br><b>Wikipedia:<\/b> <br><b>Telefon:<\/b> +49 621 15400347", "tessellate": -1, "extrude": 0, "visibility": -1 }, "geometry": { "type": "Point", "coordinates": [ 8.4760753, 49.4785466 ] } },
{ "type": "Feature", "properties": { "Name": "Sport Zentrum Mannheim e.V.", "description": "<b>Kategorie:<\/b> Freizeit & Sport — Sportzentrum<br><b>Distanz:<\/b> 1774 m<br><b>Website:<\/b> https:\/\/sportzentrum-ma.de<br><b>Wikipedia:<\/b> <br><b>Telefon:<\/b> +49 176 22696722", "tessellate": -1, "extrude": 0, "visibility": -1 }, "geometry": { "type": "Point", "coordinates": [ 8.4732184, 49.4915145 ] } },
{ "type": "Feature", "properties": { "Name": "Vita Balance", "description": "<b>Kategorie:<\/b> Freizeit & Sport — Sportzentrum<br><b>Distanz:<\/b>  713 m<br><b>Website:<\/b> <br><b>Wikipedia:<\/b> <br><b>Telefon:<\/b> ", "tessellate": -1, "extrude": 0, "visibility": -1 }, "geometry": { "type": "Point", "coordinates": [ 8.4700165, 49.4717451 ] } },
{ "type": "Feature", "properties": { "Name": "Lasertag One", "description": "<b>Kategorie:<\/b> Freizeit & Sport — Sportzentrum<br><b>Distanz:<\/b> 2104 m<br><b>Website:<\/b> https:\/\/www.lasertag-one.de\/<br><b>Wikipedia:<\/b> <br><b>Telefon:<\/b> +49 621 83556111", "tessellate": -1, "extrude": 0, "visibility": -1 }, "geometry": { "type": "Point", "coordinates": [ 8.4886765, 49.4669032 ] } },
{ "type": "Feature", "properties": { "Name": "YogaSpirits", "description": "<b>Kategorie:<\/b> Freizeit & Sport — Sportzentrum<br><b>Distanz:<\/b>  916 m<br><b>Website:<\/b> <br><b>Wikipedia:<\/b> <br><b>Telefon:<\/b> ", "tessellate": -1, "extrude": 0, "visibility": -1 }, "geometry": { "type": "Point", "coordinates": [ 8.4537611, 49.4718325 ] } },
{ "type": "Feature", "properties": { "Name": "Tanzschule MOHL", "description": "<b>Kategorie:<\/b> Freizeit & Sport — Sportzentrum<br><b>Distanz:<\/b>  904 m<br><b>Website:<\/b> <br><b>Wikipedia:<\/b> <br><b>Telefon:<\/b> ", "tessellate": -1, "extrude": 0, "visibility": -1 }, "geometry": { "type": "Point", "coordinates": [ 8.4538631, 49.471917 ] } },
{ "type": "Feature", "properties": { "Name": "Taekwon-Do Center Mannheim", "description": "<b>Kategorie:<\/b> Freizeit & Sport — Sportzentrum<br><b>Distanz:<\/b> 1343 m<br><b>Website:<\/b> <br><b>Wikipedia:<\/b> <br><b>Telefon:<\/b> ", "tessellate": -1, "extrude": 0, "visibility": -1 }, "geometry": { "type": "Point", "coordinates": [ 8.4800995, 49.4826178 ] } },
{ "type": "Feature", "properties": { "Name": "Wing Chun Akademie", "description": "<b>Kategorie:<\/b> Freizeit & Sport — Sportzentrum<br><b>Distanz:<\/b> 2786 m<br><b>Website:<\/b> <br><b>Wikipedia:<\/b> <br><b>Telefon:<\/b> ", "tessellate": -1, "extrude": 0, "visibility": -1 }, "geometry": { "type": "Point", "coordinates": [ 8.4970925, 49.4641223 ] } },
{ "type": "Feature", "properties": { "Name": "Trimm-Dich-Pfad", "description": "<b>Kategorie:<\/b> Freizeit & Sport — Fitnessstation<br><b>Distanz:<\/b> 1872 m<br><b>Website:<\/b> <br><b>Wikipedia:<\/b> <br><b>Telefon:<\/b> ", "tessellate": -1, "extrude": 0, "visibility": -1 }, "geometry": { "type": "Point", "coordinates": [ 8.4855531, 49.4859387 ] } },
{ "type": "Feature", "properties": { "Name": "Calisthenics-Anlage", "description": "<b>Kategorie:<\/b> Freizeit & Sport — Fitnessstation<br><b>Distanz:<\/b> 2089 m<br><b>Website:<\/b> <br><b>Wikipedia:<\/b> <br><b>Telefon:<\/b> ", "tessellate": -1, "extrude": 0, "visibility": -1 }, "geometry": { "type": "Point", "coordinates": [ 8.4726396, 49.494665 ] } },
{ "type": "Feature", "properties": { "Name": "Casana", "description": "<b>Kategorie:<\/b> Freizeit & Sport — Sportzentrum<br><b>Distanz:<\/b>  683 m<br><b>Website:<\/b> https:\/\/www.casana-mannheim.de\/<br><b>Wikipedia:<\/b> <br><b>Telefon:<\/b> +49 621 842550", "tessellate": -1, "extrude": 0, "visibility": -1 }, "geometry": { "type": "Point", "coordinates": [ 8.469919, 49.4720437 ] } },
{ "type": "Feature", "properties": { "Name": "Tanz Zentrum C7 - Universitaet Mannheim", "description": "<b>Kategorie:<\/b> Freizeit & Sport — Sportzentrum<br><b>Distanz:<\/b> 1418 m<br><b>Website:<\/b> https:\/\/www.uni-mannheim.de\/sport\/studios\/tanz\/<br><b>Wikipedia:<\/b> <br><b>Telefon:<\/b> +49 621 1813419", "tessellate": -1, "extrude": 0, "visibility": -1 }, "geometry": { "type": "Point", "coordinates": [ 8.4587091, 49.4890667 ] } },
{ "type": "Feature", "properties": { "Name": "Kniestrecker", "description": "<b>Kategorie:<\/b> Freizeit & Sport — Fitnessstation<br><b>Distanz:<\/b> 1166 m<br><b>Website:<\/b> https:\/\/trimm-dich-pfad.com<br><b>Wikipedia:<\/b> <br><b>Telefon:<\/b> ", "tessellate": -1, "extrude": 0, "visibility": -1 }, "geometry": { "type": "Point", "coordinates": [ 8.4602778, 49.4665458 ] } },
{ "type": "Feature", "properties": { "Name": "Vorwärtshüpfen links und rechts über Baumstamm", "description": "<b>Kategorie:<\/b> Freizeit & Sport — Fitnessstation<br><b>Distanz:<\/b>  969 m<br><b>Website:<\/b> https:\/\/trimm-dich-pfad.com<br><b>Wikipedia:<\/b> <br><b>Telefon:<\/b> ", "tessellate": -1, "extrude": 0, "visibility": -1 }, "geometry": { "type": "Point", "coordinates": [ 8.4614894, 49.4681873 ] } },
{ "type": "Feature", "properties": { "Name": "Kraft", "description": "<b>Kategorie:<\/b> Freizeit & Sport — Fitnessstation<br><b>Distanz:<\/b> 1086 m<br><b>Website:<\/b> https:\/\/trimm-dich-pfad.com<br><b>Wikipedia:<\/b> <br><b>Telefon:<\/b> ", "tessellate": -1, "extrude": 0, "visibility": -1 }, "geometry": { "type": "Point", "coordinates": [ 8.4609315, 49.467188 ] } },
{ "type": "Feature", "properties": { "Name": "Beinespreizen", "description": "<b>Kategorie:<\/b> Freizeit & Sport — Fitnessstation<br><b>Distanz:<\/b>  721 m<br><b>Website:<\/b> <br><b>Wikipedia:<\/b> <br><b>Telefon:<\/b> ", "tessellate": -1, "extrude": 0, "visibility": -1 }, "geometry": { "type": "Point", "coordinates": [ 8.4613952, 49.4704801 ] } },
{ "type": "Feature", "properties": { "Name": "Trimm-Dich-Pfad", "description": "<b>Kategorie:<\/b> Freizeit & Sport — Fitnessstation<br><b>Distanz:<\/b>  719 m<br><b>Website:<\/b> https:\/\/trimm-dich-pfad.com<br><b>Wikipedia:<\/b> <br><b>Telefon:<\/b> ", "tessellate": -1, "extrude": 0, "visibility": -1 }, "geometry": { "type": "Point", "coordinates": [ 8.4602557, 49.4707486 ] } },
{ "type": "Feature", "properties": { "Name": "Balancieren", "description": "<b>Kategorie:<\/b> Freizeit & Sport — Fitnessstation<br><b>Distanz:<\/b>  751 m<br><b>Website:<\/b> https:\/\/trimm-dich-pfad.com<br><b>Wikipedia:<\/b> <br><b>Telefon:<\/b> ", "tessellate": -1, "extrude": 0, "visibility": -1 }, "geometry": { "type": "Point", "coordinates": [ 8.4600672, 49.4704879 ] } },
{ "type": "Feature", "properties": { "Name": "Situps", "description": "<b>Kategorie:<\/b> Freizeit & Sport — Fitnessstation<br><b>Distanz:<\/b> 1254 m<br><b>Website:<\/b> https:\/\/trimm-dich-pfad.com<br><b>Wikipedia:<\/b> <br><b>Telefon:<\/b> ", "tessellate": -1, "extrude": 0, "visibility": -1 }, "geometry": { "type": "Point", "coordinates": [ 8.4590643, 49.4659283 ] } },
{ "type": "Feature", "properties": { "Name": "Knie Beugen Und Strecken", "description": "<b>Kategorie:<\/b> Freizeit & Sport — Fitnessstation<br><b>Distanz:<\/b>  848 m<br><b>Website:<\/b> <br><b>Wikipedia:<\/b> <br><b>Telefon:<\/b> ", "tessellate": -1, "extrude": 0, "visibility": -1 }, "geometry": { "type": "Point", "coordinates": [ 8.4614079, 49.4693048 ] } },
{ "type": "Feature", "properties": { "Name": "Liegestütz", "description": "<b>Kategorie:<\/b> Freizeit & Sport — Fitnessstation<br><b>Distanz:<\/b>  782 m<br><b>Website:<\/b> <br><b>Wikipedia:<\/b> <br><b>Telefon:<\/b> ", "tessellate": -1, "extrude": 0, "visibility": -1 }, "geometry": { "type": "Point", "coordinates": [ 8.4615549, 49.469899 ] } },
{ "type": "Feature", "properties": { "Name": "Stützsprung", "description": "<b>Kategorie:<\/b> Freizeit & Sport — Fitnessstation<br><b>Distanz:<\/b>  892 m<br><b>Website:<\/b> https:\/\/trimm-dich-pfad.com<br><b>Wikipedia:<\/b> <br><b>Telefon:<\/b> ", "tessellate": -1, "extrude": 0, "visibility": -1 }, "geometry": { "type": "Point", "coordinates": [ 8.4614489, 49.4688961 ] } },
{ "type": "Feature", "properties": { "Name": "Armkreisen", "description": "<b>Kategorie:<\/b> Freizeit & Sport — Fitnessstation<br><b>Distanz:<\/b>  893 m<br><b>Website:<\/b> https:\/\/trimm-dich-pfad.com<br><b>Wikipedia:<\/b> <br><b>Telefon:<\/b> ", "tessellate": -1, "extrude": 0, "visibility": -1 }, "geometry": { "type": "Point", "coordinates": [ 8.4593995, 49.46928 ] } },
{ "type": "Feature", "properties": { "Name": "Armkreisen seitwärts einwärts und auswärts", "description": "<b>Kategorie:<\/b> Freizeit & Sport — Fitnessstation<br><b>Distanz:<\/b> 1185 m<br><b>Website:<\/b> <br><b>Wikipedia:<\/b> <br><b>Telefon:<\/b> ", "tessellate": -1, "extrude": 0, "visibility": -1 }, "geometry": { "type": "Point", "coordinates": [ 8.4581666, 49.4667731 ] } },
{ "type": "Feature", "properties": { "Name": "Rumpfkreisen", "description": "<b>Kategorie:<\/b> Freizeit & Sport — Fitnessstation<br><b>Distanz:<\/b> 1324 m<br><b>Website:<\/b> https:\/\/trimm-dich-pfad.com<br><b>Wikipedia:<\/b> <br><b>Telefon:<\/b> ", "tessellate": -1, "extrude": 0, "visibility": -1 }, "geometry": { "type": "Point", "coordinates": [ 8.4576206, 49.4655799 ] } },
{ "type": "Feature", "properties": { "Name": "Armkreisen", "description": "<b>Kategorie:<\/b> Freizeit & Sport — Fitnessstation<br><b>Distanz:<\/b> 1075 m<br><b>Website:<\/b> https:\/\/trimm-dich-pfad.com<br><b>Wikipedia:<\/b> <br><b>Telefon:<\/b> ", "tessellate": -1, "extrude": 0, "visibility": -1 }, "geometry": { "type": "Point", "coordinates": [ 8.4584272, 49.4677724 ] } },
{ "type": "Feature", "properties": { "Name": "Flanke über Hindernis und untendurch zurück", "description": "<b>Kategorie:<\/b> Freizeit & Sport — Fitnessstation<br><b>Distanz:<\/b> 1306 m<br><b>Website:<\/b> https:\/\/trimm-dich-pfad.com<br><b>Wikipedia:<\/b> <br><b>Telefon:<\/b> ", "tessellate": -1, "extrude": 0, "visibility": -1 }, "geometry": { "type": "Point", "coordinates": [ 8.4567166, 49.4659863 ] } },
{ "type": "Feature", "properties": { "Name": "Beindehnen", "description": "<b>Kategorie:<\/b> Freizeit & Sport — Fitnessstation<br><b>Distanz:<\/b>  932 m<br><b>Website:<\/b> https:\/\/trimm-dich-pfad.com<br><b>Wikipedia:<\/b> <br><b>Telefon:<\/b> ", "tessellate": -1, "extrude": 0, "visibility": -1 }, "geometry": { "type": "Point", "coordinates": [ 8.4591139, 49.4689773 ] } },
{ "type": "Feature", "properties": { "Name": "Froschhüpfen", "description": "<b>Kategorie:<\/b> Freizeit & Sport — Fitnessstation<br><b>Distanz:<\/b> 1141 m<br><b>Website:<\/b> <br><b>Wikipedia:<\/b> <br><b>Telefon:<\/b> ", "tessellate": -1, "extrude": 0, "visibility": -1 }, "geometry": { "type": "Point", "coordinates": [ 8.4583933, 49.4671452 ] } },
{ "type": "Feature", "properties": { "Name": "Rumpfschwingen", "description": "<b>Kategorie:<\/b> Freizeit & Sport — Fitnessstation<br><b>Distanz:<\/b> 1100 m<br><b>Website:<\/b> <br><b>Wikipedia:<\/b> <br><b>Telefon:<\/b> ", "tessellate": -1, "extrude": 0, "visibility": -1 }, "geometry": { "type": "Point", "coordinates": [ 8.4584103, 49.467532 ] } },
{ "type": "Feature", "properties": { "Name": "Kniewippe", "description": "<b>Kategorie:<\/b> Freizeit & Sport — Fitnessstation<br><b>Distanz:<\/b> 1008 m<br><b>Website:<\/b> https:\/\/trimm-dich-pfad.com<br><b>Wikipedia:<\/b> <br><b>Telefon:<\/b> ", "tessellate": -1, "extrude": 0, "visibility": -1 }, "geometry": { "type": "Point", "coordinates": [ 8.4588008, 49.4683259 ] } },
{ "type": "Feature", "properties": { "Name": "Klimmzüge", "description": "<b>Kategorie:<\/b> Freizeit & Sport — Fitnessstation<br><b>Distanz:<\/b> 1269 m<br><b>Website:<\/b> <br><b>Wikipedia:<\/b> <br><b>Telefon:<\/b> ", "tessellate": -1, "extrude": 0, "visibility": -1 }, "geometry": { "type": "Point", "coordinates": [ 8.4567766, 49.4663331 ] } },
{ "type": "Feature", "properties": { "Name": "maba! Padel Mannheim", "description": "<b>Kategorie:<\/b> Freizeit & Sport — Sportzentrum<br><b>Distanz:<\/b> 2658 m<br><b>Website:<\/b> https:\/\/padelmannheim.de\/<br><b>Wikipedia:<\/b> <br><b>Telefon:<\/b> ", "tessellate": -1, "extrude": 0, "visibility": -1 }, "geometry": { "type": "Point", "coordinates": [ 8.4955792, 49.4647162 ] } },
{ "type": "Feature", "properties": { "Name": "Sternwarte A4", "description": "<b>Kategorie:<\/b> Information — Besucherinformation<br><b>Distanz:<\/b> 1143 m<br><b>Website:<\/b> <br><b>Wikipedia:<\/b> <br><b>Telefon:<\/b> ", "tessellate": -1, "extrude": 0, "visibility": -1 }, "geometry": { "type": "Point", "coordinates": [ 8.4596017, 49.4866608 ] } },
{ "type": "Feature", "properties": { "Name": "Wein - Kulturpflanze der Menschheit", "description": "<b>Kategorie:<\/b> Information — Besucherinformation<br><b>Distanz:<\/b> 2556 m<br><b>Website:<\/b> <br><b>Wikipedia:<\/b> <br><b>Telefon:<\/b> ", "tessellate": -1, "extrude": 0, "visibility": -1 }, "geometry": { "type": "Point", "coordinates": [ 8.4982156, 49.4820784 ] } },
{ "type": "Feature", "properties": { "Name": "Pflanzenschauhaus", "description": "<b>Kategorie:<\/b> Information — Besucherinformation<br><b>Distanz:<\/b> 2385 m<br><b>Website:<\/b> <br><b>Wikipedia:<\/b> <br><b>Telefon:<\/b> ", "tessellate": -1, "extrude": 0, "visibility": -1 }, "geometry": { "type": "Point", "coordinates": [ 8.495867, 49.4818469 ] } },
{ "type": "Feature", "properties": { "Name": "Luisenpark", "description": "<b>Kategorie:<\/b> Information — Besucherinformation<br><b>Distanz:<\/b> 2299 m<br><b>Website:<\/b> <br><b>Wikipedia:<\/b> <br><b>Telefon:<\/b> ", "tessellate": -1, "extrude": 0, "visibility": -1 }, "geometry": { "type": "Point", "coordinates": [ 8.4920472, 49.4862968 ] } },
{ "type": "Feature", "properties": { "Name": "Bannwald", "description": "<b>Kategorie:<\/b> Information — Besucherinformation<br><b>Distanz:<\/b> 2720 m<br><b>Website:<\/b> <br><b>Wikipedia:<\/b> <br><b>Telefon:<\/b> ", "tessellate": -1, "extrude": 0, "visibility": -1 }, "geometry": { "type": "Point", "coordinates": [ 8.443971, 49.4560272 ] } },
{ "type": "Feature", "properties": { "Name": "Bannwald", "description": "<b>Kategorie:<\/b> Information — Besucherinformation<br><b>Distanz:<\/b> 2270 m<br><b>Website:<\/b> <br><b>Wikipedia:<\/b> <br><b>Telefon:<\/b> ", "tessellate": -1, "extrude": 0, "visibility": -1 }, "geometry": { "type": "Point", "coordinates": [ 8.4517555, 49.4579375 ] } },
{ "type": "Feature", "properties": { "Name": "RNV Kundenzentrum Mannheim", "description": "<b>Kategorie:<\/b> Information — Besucherinformation<br><b>Distanz:<\/b> 1093 m<br><b>Website:<\/b> https:\/\/www.rnv-online.de\/service\/kundenzentren-verkaufsstellen.html<br><b>Wikipedia:<\/b> <br><b>Telefon:<\/b> ", "tessellate": -1, "extrude": 0, "visibility": -1 }, "geometry": { "type": "Point", "coordinates": [ 8.4655513, 49.4865323 ] } },
{ "type": "Feature", "properties": { "Name": "Tourist Information Mannheim", "description": "<b>Kategorie:<\/b> Information — Besucherinformation<br><b>Distanz:<\/b>  637 m<br><b>Website:<\/b> https:\/\/www.visit-mannheim.de<br><b>Wikipedia:<\/b> <br><b>Telefon:<\/b> +49 621 2938700", "tessellate": -1, "extrude": 0, "visibility": -1 }, "geometry": { "type": "Point", "coordinates": [ 8.4709231, 49.4801928 ] } },
{ "type": "Feature", "properties": { "Name": "Ehemaliger jüdischer Friedhof F7", "description": "<b>Kategorie:<\/b> Information — Besucherinformation<br><b>Distanz:<\/b> 1575 m<br><b>Website:<\/b> <br><b>Wikipedia:<\/b> <br><b>Telefon:<\/b> ", "tessellate": -1, "extrude": 0, "visibility": -1 }, "geometry": { "type": "Point", "coordinates": [ 8.4610035, 49.4908079 ] } },
{ "type": "Feature", "properties": { "Name": "Der Schlauch", "description": "<b>Kategorie:<\/b> Information — Besucherinformation<br><b>Distanz:<\/b> 1727 m<br><b>Website:<\/b> <br><b>Wikipedia:<\/b> <br><b>Telefon:<\/b> ", "tessellate": -1, "extrude": 0, "visibility": -1 }, "geometry": { "type": "Point", "coordinates": [ 8.4611916, 49.4613302 ] } },
{ "type": "Feature", "properties": { "Name": "Der Bellenkrappen", "description": "<b>Kategorie:<\/b> Information — Besucherinformation<br><b>Distanz:<\/b> 1559 m<br><b>Website:<\/b> <br><b>Wikipedia:<\/b> <br><b>Telefon:<\/b> ", "tessellate": -1, "extrude": 0, "visibility": -1 }, "geometry": { "type": "Point", "coordinates": [ 8.4616385, 49.4628143 ] } },
{ "type": "Feature", "properties": { "Name": "Die Reiß-Insel", "description": "<b>Kategorie:<\/b> Information — Besucherinformation<br><b>Distanz:<\/b> 1433 m<br><b>Website:<\/b> <br><b>Wikipedia:<\/b> <br><b>Telefon:<\/b> ", "tessellate": -1, "extrude": 0, "visibility": -1 }, "geometry": { "type": "Point", "coordinates": [ 8.4621764, 49.4639178 ] } },
{ "type": "Feature", "properties": { "Name": "Die Johanniskirche", "description": "<b>Kategorie:<\/b> Information — Besucherinformation<br><b>Distanz:<\/b>  399 m<br><b>Website:<\/b> <br><b>Wikipedia:<\/b> <br><b>Telefon:<\/b> ", "tessellate": -1, "extrude": 0, "visibility": -1 }, "geometry": { "type": "Point", "coordinates": [ 8.4668495, 49.4737339 ] } },
{ "type": "Feature", "properties": { "Name": "Stephanie de Beauharnais, Großherzogin von Baden", "description": "<b>Kategorie:<\/b> Information — Besucherinformation<br><b>Distanz:<\/b>  641 m<br><b>Website:<\/b> <br><b>Wikipedia:<\/b> <br><b>Telefon:<\/b> ", "tessellate": -1, "extrude": 0, "visibility": -1 }, "geometry": { "type": "Point", "coordinates": [ 8.4657614, 49.4711316 ] } },
{ "type": "Feature", "properties": { "Name": "Das Derblin \/ Dörblinsche Gut", "description": "<b>Kategorie:<\/b> Information — Besucherinformation<br><b>Distanz:<\/b>  460 m<br><b>Website:<\/b> <br><b>Wikipedia:<\/b> <br><b>Telefon:<\/b> ", "tessellate": -1, "extrude": 0, "visibility": -1 }, "geometry": { "type": "Point", "coordinates": [ 8.4651871, 49.472714 ] } },
{ "type": "Feature", "properties": { "Name": "Die Zollburg Eichelsheim", "description": "<b>Kategorie:<\/b> Information — Besucherinformation<br><b>Distanz:<\/b>  352 m<br><b>Website:<\/b> <br><b>Wikipedia:<\/b> <br><b>Telefon:<\/b> ", "tessellate": -1, "extrude": 0, "visibility": -1 }, "geometry": { "type": "Point", "coordinates": [ 8.4645857, 49.4736317 ] } },
{ "type": "Feature", "properties": { "Name": "Jugendherberge - ehemaliges Friedrich-Ebert-Heim - und wieder Jugendherberge", "description": "<b>Kategorie:<\/b> Information — Besucherinformation<br><b>Distanz:<\/b>   75 m<br><b>Website:<\/b> <br><b>Wikipedia:<\/b> <br><b>Telefon:<\/b> ", "tessellate": -1, "extrude": 0, "visibility": -1 }, "geometry": { "type": "Point", "coordinates": [ 8.4637613, 49.4760934 ] } },
{ "type": "Feature", "properties": { "Name": "Das Schnickenloch", "description": "<b>Kategorie:<\/b> Information — Besucherinformation<br><b>Distanz:<\/b>   45 m<br><b>Website:<\/b> <br><b>Wikipedia:<\/b> <br><b>Telefon:<\/b> ", "tessellate": -1, "extrude": 0, "visibility": -1 }, "geometry": { "type": "Point", "coordinates": [ 8.4637973, 49.4771677 ] } },
{ "type": "Feature", "properties": { "Name": "Der Waldpark", "description": "<b>Kategorie:<\/b> Information — Besucherinformation<br><b>Distanz:<\/b> 1637 m<br><b>Website:<\/b> <br><b>Wikipedia:<\/b> <br><b>Telefon:<\/b> ", "tessellate": -1, "extrude": 0, "visibility": -1 }, "geometry": { "type": "Point", "coordinates": [ 8.461589, 49.4621123 ] } },
{ "type": "Feature", "properties": { "Name": "Hecken", "description": "<b>Kategorie:<\/b> Information — Besucherinformation<br><b>Distanz:<\/b> 2449 m<br><b>Website:<\/b> <br><b>Wikipedia:<\/b> <br><b>Telefon:<\/b> ", "tessellate": -1, "extrude": 0, "visibility": -1 }, "geometry": { "type": "Point", "coordinates": [ 8.4723102, 49.4554271 ] } },
{ "type": "Feature", "properties": { "Name": "Der Mannheimer Waldpark", "description": "<b>Kategorie:<\/b> Information — Besucherinformation<br><b>Distanz:<\/b>  758 m<br><b>Website:<\/b> <br><b>Wikipedia:<\/b> <br><b>Telefon:<\/b> ", "tessellate": -1, "extrude": 0, "visibility": -1 }, "geometry": { "type": "Point", "coordinates": [ 8.465764, 49.470058 ] } },
{ "type": "Feature", "properties": { "Name": "Der Linden-Hof \/ Das Wellenreutherische Gut", "description": "<b>Kategorie:<\/b> Information — Besucherinformation<br><b>Distanz:<\/b>  497 m<br><b>Website:<\/b> <br><b>Wikipedia:<\/b> <br><b>Telefon:<\/b> ", "tessellate": -1, "extrude": 0, "visibility": -1 }, "geometry": { "type": "Point", "coordinates": [ 8.4706387, 49.4759645 ] } },
{ "type": "Feature", "properties": { "Name": "Das Fröbel Seminar", "description": "<b>Kategorie:<\/b> Information — Besucherinformation<br><b>Distanz:<\/b>  248 m<br><b>Website:<\/b> <br><b>Wikipedia:<\/b> <br><b>Telefon:<\/b> ", "tessellate": -1, "extrude": 0, "visibility": -1 }, "geometry": { "type": "Point", "coordinates": [ 8.4663877, 49.4782871 ] } },
{ "type": "Feature", "properties": { "Name": "Die Lindenhofüberführung", "description": "<b>Kategorie:<\/b> Information — Besucherinformation<br><b>Distanz:<\/b>  251 m<br><b>Website:<\/b> <br><b>Wikipedia:<\/b> <br><b>Telefon:<\/b> ", "tessellate": -1, "extrude": 0, "visibility": -1 }, "geometry": { "type": "Point", "coordinates": [ 8.4664013, 49.4783144 ] } },
{ "type": "Feature", "properties": { "Name": "Die St Josef Kirche", "description": "<b>Kategorie:<\/b> Information — Besucherinformation<br><b>Distanz:<\/b>  577 m<br><b>Website:<\/b> <br><b>Wikipedia:<\/b> <br><b>Telefon:<\/b> ", "tessellate": -1, "extrude": 0, "visibility": -1 }, "geometry": { "type": "Point", "coordinates": [ 8.4702994, 49.473687 ] } },
{ "type": "Feature", "properties": { "Name": "Kaufhaus - Rathaus - Stadthaus N1;\"Pfälzer Hof\" D 1, 5-6", "description": "<b>Kategorie:<\/b> Information — Besucherinformation<br><b>Distanz:<\/b> 1205 m<br><b>Website:<\/b> <br><b>Wikipedia:<\/b> <br><b>Telefon:<\/b> ", "tessellate": -1, "extrude": 0, "visibility": -1 }, "geometry": { "type": "Point", "coordinates": [ 8.4664827, 49.487468 ] } },
{ "type": "Feature", "properties": { "Name": "Der Mannheimer Ruder Club von 1875", "description": "<b>Kategorie:<\/b> Information — Besucherinformation<br><b>Distanz:<\/b>  346 m<br><b>Website:<\/b> <br><b>Wikipedia:<\/b> <br><b>Telefon:<\/b> ", "tessellate": -1, "extrude": 0, "visibility": -1 }, "geometry": { "type": "Point", "coordinates": [ 8.4613653, 49.4794112 ] } },
{ "type": "Feature", "properties": { "Name": "Die Paddel-Gesellschaft Mannheim", "description": "<b>Kategorie:<\/b> Information — Besucherinformation<br><b>Distanz:<\/b>  474 m<br><b>Website:<\/b> <br><b>Wikipedia:<\/b> <br><b>Telefon:<\/b> ", "tessellate": -1, "extrude": 0, "visibility": -1 }, "geometry": { "type": "Point", "coordinates": [ 8.4600282, 49.4802063 ] } },
{ "type": "Feature", "properties": { "Name": "Karl Drais und seine Laufmaschine", "description": "<b>Kategorie:<\/b> Information — Besucherinformation<br><b>Distanz:<\/b>  804 m<br><b>Website:<\/b> <br><b>Wikipedia:<\/b> <br><b>Telefon:<\/b> ", "tessellate": -1, "extrude": 0, "visibility": -1 }, "geometry": { "type": "Point", "coordinates": [ 8.4603741, 49.4836244 ] } },
{ "type": "Feature", "properties": { "Name": "Stadt- und Festungsgründung 1606\/07", "description": "<b>Kategorie:<\/b> Information — Besucherinformation<br><b>Distanz:<\/b>  813 m<br><b>Website:<\/b> <br><b>Wikipedia:<\/b> <br><b>Telefon:<\/b> ", "tessellate": -1, "extrude": 0, "visibility": -1 }, "geometry": { "type": "Point", "coordinates": [ 8.4600038, 49.4836263 ] } },
{ "type": "Feature", "properties": { "Name": "Wechselnde Schlossbewohner", "description": "<b>Kategorie:<\/b> Information — Besucherinformation<br><b>Distanz:<\/b>  803 m<br><b>Website:<\/b> <br><b>Wikipedia:<\/b> <br><b>Telefon:<\/b> ", "tessellate": -1, "extrude": 0, "visibility": -1 }, "geometry": { "type": "Point", "coordinates": [ 8.460363, 49.4836122 ] } },
{ "type": "Feature", "properties": { "Name": "Actress Faye Dunaway lived here as a child", "description": "<b>Kategorie:<\/b> Information — Besucherinformation<br><b>Distanz:<\/b> 1408 m<br><b>Website:<\/b> <br><b>Wikipedia:<\/b> <br><b>Telefon:<\/b> ", "tessellate": -1, "extrude": 0, "visibility": -1 }, "geometry": { "type": "Point", "coordinates": [ 8.4820615, 49.4812455 ] } },
{ "type": "Feature", "properties": { "Name": "Hörsaalplan", "description": "<b>Kategorie:<\/b> Information — Besucherinformation<br><b>Distanz:<\/b>  734 m<br><b>Website:<\/b> <br><b>Wikipedia:<\/b> <br><b>Telefon:<\/b> ", "tessellate": -1, "extrude": 0, "visibility": -1 }, "geometry": { "type": "Point", "coordinates": [ 8.4648523, 49.4833387 ] } },
{ "type": "Feature", "properties": { "Name": "Karl Friedrich Schramm (1833-1893) Ratschreiber und Musiker", "description": "<b>Kategorie:<\/b> Information — Besucherinformation<br><b>Distanz:<\/b> 2993 m<br><b>Website:<\/b> <br><b>Wikipedia:<\/b> <br><b>Telefon:<\/b> ", "tessellate": -1, "extrude": 0, "visibility": -1 }, "geometry": { "type": "Point", "coordinates": [ 8.4885114, 49.455146 ] } },
{ "type": "Feature", "properties": { "Name": "August-Bebel-Park", "description": "<b>Kategorie:<\/b> Information — Besucherinformation<br><b>Distanz:<\/b> 2586 m<br><b>Website:<\/b> <br><b>Wikipedia:<\/b> <br><b>Telefon:<\/b> ", "tessellate": -1, "extrude": 0, "visibility": -1 }, "geometry": { "type": "Point", "coordinates": [ 8.485922, 49.4584605 ] } },
{ "type": "Feature", "properties": { "Name": "Neckarauer Historischer Spaziergang", "description": "<b>Kategorie:<\/b> Information — Besucherinformation<br><b>Distanz:<\/b> 1582 m<br><b>Website:<\/b> <br><b>Wikipedia:<\/b> <br><b>Telefon:<\/b> ", "tessellate": -1, "extrude": 0, "visibility": -1 }, "geometry": { "type": "Point", "coordinates": [ 8.4758396, 49.46485 ] } },
{ "type": "Feature", "properties": { "Name": "Rheinische Gummi- und Celluloid-Fabrik", "description": "<b>Kategorie:<\/b> Information — Besucherinformation<br><b>Distanz:<\/b> 3489 m<br><b>Website:<\/b> <br><b>Wikipedia:<\/b> <br><b>Telefon:<\/b> ", "tessellate": -1, "extrude": 0, "visibility": -1 }, "geometry": { "type": "Point", "coordinates": [ 8.4979331, 49.4545759 ] } },
{ "type": "Feature", "properties": { "Name": "Evangelische Klein-Kinderschule", "description": "<b>Kategorie:<\/b> Information — Besucherinformation<br><b>Distanz:<\/b> 3101 m<br><b>Website:<\/b> <br><b>Wikipedia:<\/b> <br><b>Telefon:<\/b> ", "tessellate": -1, "extrude": 0, "visibility": -1 }, "geometry": { "type": "Point", "coordinates": [ 8.4900985, 49.4547155 ] } },
{ "type": "Feature", "properties": { "Name": "Rheinische Creditbank B 4, 2", "description": "<b>Kategorie:<\/b> Information — Besucherinformation<br><b>Distanz:<\/b> 1050 m<br><b>Website:<\/b> <br><b>Wikipedia:<\/b> <br><b>Telefon:<\/b> ", "tessellate": -1, "extrude": 0, "visibility": -1 }, "geometry": { "type": "Point", "coordinates": [ 8.4620663, 49.4861337 ] } },
{ "type": "Feature", "properties": { "Name": "Geschäftsstelle der DVP C 3, 21-22", "description": "<b>Kategorie:<\/b> Information — Besucherinformation<br><b>Distanz:<\/b> 1067 m<br><b>Website:<\/b> <br><b>Wikipedia:<\/b> <br><b>Telefon:<\/b> ", "tessellate": -1, "extrude": 0, "visibility": -1 }, "geometry": { "type": "Point", "coordinates": [ 8.4616302, 49.4862447 ] } },
{ "type": "Feature", "properties": { "Name": "Jesuitenkirche A 4, 1", "description": "<b>Kategorie:<\/b> Information — Besucherinformation<br><b>Distanz:<\/b> 1067 m<br><b>Website:<\/b> <br><b>Wikipedia:<\/b> <br><b>Telefon:<\/b> ", "tessellate": -1, "extrude": 0, "visibility": -1 }, "geometry": { "type": "Point", "coordinates": [ 8.4616337, 49.4862458 ] } },
{ "type": "Feature", "properties": { "Name": "Mannheimer Nationaltheater", "description": "<b>Kategorie:<\/b> Information — Besucherinformation<br><b>Distanz:<\/b> 1037 m<br><b>Website:<\/b> <br><b>Wikipedia:<\/b> <br><b>Telefon:<\/b> ", "tessellate": -1, "extrude": 0, "visibility": -1 }, "geometry": { "type": "Point", "coordinates": [ 8.4620872, 49.486017 ] } },
{ "type": "Feature", "properties": { "Name": "Nationaltheater B 3", "description": "<b>Kategorie:<\/b> Information — Besucherinformation<br><b>Distanz:<\/b> 1050 m<br><b>Website:<\/b> <br><b>Wikipedia:<\/b> <br><b>Telefon:<\/b> ", "tessellate": -1, "extrude": 0, "visibility": -1 }, "geometry": { "type": "Point", "coordinates": [ 8.4620623, 49.4861331 ] } },
{ "type": "Feature", "properties": { "Name": "Palais Bretzenheim A 2,1", "description": "<b>Kategorie:<\/b> Information — Besucherinformation<br><b>Distanz:<\/b>  909 m<br><b>Website:<\/b> <br><b>Wikipedia:<\/b> <br><b>Telefon:<\/b> ", "tessellate": -1, "extrude": 0, "visibility": -1 }, "geometry": { "type": "Point", "coordinates": [ 8.4622842, 49.4848732 ] } },
{ "type": "Feature", "properties": { "Name": "Rheinhafen und Rheinbrücke", "description": "<b>Kategorie:<\/b> Information — Besucherinformation<br><b>Distanz:<\/b>  981 m<br><b>Website:<\/b> <br><b>Wikipedia:<\/b> <br><b>Telefon:<\/b> ", "tessellate": -1, "extrude": 0, "visibility": -1 }, "geometry": { "type": "Point", "coordinates": [ 8.4555634, 49.4837192 ] } },
{ "type": "Feature", "properties": { "Name": "Ihr Spaziergang zum Barockschloß Mannheim", "description": "<b>Kategorie:<\/b> Information — Besucherinformation<br><b>Distanz:<\/b> 1067 m<br><b>Website:<\/b> <br><b>Wikipedia:<\/b> <br><b>Telefon:<\/b> ", "tessellate": -1, "extrude": 0, "visibility": -1 }, "geometry": { "type": "Point", "coordinates": [ 8.4547566, 49.4842923 ] } },
{ "type": "Feature", "properties": { "Name": "Tourist Information", "description": "<b>Kategorie:<\/b> Information — Besucherinformation<br><b>Distanz:<\/b>  957 m<br><b>Website:<\/b> https:\/\/www.ludwigshafen.de\/lebenswert\/stadt-am-rhein\/gaeste\/tourist-information\/<br><b>Wikipedia:<\/b> <br><b>Telefon:<\/b> +49 621 512036", "tessellate": -1, "extrude": 0, "visibility": -1 }, "geometry": { "type": "Point", "coordinates": [ 8.4514217, 49.4796248 ] } },
{ "type": "Feature", "properties": { "Name": "Wasserturm", "description": "<b>Kategorie:<\/b> Information — Besucherinformation<br><b>Distanz:<\/b> 1194 m<br><b>Website:<\/b> <br><b>Wikipedia:<\/b> <br><b>Telefon:<\/b> ", "tessellate": -1, "extrude": 0, "visibility": -1 }, "geometry": { "type": "Point", "coordinates": [ 8.4750793, 49.4846512 ] } },
{ "type": "Feature", "properties": { "Name": "Friedrichsplatz", "description": "<b>Kategorie:<\/b> Information — Besucherinformation<br><b>Distanz:<\/b> 1194 m<br><b>Website:<\/b> <br><b>Wikipedia:<\/b> <br><b>Telefon:<\/b> ", "tessellate": -1, "extrude": 0, "visibility": -1 }, "geometry": { "type": "Point", "coordinates": [ 8.4750757, 49.4846469 ] } },
{ "type": "Feature", "properties": { "Name": "Information", "description": "<b>Kategorie:<\/b> Information — Besucherinformation<br><b>Distanz:<\/b>  486 m<br><b>Website:<\/b> <br><b>Wikipedia:<\/b> <br><b>Telefon:<\/b> ", "tessellate": -1, "extrude": 0, "visibility": -1 }, "geometry": { "type": "Point", "coordinates": [ 8.4694249, 49.479226 ] } },
{ "type": "Feature", "properties": { "Name": "LUKOM Ludwigshafener Kongress- und Marketing-Gesellschaft mbH", "description": "<b>Kategorie:<\/b> Information — Besucherinformation<br><b>Distanz:<\/b>  744 m<br><b>Website:<\/b> https:\/\/www.lukom.com\/<br><b>Wikipedia:<\/b> <br><b>Telefon:<\/b> ", "tessellate": -1, "extrude": 0, "visibility": -1 }, "geometry": { "type": "Point", "coordinates": [ 8.4545971, 49.4796159 ] } },
{ "type": "Feature", "properties": { "Name": "St. Ludwig", "description": "<b>Kategorie:<\/b> Information — Besucherinformation<br><b>Distanz:<\/b> 1184 m<br><b>Website:<\/b> <br><b>Wikipedia:<\/b> <br><b>Telefon:<\/b> ", "tessellate": -1, "extrude": 0, "visibility": -1 }, "geometry": { "type": "Point", "coordinates": [ 8.4483039, 49.4799637 ] } },
{ "type": "Feature", "properties": { "Name": "Berufsbildende Schule Wirtschaft 2", "description": "<b>Kategorie:<\/b> Information — Besucherinformation<br><b>Distanz:<\/b> 1237 m<br><b>Website:<\/b> <br><b>Wikipedia:<\/b> <br><b>Telefon:<\/b> ", "tessellate": -1, "extrude": 0, "visibility": -1 }, "geometry": { "type": "Point", "coordinates": [ 8.4480897, 49.4809916 ] } },
{ "type": "Feature", "properties": { "Name": "Luisenpark", "description": "<b>Kategorie:<\/b> Information — Besucherinformation<br><b>Distanz:<\/b> 2322 m<br><b>Website:<\/b> <br><b>Wikipedia:<\/b> <br><b>Telefon:<\/b> ", "tessellate": -1, "extrude": 0, "visibility": -1 }, "geometry": { "type": "Point", "coordinates": [ 8.4922545, 49.4864861 ] } },
{ "type": "Feature", "properties": { "Name": "Otváracie hodiny", "description": "<b>Kategorie:<\/b> Information — Besucherinformation<br><b>Distanz:<\/b> 1161 m<br><b>Website:<\/b> <br><b>Wikipedia:<\/b> <br><b>Telefon:<\/b> ", "tessellate": -1, "extrude": 0, "visibility": -1 }, "geometry": { "type": "Point", "coordinates": [ 8.4753646, 49.4840515 ] } },
{ "type": "Feature", "properties": { "Name": "Kommt her zu mir, alle", "description": "<b>Kategorie:<\/b> Information — Besucherinformation<br><b>Distanz:<\/b> 1471 m<br><b>Website:<\/b> <br><b>Wikipedia:<\/b> <br><b>Telefon:<\/b> ", "tessellate": -1, "extrude": 0, "visibility": -1 }, "geometry": { "type": "Point", "coordinates": [ 8.4804101, 49.4844584 ] } },
{ "type": "Feature", "properties": { "Name": "St. Sebastian", "description": "<b>Kategorie:<\/b> Information — Besucherinformation<br><b>Distanz:<\/b> 1411 m<br><b>Website:<\/b> <br><b>Wikipedia:<\/b> <br><b>Telefon:<\/b> ", "tessellate": -1, "extrude": 0, "visibility": -1 }, "geometry": { "type": "Point", "coordinates": [ 8.4668725, 49.4893057 ] } },
{ "type": "Feature", "properties": { "Name": "Parkplatz M 4a", "description": "<b>Kategorie:<\/b> Information — Besucherinformation<br><b>Distanz:<\/b>  887 m<br><b>Website:<\/b> <br><b>Wikipedia:<\/b> <br><b>Telefon:<\/b> ", "tessellate": -1, "extrude": 0, "visibility": -1 }, "geometry": { "type": "Point", "coordinates": [ 8.4668111, 49.4845084 ] } },
{ "type": "Feature", "properties": { "Name": "Jesuitenkirche St. Ignatius und Franz Xaver", "description": "<b>Kategorie:<\/b> Information — Besucherinformation<br><b>Distanz:<\/b> 1086 m<br><b>Website:<\/b> <br><b>Wikipedia:<\/b> <br><b>Telefon:<\/b> ", "tessellate": -1, "extrude": 0, "visibility": -1 }, "geometry": { "type": "Point", "coordinates": [ 8.4608192, 49.4863252 ] } },
{ "type": "Feature", "properties": { "Name": "1817 - Der erste Radweg der Welt", "description": "<b>Kategorie:<\/b> Information — Besucherinformation<br><b>Distanz:<\/b>  496 m<br><b>Website:<\/b> <br><b>Wikipedia:<\/b> <br><b>Telefon:<\/b> ", "tessellate": -1, "extrude": 0, "visibility": -1 }, "geometry": { "type": "Point", "coordinates": [ 8.4608113, 49.4807496 ] } },
{ "type": "Feature", "properties": { "Name": "Schildkröte Rheinische Gummi- und Celluloid-Fabrik", "description": "<b>Kategorie:<\/b> Information — Besucherinformation<br><b>Distanz:<\/b> 2411 m<br><b>Website:<\/b> <br><b>Wikipedia:<\/b> <br><b>Telefon:<\/b> ", "tessellate": -1, "extrude": 0, "visibility": -1 }, "geometry": { "type": "Point", "coordinates": [ 8.496495, 49.4811208 ] } },
{ "type": "Feature", "properties": { "Name": "Villa Lenel", "description": "<b>Kategorie:<\/b> Information — Besucherinformation<br><b>Distanz:<\/b> 1639 m<br><b>Website:<\/b> <br><b>Wikipedia:<\/b> <br><b>Telefon:<\/b> ", "tessellate": -1, "extrude": 0, "visibility": -1 }, "geometry": { "type": "Point", "coordinates": [ 8.4844391, 49.4829256 ] } },
{ "type": "Feature", "properties": { "Name": "Bydgoszcz (Bromberg)", "description": "<b>Kategorie:<\/b> Information — Besucherinformation<br><b>Distanz:<\/b> 2546 m<br><b>Website:<\/b> <br><b>Wikipedia:<\/b> <br><b>Telefon:<\/b> ", "tessellate": -1, "extrude": 0, "visibility": -1 }, "geometry": { "type": "Point", "coordinates": [ 8.4973328, 49.4838007 ] } },
{ "type": "Feature", "properties": { "Name": "Entstehung der Phytomedizin. Die Geschichte der Heilmittel", "description": "<b>Kategorie:<\/b> Information — Besucherinformation<br><b>Distanz:<\/b> 2226 m<br><b>Website:<\/b> <br><b>Wikipedia:<\/b> <br><b>Telefon:<\/b> ", "tessellate": -1, "extrude": 0, "visibility": -1 }, "geometry": { "type": "Point", "coordinates": [ 8.4942028, 49.4800076 ] } },
{ "type": "Feature", "properties": { "Name": "Phytopharmaka", "description": "<b>Kategorie:<\/b> Information — Besucherinformation<br><b>Distanz:<\/b> 2222 m<br><b>Website:<\/b> <br><b>Wikipedia:<\/b> <br><b>Telefon:<\/b> ", "tessellate": -1, "extrude": 0, "visibility": -1 }, "geometry": { "type": "Point", "coordinates": [ 8.4941564, 49.4800143 ] } },
{ "type": "Feature", "properties": { "Name": "Plan des Heilpflanzengartens im Luisenpark", "description": "<b>Kategorie:<\/b> Information — Besucherinformation<br><b>Distanz:<\/b> 2222 m<br><b>Website:<\/b> <br><b>Wikipedia:<\/b> <br><b>Telefon:<\/b> ", "tessellate": -1, "extrude": 0, "visibility": -1 }, "geometry": { "type": "Point", "coordinates": [ 8.4941507, 49.4800234 ] } },
{ "type": "Feature", "properties": { "Name": "Information", "description": "<b>Kategorie:<\/b> Information — Besucherinformation<br><b>Distanz:<\/b> 2351 m<br><b>Website:<\/b> <br><b>Wikipedia:<\/b> <br><b>Telefon:<\/b> ", "tessellate": -1, "extrude": 0, "visibility": -1 }, "geometry": { "type": "Point", "coordinates": [ 8.4961006, 49.4793642 ] } },
{ "type": "Feature", "properties": { "Name": "Klinikum Mannheim", "description": "<b>Kategorie:<\/b> Information — Besucherinformation<br><b>Distanz:<\/b> 2442 m<br><b>Website:<\/b> <br><b>Wikipedia:<\/b> <br><b>Telefon:<\/b> ", "tessellate": -1, "extrude": 0, "visibility": -1 }, "geometry": { "type": "Point", "coordinates": [ 8.4907465, 49.4900363 ] } },
{ "type": "Feature", "properties": { "Name": "Lok im Winterhafen", "description": "<b>Kategorie:<\/b> Information — Besucherinformation<br><b>Distanz:<\/b> 1411 m<br><b>Website:<\/b> <br><b>Wikipedia:<\/b> <br><b>Telefon:<\/b> ", "tessellate": -1, "extrude": 0, "visibility": -1 }, "geometry": { "type": "Point", "coordinates": [ 8.449181, 49.4850897 ] } },
{ "type": "Feature", "properties": { "Name": "Katholische Heilig-Geist-Kirche", "description": "<b>Kategorie:<\/b> Information — Besucherinformation<br><b>Distanz:<\/b> 1007 m<br><b>Website:<\/b> <br><b>Wikipedia:<\/b> <br><b>Telefon:<\/b> ", "tessellate": -1, "extrude": 0, "visibility": -1 }, "geometry": { "type": "Point", "coordinates": [ 8.4755269, 49.4817153 ] } },
{ "type": "Feature", "properties": { "Name": "Christus Friedengemeinde", "description": "<b>Kategorie:<\/b> Information — Besucherinformation<br><b>Distanz:<\/b> 1552 m<br><b>Website:<\/b> <br><b>Wikipedia:<\/b> <br><b>Telefon:<\/b> ", "tessellate": -1, "extrude": 0, "visibility": -1 }, "geometry": { "type": "Point", "coordinates": [ 8.4813795, 49.4848226 ] } },
{ "type": "Feature", "properties": { "Name": "Stadtpunkte: Reichsbank, Landeszentralbank, Bundesbank", "description": "<b>Kategorie:<\/b> Information — Besucherinformation<br><b>Distanz:<\/b>  911 m<br><b>Website:<\/b> <br><b>Wikipedia:<\/b> <br><b>Telefon:<\/b> ", "tessellate": -1, "extrude": 0, "visibility": -1 }, "geometry": { "type": "Point", "coordinates": [ 8.470769, 49.4836182 ] } },
{ "type": "Feature", "properties": { "Name": "Stadtpunkte: Kirchenunion von 1821", "description": "<b>Kategorie:<\/b> Information — Besucherinformation<br><b>Distanz:<\/b> 1369 m<br><b>Website:<\/b> <br><b>Wikipedia:<\/b> <br><b>Telefon:<\/b> ", "tessellate": -1, "extrude": 0, "visibility": -1 }, "geometry": { "type": "Point", "coordinates": [ 8.4689403, 49.4886314 ] } },
{ "type": "Feature", "properties": { "Name": "Stadtpunkte: Städtisches Krankenhaus und Volksküche R5", "description": "<b>Kategorie:<\/b> Information — Besucherinformation<br><b>Distanz:<\/b> 1414 m<br><b>Website:<\/b> <br><b>Wikipedia:<\/b> <br><b>Telefon:<\/b> ", "tessellate": -1, "extrude": 0, "visibility": -1 }, "geometry": { "type": "Point", "coordinates": [ 8.4719816, 49.4883351 ] } },
{ "type": "Feature", "properties": { "Name": "Stadtpunkte: Kapuzinerkloster N5", "description": "<b>Kategorie:<\/b> Information — Besucherinformation<br><b>Distanz:<\/b> 1048 m<br><b>Website:<\/b> <br><b>Wikipedia:<\/b> <br><b>Telefon:<\/b> ", "tessellate": -1, "extrude": 0, "visibility": -1 }, "geometry": { "type": "Point", "coordinates": [ 8.4688463, 49.485619 ] } },
{ "type": "Feature", "properties": { "Name": "Stadtpunkte: Wohnhaus von Karl Mathy O4,10", "description": "<b>Kategorie:<\/b> Information — Besucherinformation<br><b>Distanz:<\/b> 1096 m<br><b>Website:<\/b> <br><b>Wikipedia:<\/b> <br><b>Telefon:<\/b> ", "tessellate": -1, "extrude": 0, "visibility": -1 }, "geometry": { "type": "Point", "coordinates": [ 8.4690393, 49.4860325 ] } },
{ "type": "Feature", "properties": { "Name": "Stadtpunkte: Höhere Bürgerschule N 6,4a", "description": "<b>Kategorie:<\/b> Information — Besucherinformation<br><b>Distanz:<\/b> 1035 m<br><b>Website:<\/b> <br><b>Wikipedia:<\/b> <br><b>Telefon:<\/b> ", "tessellate": -1, "extrude": 0, "visibility": -1 }, "geometry": { "type": "Point", "coordinates": [ 8.4698769, 49.485217 ] } },
{ "type": "Feature", "properties": { "Name": "DB Information", "description": "<b>Kategorie:<\/b> Information — Besucherinformation<br><b>Distanz:<\/b> 2143 m<br><b>Website:<\/b> <br><b>Wikipedia:<\/b> <br><b>Telefon:<\/b> ", "tessellate": -1, "extrude": 0, "visibility": -1 }, "geometry": { "type": "Point", "coordinates": [ 8.4343555, 49.4778498 ] } },
{ "type": "Feature", "properties": { "Name": "rheinwalk", "description": "<b>Kategorie:<\/b> Information — Besucherinformation<br><b>Distanz:<\/b> 1251 m<br><b>Website:<\/b> <br><b>Wikipedia:<\/b> <br><b>Telefon:<\/b> ", "tessellate": -1, "extrude": 0, "visibility": -1 }, "geometry": { "type": "Point", "coordinates": [ 8.4595814, 49.4658659 ] } },
{ "type": "Feature", "properties": { "Name": "rheinwalk", "description": "<b>Kategorie:<\/b> Information — Besucherinformation<br><b>Distanz:<\/b>  468 m<br><b>Website:<\/b> <br><b>Wikipedia:<\/b> <br><b>Telefon:<\/b> ", "tessellate": -1, "extrude": 0, "visibility": -1 }, "geometry": { "type": "Point", "coordinates": [ 8.4607434, 49.4730829 ] } },
{ "type": "Feature", "properties": { "Name": "Feste Brücke über den Neckar", "description": "<b>Kategorie:<\/b> Information — Besucherinformation<br><b>Distanz:<\/b> 1934 m<br><b>Website:<\/b> <br><b>Wikipedia:<\/b> <br><b>Telefon:<\/b> ", "tessellate": -1, "extrude": 0, "visibility": -1 }, "geometry": { "type": "Point", "coordinates": [ 8.470963, 49.4935403 ] } },
{ "type": "Feature", "properties": { "Name": "Schiffsbrücke über den Neckar", "description": "<b>Kategorie:<\/b> Information — Besucherinformation<br><b>Distanz:<\/b> 1934 m<br><b>Website:<\/b> <br><b>Wikipedia:<\/b> <br><b>Telefon:<\/b> ", "tessellate": -1, "extrude": 0, "visibility": -1 }, "geometry": { "type": "Point", "coordinates": [ 8.4709647, 49.4935401 ] } },
{ "type": "Feature", "properties": { "Name": "Berhardushof K 1, 5", "description": "<b>Kategorie:<\/b> Information — Besucherinformation<br><b>Distanz:<\/b> 1766 m<br><b>Website:<\/b> <br><b>Wikipedia:<\/b> <br><b>Telefon:<\/b> ", "tessellate": -1, "extrude": 0, "visibility": -1 }, "geometry": { "type": "Point", "coordinates": [ 8.4700866, 49.492123 ] } },
{ "type": "Feature", "properties": { "Name": "Der Grüne Kreis e.V. Ludwigshafen", "description": "<b>Kategorie:<\/b> Information — Besucherinformation<br><b>Distanz:<\/b> 1444 m<br><b>Website:<\/b> <br><b>Wikipedia:<\/b> <br><b>Telefon:<\/b> ", "tessellate": -1, "extrude": 0, "visibility": -1 }, "geometry": { "type": "Point", "coordinates": [ 8.4566831, 49.4646543 ] } },
{ "type": "Feature", "properties": { "Name": "Fundservice", "description": "<b>Kategorie:<\/b> Information — Besucherinformation<br><b>Distanz:<\/b>  538 m<br><b>Website:<\/b> <br><b>Wikipedia:<\/b> <br><b>Telefon:<\/b> ", "tessellate": -1, "extrude": 0, "visibility": -1 }, "geometry": { "type": "Point", "coordinates": [ 8.469882, 49.4796167 ] } },
{ "type": "Feature", "properties": { "Name": "Service", "description": "<b>Kategorie:<\/b> Information — Besucherinformation<br><b>Distanz:<\/b>  519 m<br><b>Website:<\/b> <br><b>Wikipedia:<\/b> <br><b>Telefon:<\/b> ", "tessellate": -1, "extrude": 0, "visibility": -1 }, "geometry": { "type": "Point", "coordinates": [ 8.470109, 49.479084 ] } },
{ "type": "Feature", "properties": { "Name": "Service", "description": "<b>Kategorie:<\/b> Information — Besucherinformation<br><b>Distanz:<\/b>  502 m<br><b>Website:<\/b> <br><b>Wikipedia:<\/b> <br><b>Telefon:<\/b> ", "tessellate": -1, "extrude": 0, "visibility": -1 }, "geometry": { "type": "Point", "coordinates": [ 8.469948, 49.4789448 ] } },
{ "type": "Feature", "properties": { "Name": "Service", "description": "<b>Kategorie:<\/b> Information — Besucherinformation<br><b>Distanz:<\/b>  481 m<br><b>Website:<\/b> <br><b>Wikipedia:<\/b> <br><b>Telefon:<\/b> ", "tessellate": -1, "extrude": 0, "visibility": -1 }, "geometry": { "type": "Point", "coordinates": [ 8.4697562, 49.4787802 ] } },
{ "type": "Feature", "properties": { "Name": "Service", "description": "<b>Kategorie:<\/b> Information — Besucherinformation<br><b>Distanz:<\/b>  468 m<br><b>Website:<\/b> <br><b>Wikipedia:<\/b> <br><b>Telefon:<\/b> ", "tessellate": -1, "extrude": 0, "visibility": -1 }, "geometry": { "type": "Point", "coordinates": [ 8.4696426, 49.4786654 ] } },
{ "type": "Feature", "properties": { "Name": "Wolfgang Amadeus Mozart", "description": "<b>Kategorie:<\/b> Information — Besucherinformation<br><b>Distanz:<\/b>  719 m<br><b>Website:<\/b> <br><b>Wikipedia:<\/b> <br><b>Telefon:<\/b> ", "tessellate": -1, "extrude": 0, "visibility": -1 }, "geometry": { "type": "Point", "coordinates": [ 8.4619515, 49.4831059 ] } },
{ "type": "Feature", "properties": { "Name": "Schlosskirche vormalige Hofkapelle Chapelle Electorale", "description": "<b>Kategorie:<\/b> Information — Besucherinformation<br><b>Distanz:<\/b>  855 m<br><b>Website:<\/b> <br><b>Wikipedia:<\/b> <br><b>Telefon:<\/b> ", "tessellate": -1, "extrude": 0, "visibility": -1 }, "geometry": { "type": "Point", "coordinates": [ 8.4619455, 49.4843478 ] } },
{ "type": "Feature", "properties": { "Name": "Schlosskirche", "description": "<b>Kategorie:<\/b> Information — Besucherinformation<br><b>Distanz:<\/b>  849 m<br><b>Website:<\/b> <br><b>Wikipedia:<\/b> <br><b>Telefon:<\/b> ", "tessellate": -1, "extrude": 0, "visibility": -1 }, "geometry": { "type": "Point", "coordinates": [ 8.4618954, 49.4842905 ] } },
{ "type": "Feature", "properties": { "Name": "Stadtklimastation StO Schlossgartenstraße", "description": "<b>Kategorie:<\/b> Information — Besucherinformation<br><b>Distanz:<\/b>  557 m<br><b>Website:<\/b> <br><b>Wikipedia:<\/b> <br><b>Telefon:<\/b> ", "tessellate": -1, "extrude": 0, "visibility": -1 }, "geometry": { "type": "Point", "coordinates": [ 8.4672882, 49.481259 ] } },
{ "type": "Feature", "properties": { "Name": "Die Badische Automobilfabrik Heim & Co. OHG auf dem Lindenhof", "description": "<b>Kategorie:<\/b> Information — Besucherinformation<br><b>Distanz:<\/b>  476 m<br><b>Website:<\/b> <br><b>Wikipedia:<\/b> <br><b>Telefon:<\/b> ", "tessellate": -1, "extrude": 0, "visibility": -1 }, "geometry": { "type": "Point", "coordinates": [ 8.47044, 49.4765025 ] } },
{ "type": "Feature", "properties": { "Name": "Willkommen auf dem „Historischen Lehrpfad Lindenhof\"", "description": "<b>Kategorie:<\/b> Information — Besucherinformation<br><b>Distanz:<\/b>  411 m<br><b>Website:<\/b> <br><b>Wikipedia:<\/b> <br><b>Telefon:<\/b> ", "tessellate": -1, "extrude": 0, "visibility": -1 }, "geometry": { "type": "Point", "coordinates": [ 8.4695558, 49.4767797 ] } },
{ "type": "Feature", "properties": { "Name": "Hier wächst ein Tiny Forest", "description": "<b>Kategorie:<\/b> Information — Besucherinformation<br><b>Distanz:<\/b>  973 m<br><b>Website:<\/b> <br><b>Wikipedia:<\/b> <br><b>Telefon:<\/b> ", "tessellate": -1, "extrude": 0, "visibility": -1 }, "geometry": { "type": "Point", "coordinates": [ 8.4763577, 49.4735124 ] } },
{ "type": "Feature", "properties": { "Name": "1817 - Der erste Radweg der Welt", "description": "<b>Kategorie:<\/b> Information — Besucherinformation<br><b>Distanz:<\/b>  440 m<br><b>Website:<\/b> <br><b>Wikipedia:<\/b> <br><b>Telefon:<\/b> ", "tessellate": -1, "extrude": 0, "visibility": -1 }, "geometry": { "type": "Point", "coordinates": [ 8.461418, 49.4803836 ] } },
{ "type": "Feature", "properties": { "Name": "Skatepark", "description": "<b>Kategorie:<\/b> Information — Besucherinformation<br><b>Distanz:<\/b>  156 m<br><b>Website:<\/b> <br><b>Wikipedia:<\/b> <br><b>Telefon:<\/b> ", "tessellate": -1, "extrude": 0, "visibility": -1 }, "geometry": { "type": "Point", "coordinates": [ 8.4630752, 49.4780631 ] } },
{ "type": "Feature", "properties": { "Name": "Schloss Eichelsheim", "description": "<b>Kategorie:<\/b> Information — Besucherinformation<br><b>Distanz:<\/b>  325 m<br><b>Website:<\/b> <br><b>Wikipedia:<\/b> <br><b>Telefon:<\/b> ", "tessellate": -1, "extrude": 0, "visibility": -1 }, "geometry": { "type": "Point", "coordinates": [ 8.4641219, 49.4738464 ] } },
{ "type": "Feature", "properties": { "Name": "Ansicht der ehemaligen Zollburg Eichelsheim", "description": "<b>Kategorie:<\/b> Information — Besucherinformation<br><b>Distanz:<\/b>  351 m<br><b>Website:<\/b> <br><b>Wikipedia:<\/b> <br><b>Telefon:<\/b> ", "tessellate": -1, "extrude": 0, "visibility": -1 }, "geometry": { "type": "Point", "coordinates": [ 8.4645837, 49.4736359 ] } },
{ "type": "Feature", "properties": { "Name": "Willkommen auf dem „Historischen Lehrpfad Lindenhof\"", "description": "<b>Kategorie:<\/b> Information — Besucherinformation<br><b>Distanz:<\/b>  626 m<br><b>Website:<\/b> <br><b>Wikipedia:<\/b> <br><b>Telefon:<\/b> ", "tessellate": -1, "extrude": 0, "visibility": -1 }, "geometry": { "type": "Point", "coordinates": [ 8.4656752, 49.471251 ] } },
{ "type": "Feature", "properties": { "Name": "Der Rheingraben", "description": "<b>Kategorie:<\/b> Information — Besucherinformation<br><b>Distanz:<\/b> 1087 m<br><b>Website:<\/b> <br><b>Wikipedia:<\/b> <br><b>Telefon:<\/b> ", "tessellate": -1, "extrude": 0, "visibility": -1 }, "geometry": { "type": "Point", "coordinates": [ 8.4648094, 49.4670048 ] } },
{ "type": "Feature", "properties": { "Name": "Der Auenwald", "description": "<b>Kategorie:<\/b> Information — Besucherinformation<br><b>Distanz:<\/b> 1326 m<br><b>Website:<\/b> <br><b>Wikipedia:<\/b> <br><b>Telefon:<\/b> ", "tessellate": -1, "extrude": 0, "visibility": -1 }, "geometry": { "type": "Point", "coordinates": [ 8.463201, 49.4648483 ] } },
{ "type": "Feature", "properties": { "Name": "Die Diesterwegschule", "description": "<b>Kategorie:<\/b> Information — Besucherinformation<br><b>Distanz:<\/b>  777 m<br><b>Website:<\/b> <br><b>Wikipedia:<\/b> <br><b>Telefon:<\/b> ", "tessellate": -1, "extrude": 0, "visibility": -1 }, "geometry": { "type": "Point", "coordinates": [ 8.4698496, 49.4709579 ] } },
{ "type": "Feature", "properties": { "Name": "Lameygarten R 7", "description": "<b>Kategorie:<\/b> Information — Besucherinformation<br><b>Distanz:<\/b> 1349 m<br><b>Website:<\/b> <br><b>Wikipedia:<\/b> <br><b>Telefon:<\/b> ", "tessellate": -1, "extrude": 0, "visibility": -1 }, "geometry": { "type": "Point", "coordinates": [ 8.4735701, 49.4871243 ] } },
{ "type": "Feature", "properties": { "Name": "Das Floraheim", "description": "<b>Kategorie:<\/b> Information — Besucherinformation<br><b>Distanz:<\/b> 2467 m<br><b>Website:<\/b> <br><b>Wikipedia:<\/b> <br><b>Telefon:<\/b> ", "tessellate": -1, "extrude": 0, "visibility": -1 }, "geometry": { "type": "Point", "coordinates": [ 8.469237, 49.498681 ] } },
{ "type": "Feature", "properties": { "Name": "Barrikade nahe der „Rheinlust\"", "description": "<b>Kategorie:<\/b> Information — Besucherinformation<br><b>Distanz:<\/b>  981 m<br><b>Website:<\/b> <br><b>Wikipedia:<\/b> <br><b>Telefon:<\/b> ", "tessellate": -1, "extrude": 0, "visibility": -1 }, "geometry": { "type": "Point", "coordinates": [ 8.4555596, 49.483717 ] } },
{ "type": "Feature", "properties": { "Name": "Hochwassermarken", "description": "<b>Kategorie:<\/b> Information — Besucherinformation<br><b>Distanz:<\/b> 1036 m<br><b>Website:<\/b> <br><b>Wikipedia:<\/b> <br><b>Telefon:<\/b> ", "tessellate": -1, "extrude": 0, "visibility": -1 }, "geometry": { "type": "Point", "coordinates": [ 8.4550654, 49.4840925 ] } },
{ "type": "Feature", "properties": { "Name": "Rouven Laur", "description": "<b>Kategorie:<\/b> Information — Besucherinformation<br><b>Distanz:<\/b> 1458 m<br><b>Website:<\/b> <br><b>Wikipedia:<\/b> <br><b>Telefon:<\/b> ", "tessellate": -1, "extrude": 0, "visibility": -1 }, "geometry": { "type": "Point", "coordinates": [ 8.46743, 49.489672 ] } },
{ "type": "Feature", "properties": { "Name": "Paradeplatzbunker;Warenhäuser rund um den Paradenplatz", "description": "<b>Kategorie:<\/b> Information — Besucherinformation<br><b>Distanz:<\/b> 1204 m<br><b>Website:<\/b> <br><b>Wikipedia:<\/b> <br><b>Telefon:<\/b> ", "tessellate": -1, "extrude": 0, "visibility": -1 }, "geometry": { "type": "Point", "coordinates": [ 8.4665033, 49.4874583 ] } },
{ "type": "Feature", "properties": { "Name": "Postgeschichte im Quadrat O 2;Stadtpunkte", "description": "<b>Kategorie:<\/b> Information — Besucherinformation<br><b>Distanz:<\/b> 1203 m<br><b>Website:<\/b> <br><b>Wikipedia:<\/b> <br><b>Telefon:<\/b> ", "tessellate": -1, "extrude": 0, "visibility": -1 }, "geometry": { "type": "Point", "coordinates": [ 8.4665255, 49.4874485 ] } },
{ "type": "Feature", "properties": { "Name": "Bierbraukunst und Wirthäuser in P 2", "description": "<b>Kategorie:<\/b> Information — Besucherinformation<br><b>Distanz:<\/b> 1206 m<br><b>Website:<\/b> <br><b>Wikipedia:<\/b> <br><b>Telefon:<\/b> ", "tessellate": -1, "extrude": 0, "visibility": -1 }, "geometry": { "type": "Point", "coordinates": [ 8.468026, 49.4872731 ] } },
{ "type": "Feature", "properties": { "Name": "Ehrenbürger Fürst Otto von Bismarck", "description": "<b>Kategorie:<\/b> Information — Besucherinformation<br><b>Distanz:<\/b>  784 m<br><b>Website:<\/b> <br><b>Wikipedia:<\/b> <br><b>Telefon:<\/b> ", "tessellate": -1, "extrude": 0, "visibility": -1 }, "geometry": { "type": "Point", "coordinates": [ 8.4728869, 49.4806785 ] } },
{ "type": "Feature", "properties": { "Name": "„Judenhaus\" Große Merzelstraße 7", "description": "<b>Kategorie:<\/b> Information — Besucherinformation<br><b>Distanz:<\/b>  788 m<br><b>Website:<\/b> <br><b>Wikipedia:<\/b> <br><b>Telefon:<\/b> ", "tessellate": -1, "extrude": 0, "visibility": -1 }, "geometry": { "type": "Point", "coordinates": [ 8.473042, 49.4805944 ] } },
{ "type": "Feature", "properties": { "Name": "Max-Hachenburg-Schule", "description": "<b>Kategorie:<\/b> Information — Besucherinformation<br><b>Distanz:<\/b>  962 m<br><b>Website:<\/b> <br><b>Wikipedia:<\/b> <br><b>Telefon:<\/b> ", "tessellate": -1, "extrude": 0, "visibility": -1 }, "geometry": { "type": "Point", "coordinates": [ 8.4741306, 49.4822756 ] } },
{ "type": "Feature", "properties": { "Name": "Kunsthalle", "description": "<b>Kategorie:<\/b> Information — Besucherinformation<br><b>Distanz:<\/b> 1049 m<br><b>Website:<\/b> <br><b>Wikipedia:<\/b> <br><b>Telefon:<\/b> ", "tessellate": -1, "extrude": 0, "visibility": -1 }, "geometry": { "type": "Point", "coordinates": [ 8.4747811, 49.4829833 ] } },
{ "type": "Feature", "properties": { "Name": "Ankerstein - Feste Verankerung für Fliegende Brücke", "description": "<b>Kategorie:<\/b> Information — Besucherinformation<br><b>Distanz:<\/b>  975 m<br><b>Website:<\/b> <br><b>Wikipedia:<\/b> <br><b>Telefon:<\/b> ", "tessellate": -1, "extrude": 0, "visibility": -1 }, "geometry": { "type": "Point", "coordinates": [ 8.4529415, 49.4818627 ] } },
{ "type": "Feature", "properties": { "Name": "Die Rote Bank", "description": "<b>Kategorie:<\/b> Information — Besucherinformation<br><b>Distanz:<\/b>  937 m<br><b>Website:<\/b> <br><b>Wikipedia:<\/b> <br><b>Telefon:<\/b> ", "tessellate": -1, "extrude": 0, "visibility": -1 }, "geometry": { "type": "Point", "coordinates": [ 8.4532757, 49.4815761 ] } },
{ "type": "Feature", "properties": { "Name": "Ernst-Bloch-Zentrum", "description": "<b>Kategorie:<\/b> Information — Besucherinformation<br><b>Distanz:<\/b>  639 m<br><b>Website:<\/b> <br><b>Wikipedia:<\/b> <br><b>Telefon:<\/b> ", "tessellate": -1, "extrude": 0, "visibility": -1 }, "geometry": { "type": "Point", "coordinates": [ 8.4558947, 49.4791953 ] } },
{ "type": "Feature", "properties": { "Name": "Willkommen im Bewegungsparcours Ludwigshafen! Hier geht's los", "description": "<b>Kategorie:<\/b> Information — Besucherinformation<br><b>Distanz:<\/b>  404 m<br><b>Website:<\/b> <br><b>Wikipedia:<\/b> <br><b>Telefon:<\/b> ", "tessellate": -1, "extrude": 0, "visibility": -1 }, "geometry": { "type": "Point", "coordinates": [ 8.4584329, 49.476013 ] } },
{ "type": "Feature", "properties": { "Name": "Über 130 Jahre Halberg", "description": "<b>Kategorie:<\/b> Information — Besucherinformation<br><b>Distanz:<\/b>  485 m<br><b>Website:<\/b> <br><b>Wikipedia:<\/b> <br><b>Telefon:<\/b> ", "tessellate": -1, "extrude": 0, "visibility": -1 }, "geometry": { "type": "Point", "coordinates": [ 8.4573052, 49.4775609 ] } },