{
"type": "FeatureCollection",
"name": "merged",
"features": [
{ "type": "Feature", "properties": { "Name": "JH 258 — Jugendherberge Passau", "description": "<b>JH Nr:</b> 258<br><b>Name:</b> Jugendherberge Passau<br><b>Ort:</b> Passau", "tessellate": -1, "extrude": 0, "visibility": -1 }, "geometry": { "type": "Point", "coordinates": [ 13.4707785, 48.5774384 ] } },
{ "type": "Feature", "properties": { "Name": "Kultursalon", "description": "<b>Kategorie:<\/b> Bildungsinfrastruktur — Kunstzentrum<br><b>Distanz:<\/b> 1387 m<br><b>Website:<\/b> https:\/\/stwno.de\/de\/kultur\/kultur-in-passau<br><b>Wikipedia:<\/b> <br><b>Telefon:<\/b> ", "tessellate": -1, "extrude": 0, "visibility": -1 }, "geometry": { "type": "Point", "coordinates": [ 13.4540243, 48.5718024 ] } },
{ "type": "Feature", "properties": { "Name": "St. Severin", "description": "<b>Kategorie:<\/b> Bildungsinfrastruktur — Schule<br><b>Distanz:<\/b> 1874 m<br><b>Website:<\/b> <br><b>Wikipedia:<\/b> <br><b>Telefon:<\/b> ", "tessellate": -1, "extrude": 0, "visibility": -1 }, "geometry": { "type": "Point", "coordinates": [ 13.485048, 48.5913635 ] } },
{ "type": "Feature", "properties": { "Name": "Redoute", "description": "<b>Kategorie:<\/b> Bildungsinfrastruktur — Kunstzentrum<br><b>Distanz:<\/b>  593 m<br><b>Website:<\/b> <br><b>Wikipedia:<\/b> <br><b>Telefon:<\/b> ", "tessellate": -1, "extrude": 0, "visibility": -1 }, "geometry": { "type": "Point", "coordinates": [ 13.4651223, 48.5736527 ] } },
{ "type": "Feature", "properties": { "Name": "Scharfrichterhaus \"Theater\"", "description": "<b>Kategorie:<\/b> Bildungsinfrastruktur — Kunstzentrum<br><b>Distanz:<\/b>  312 m<br><b>Website:<\/b> <br><b>Wikipedia:<\/b> <br><b>Telefon:<\/b> ", "tessellate": -1, "extrude": 0, "visibility": -1 }, "geometry": { "type": "Point", "coordinates": [ 13.4693137, 48.5748064 ] } },
{ "type": "Feature", "properties": { "Name": "Kulturtransport Passau e.V.", "description": "<b>Kategorie:<\/b> Bildungsinfrastruktur — Kunstzentrum<br><b>Distanz:<\/b> 1950 m<br><b>Website:<\/b> https:\/\/uni-passau.de\/kulturtransport<br><b>Wikipedia:<\/b> <br><b>Telefon:<\/b> ", "tessellate": -1, "extrude": 0, "visibility": -1 }, "geometry": { "type": "Point", "coordinates": [ 13.4503874, 48.5663122 ] } },
{ "type": "Feature", "properties": { "Name": "Zentrum für ambulante Kultur und Kommunikation", "description": "<b>Kategorie:<\/b> Bildungsinfrastruktur — Gemeindezentrum<br><b>Distanz:<\/b> 1460 m<br><b>Website:<\/b> https:\/\/zakk-passau.org\/<br><b>Wikipedia:<\/b> <br><b>Telefon:<\/b> ", "tessellate": -1, "extrude": 0, "visibility": -1 }, "geometry": { "type": "Point", "coordinates": [ 13.4528828, 48.5718752 ] } },
{ "type": "Feature", "properties": { "Name": "HK16", "description": "<b>Kategorie:<\/b> Bildungsinfrastruktur — Universität<br><b>Distanz:<\/b> 1317 m<br><b>Website:<\/b> <br><b>Wikipedia:<\/b> <br><b>Telefon:<\/b> ", "tessellate": -1, "extrude": 0, "visibility": -1 }, "geometry": { "type": "Point", "coordinates": [ 13.4546795, 48.5723615 ] } },
{ "type": "Feature", "properties": { "Name": "HK14", "description": "<b>Kategorie:<\/b> Bildungsinfrastruktur — Universität<br><b>Distanz:<\/b> 1301 m<br><b>Website:<\/b> <br><b>Wikipedia:<\/b> <br><b>Telefon:<\/b> ", "tessellate": -1, "extrude": 0, "visibility": -1 }, "geometry": { "type": "Point", "coordinates": [ 13.454813, 48.5724952 ] } },
{ "type": "Feature", "properties": { "Name": "Oasis", "description": "<b>Kategorie:<\/b> Freizeit & Sport — Sportzentrum<br><b>Distanz:<\/b> 1148 m<br><b>Website:<\/b> http:\/\/oasis-passau.de\/<br><b>Wikipedia:<\/b> <br><b>Telefon:<\/b> +49 851 988 31 13 0", "tessellate": -1, "extrude": 0, "visibility": -1 }, "geometry": { "type": "Point", "coordinates": [ 13.457132, 48.5724983 ] } },
{ "type": "Feature", "properties": { "Name": "Kung Fu Akademie", "description": "<b>Kategorie:<\/b> Freizeit & Sport — Sportzentrum<br><b>Distanz:<\/b>  348 m<br><b>Website:<\/b> http:\/\/chi-point.de<br><b>Wikipedia:<\/b> <br><b>Telefon:<\/b> ", "tessellate": -1, "extrude": 0, "visibility": -1 }, "geometry": { "type": "Point", "coordinates": [ 13.4702432, 48.5743293 ] } },
{ "type": "Feature", "properties": { "Name": "L1", "description": "<b>Kategorie:<\/b> Freizeit & Sport — Yachthafen<br><b>Distanz:<\/b> 2497 m<br><b>Website:<\/b> <br><b>Wikipedia:<\/b> <br><b>Telefon:<\/b> ", "tessellate": -1, "extrude": 0, "visibility": -1 }, "geometry": { "type": "Point", "coordinates": [ 13.5022105, 48.5857123 ] } },
{ "type": "Feature", "properties": { "Name": "L4", "description": "<b>Kategorie:<\/b> Freizeit & Sport — Yachthafen<br><b>Distanz:<\/b> 2314 m<br><b>Website:<\/b> <br><b>Wikipedia:<\/b> <br><b>Telefon:<\/b> ", "tessellate": -1, "extrude": 0, "visibility": -1 }, "geometry": { "type": "Point", "coordinates": [ 13.5007727, 48.5834637 ] } },
{ "type": "Feature", "properties": { "Name": "L2", "description": "<b>Kategorie:<\/b> Freizeit & Sport — Yachthafen<br><b>Distanz:<\/b> 2449 m<br><b>Website:<\/b> <br><b>Wikipedia:<\/b> <br><b>Telefon:<\/b> ", "tessellate": -1, "extrude": 0, "visibility": -1 }, "geometry": { "type": "Point", "coordinates": [ 13.5018348, 48.5851386 ] } },
{ "type": "Feature", "properties": { "Name": "L3", "description": "<b>Kategorie:<\/b> Freizeit & Sport — Yachthafen<br><b>Distanz:<\/b> 2390 m<br><b>Website:<\/b> <br><b>Wikipedia:<\/b> <br><b>Telefon:<\/b> ", "tessellate": -1, "extrude": 0, "visibility": -1 }, "geometry": { "type": "Point", "coordinates": [ 13.5013735, 48.5844218 ] } },
{ "type": "Feature", "properties": { "Name": "Tourist-Information Rathausplatz", "description": "<b>Kategorie:<\/b> Information — Besucherinformation<br><b>Distanz:<\/b>  305 m<br><b>Website:<\/b> https:\/\/www.passau.de\/Tourismus.aspx<br><b>Wikipedia:<\/b> <br><b>Telefon:<\/b> +49 851 95598 0", "tessellate": -1, "extrude": 0, "visibility": -1 }, "geometry": { "type": "Point", "coordinates": [ 13.4685749, 48.5751231 ] } },
{ "type": "Feature", "properties": { "Name": "Universität Passau", "description": "<b>Kategorie:<\/b> Information — Besucherinformation<br><b>Distanz:<\/b> 1214 m<br><b>Website:<\/b> <br><b>Wikipedia:<\/b> <br><b>Telefon:<\/b> ", "tessellate": -1, "extrude": 0, "visibility": -1 }, "geometry": { "type": "Point", "coordinates": [ 13.4584451, 48.570223 ] } },
{ "type": "Feature", "properties": { "Name": "Das dunkle Wasser der Ilz", "description": "<b>Kategorie:<\/b> Information — Besucherinformation<br><b>Distanz:<\/b> 2412 m<br><b>Website:<\/b> <br><b>Wikipedia:<\/b> <br><b>Telefon:<\/b> ", "tessellate": -1, "extrude": 0, "visibility": -1 }, "geometry": { "type": "Point", "coordinates": [ 13.4612285, 48.5981632 ] } },
{ "type": "Feature", "properties": { "Name": "Die Ilz - ein besonderer Fluss", "description": "<b>Kategorie:<\/b> Information — Besucherinformation<br><b>Distanz:<\/b> 2252 m<br><b>Website:<\/b> <br><b>Wikipedia:<\/b> <br><b>Telefon:<\/b> ", "tessellate": -1, "extrude": 0, "visibility": -1 }, "geometry": { "type": "Point", "coordinates": [ 13.4632617, 48.5970439 ] } },
{ "type": "Feature", "properties": { "Name": "Holztrift", "description": "<b>Kategorie:<\/b> Information — Besucherinformation<br><b>Distanz:<\/b> 2445 m<br><b>Website:<\/b> <br><b>Wikipedia:<\/b> <br><b>Telefon:<\/b> ", "tessellate": -1, "extrude": 0, "visibility": -1 }, "geometry": { "type": "Point", "coordinates": [ 13.4572938, 48.5974963 ] } },
{ "type": "Feature", "properties": { "Name": "Halser Ilzschleifen", "description": "<b>Kategorie:<\/b> Information — Besucherinformation<br><b>Distanz:<\/b> 2133 m<br><b>Website:<\/b> <br><b>Wikipedia:<\/b> <br><b>Telefon:<\/b> ", "tessellate": -1, "extrude": 0, "visibility": -1 }, "geometry": { "type": "Point", "coordinates": [ 13.462307, 48.5957631 ] } },
{ "type": "Feature", "properties": { "Name": "Die doppelte Ilzschleife", "description": "<b>Kategorie:<\/b> Information — Besucherinformation<br><b>Distanz:<\/b> 1690 m<br><b>Website:<\/b> <br><b>Wikipedia:<\/b> <br><b>Telefon:<\/b> ", "tessellate": -1, "extrude": 0, "visibility": -1 }, "geometry": { "type": "Point", "coordinates": [ 13.4590858, 48.5904914 ] } },
{ "type": "Feature", "properties": { "Name": "Goldsteig-Wanderweg", "description": "<b>Kategorie:<\/b> Information — Besucherinformation<br><b>Distanz:<\/b>  293 m<br><b>Website:<\/b> <br><b>Wikipedia:<\/b> <br><b>Telefon:<\/b> ", "tessellate": -1, "extrude": 0, "visibility": -1 }, "geometry": { "type": "Point", "coordinates": [ 13.4720189, 48.5799372 ] } },
{ "type": "Feature", "properties": { "Name": "Rastplatz Oberhaus", "description": "<b>Kategorie:<\/b> Information — Besucherinformation<br><b>Distanz:<\/b>  180 m<br><b>Website:<\/b> <br><b>Wikipedia:<\/b> <br><b>Telefon:<\/b> ", "tessellate": -1, "extrude": 0, "visibility": -1 }, "geometry": { "type": "Point", "coordinates": [ 13.4684415, 48.577899 ] } },
{ "type": "Feature", "properties": { "Name": "Bschütt-Park", "description": "<b>Kategorie:<\/b> Information — Besucherinformation<br><b>Distanz:<\/b>  374 m<br><b>Website:<\/b> <br><b>Wikipedia:<\/b> <br><b>Telefon:<\/b> ", "tessellate": -1, "extrude": 0, "visibility": -1 }, "geometry": { "type": "Point", "coordinates": [ 13.4747599, 48.5795138 ] } },
{ "type": "Feature", "properties": { "Name": "Gampertsteig", "description": "<b>Kategorie:<\/b> Information — Besucherinformation<br><b>Distanz:<\/b>  287 m<br><b>Website:<\/b> <br><b>Wikipedia:<\/b> <br><b>Telefon:<\/b> ", "tessellate": -1, "extrude": 0, "visibility": -1 }, "geometry": { "type": "Point", "coordinates": [ 13.4669451, 48.5770196 ] } },
{ "type": "Feature", "properties": { "Name": "Gampertsteig-Serpentinenweg nach Oberhaus", "description": "<b>Kategorie:<\/b> Information — Besucherinformation<br><b>Distanz:<\/b>  285 m<br><b>Website:<\/b> <br><b>Wikipedia:<\/b> <br><b>Telefon:<\/b> ", "tessellate": -1, "extrude": 0, "visibility": -1 }, "geometry": { "type": "Point", "coordinates": [ 13.4669691, 48.577041 ] } },
{ "type": "Feature", "properties": { "Name": "Durch ein Vermächtnis des .......", "description": "<b>Kategorie:<\/b> Information — Besucherinformation<br><b>Distanz:<\/b>  287 m<br><b>Website:<\/b> <br><b>Wikipedia:<\/b> <br><b>Telefon:<\/b> ", "tessellate": -1, "extrude": 0, "visibility": -1 }, "geometry": { "type": "Point", "coordinates": [ 13.4669427, 48.5770426 ] } },
{ "type": "Feature", "properties": { "Name": "Ludwigssteig", "description": "<b>Kategorie:<\/b> Information — Besucherinformation<br><b>Distanz:<\/b>  143 m<br><b>Website:<\/b> <br><b>Wikipedia:<\/b> <br><b>Telefon:<\/b> ", "tessellate": -1, "extrude": 0, "visibility": -1 }, "geometry": { "type": "Point", "coordinates": [ 13.471786, 48.5763445 ] } },
{ "type": "Feature", "properties": { "Name": "Die Trift auf der Ilz", "description": "<b>Kategorie:<\/b> Information — Besucherinformation<br><b>Distanz:<\/b> 2564 m<br><b>Website:<\/b> <br><b>Wikipedia:<\/b> <br><b>Telefon:<\/b> ", "tessellate": -1, "extrude": 0, "visibility": -1 }, "geometry": { "type": "Point", "coordinates": [ 13.4548955, 48.5979231 ] } },
{ "type": "Feature", "properties": { "Name": "Naturschutzgebiet Halser Ilzschleifen", "description": "<b>Kategorie:<\/b> Information — Besucherinformation<br><b>Distanz:<\/b> 2559 m<br><b>Website:<\/b> <br><b>Wikipedia:<\/b> <br><b>Telefon:<\/b> ", "tessellate": -1, "extrude": 0, "visibility": -1 }, "geometry": { "type": "Point", "coordinates": [ 13.4548876, 48.5978689 ] } },
{ "type": "Feature", "properties": { "Name": "Hals", "description": "<b>Kategorie:<\/b> Information — Besucherinformation<br><b>Distanz:<\/b> 1612 m<br><b>Website:<\/b> <br><b>Wikipedia:<\/b> <br><b>Telefon:<\/b> ", "tessellate": -1, "extrude": 0, "visibility": -1 }, "geometry": { "type": "Point", "coordinates": [ 13.460788, 48.5903189 ] } },
{ "type": "Feature", "properties": { "Name": "Goldsteig", "description": "<b>Kategorie:<\/b> Information — Besucherinformation<br><b>Distanz:<\/b>  861 m<br><b>Website:<\/b> <br><b>Wikipedia:<\/b> <br><b>Telefon:<\/b> ", "tessellate": -1, "extrude": 0, "visibility": -1 }, "geometry": { "type": "Point", "coordinates": [ 13.4623985, 48.5828218 ] } },
{ "type": "Feature", "properties": { "Name": "Fußwegschild", "description": "<b>Kategorie:<\/b> Information — Besucherinformation<br><b>Distanz:<\/b> 1031 m<br><b>Website:<\/b> <br><b>Wikipedia:<\/b> <br><b>Telefon:<\/b> ", "tessellate": -1, "extrude": 0, "visibility": -1 }, "geometry": { "type": "Point", "coordinates": [ 13.463482, 48.5695388 ] } },
{ "type": "Feature", "properties": { "Name": "Römer Museum - Öffnungszeiten", "description": "<b>Kategorie:<\/b> Information — Besucherinformation<br><b>Distanz:<\/b> 1063 m<br><b>Website:<\/b> <br><b>Wikipedia:<\/b> <br><b>Telefon:<\/b> ", "tessellate": -1, "extrude": 0, "visibility": -1 }, "geometry": { "type": "Point", "coordinates": [ 13.4624772, 48.5696401 ] } },
{ "type": "Feature", "properties": { "Name": "Info Passau", "description": "<b>Kategorie:<\/b> Information — Besucherinformation<br><b>Distanz:<\/b>  295 m<br><b>Website:<\/b> <br><b>Wikipedia:<\/b> <br><b>Telefon:<\/b> ", "tessellate": -1, "extrude": 0, "visibility": -1 }, "geometry": { "type": "Point", "coordinates": [ 13.4686187, 48.5752082 ] } },
{ "type": "Feature", "properties": { "Name": "Passauer Brombeere", "description": "<b>Kategorie:<\/b> Information — Besucherinformation<br><b>Distanz:<\/b>  728 m<br><b>Website:<\/b> <br><b>Wikipedia:<\/b> <br><b>Telefon:<\/b> ", "tessellate": -1, "extrude": 0, "visibility": -1 }, "geometry": { "type": "Point", "coordinates": [ 13.4610746, 48.5785784 ] } },
{ "type": "Feature", "properties": { "Name": "Halser Ilzschleifen", "description": "<b>Kategorie:<\/b> Information — Besucherinformation<br><b>Distanz:<\/b> 1715 m<br><b>Website:<\/b> <br><b>Wikipedia:<\/b> <br><b>Telefon:<\/b> ", "tessellate": -1, "extrude": 0, "visibility": -1 }, "geometry": { "type": "Point", "coordinates": [ 13.4577042, 48.5901737 ] } },
{ "type": "Feature", "properties": { "Name": "Pflanzen-Artenschutz auf Oberhaus", "description": "<b>Kategorie:<\/b> Information — Besucherinformation<br><b>Distanz:<\/b>  159 m<br><b>Website:<\/b> <br><b>Wikipedia:<\/b> <br><b>Telefon:<\/b> ", "tessellate": -1, "extrude": 0, "visibility": -1 }, "geometry": { "type": "Point", "coordinates": [ 13.4689358, 48.5781737 ] } },
{ "type": "Feature", "properties": { "Name": "Pflanzen-Artenschutz auf Oberhaus", "description": "<b>Kategorie:<\/b> Information — Besucherinformation<br><b>Distanz:<\/b>  154 m<br><b>Website:<\/b> <br><b>Wikipedia:<\/b> <br><b>Telefon:<\/b> ", "tessellate": -1, "extrude": 0, "visibility": -1 }, "geometry": { "type": "Point", "coordinates": [ 13.4691893, 48.5783377 ] } },
{ "type": "Feature", "properties": { "Name": "Naturschutzvorhaben \"Erdbrüst-Feuchtgebiet\"", "description": "<b>Kategorie:<\/b> Information — Besucherinformation<br><b>Distanz:<\/b> 2629 m<br><b>Website:<\/b> <br><b>Wikipedia:<\/b> <br><b>Telefon:<\/b> ", "tessellate": -1, "extrude": 0, "visibility": -1 }, "geometry": { "type": "Point", "coordinates": [ 13.4956716, 48.594327 ] } },
{ "type": "Feature", "properties": { "Name": "Naturschutzvorhaben \"Erdbrüst-Feuchtgebiet\"", "description": "<b>Kategorie:<\/b> Information — Besucherinformation<br><b>Distanz:<\/b> 2609 m<br><b>Website:<\/b> <br><b>Wikipedia:<\/b> <br><b>Telefon:<\/b> ", "tessellate": -1, "extrude": 0, "visibility": -1 }, "geometry": { "type": "Point", "coordinates": [ 13.4954064, 48.5942457 ] } },
{ "type": "Feature", "properties": { "Name": "Grubweg - Breiteichweg", "description": "<b>Kategorie:<\/b> Information — Besucherinformation<br><b>Distanz:<\/b> 1928 m<br><b>Website:<\/b> <br><b>Wikipedia:<\/b> <br><b>Telefon:<\/b> ", "tessellate": -1, "extrude": 0, "visibility": -1 }, "geometry": { "type": "Point", "coordinates": [ 13.4906898, 48.5886378 ] } },
{ "type": "Feature", "properties": { "Name": "Passau - Am Saumertor", "description": "<b>Kategorie:<\/b> Information — Besucherinformation<br><b>Distanz:<\/b>  430 m<br><b>Website:<\/b> <br><b>Wikipedia:<\/b> <br><b>Telefon:<\/b> ", "tessellate": -1, "extrude": 0, "visibility": -1 }, "geometry": { "type": "Point", "coordinates": [ 13.476598, 48.5772219 ] } },
{ "type": "Feature", "properties": { "Name": "Der Passauer Tölpel", "description": "<b>Kategorie:<\/b> Information — Besucherinformation<br><b>Distanz:<\/b>  512 m<br><b>Website:<\/b> <br><b>Wikipedia:<\/b> <br><b>Telefon:<\/b> ", "tessellate": -1, "extrude": 0, "visibility": -1 }, "geometry": { "type": "Point", "coordinates": [ 13.4650772, 48.5748176 ] } },
{ "type": "Feature", "properties": { "Name": "Ilzstadt", "description": "<b>Kategorie:<\/b> Information — Besucherinformation<br><b>Distanz:<\/b>  523 m<br><b>Website:<\/b> <br><b>Wikipedia:<\/b> <br><b>Telefon:<\/b> ", "tessellate": -1, "extrude": 0, "visibility": -1 }, "geometry": { "type": "Point", "coordinates": [ 13.4772474, 48.5755215 ] } },
{ "type": "Feature", "properties": { "Name": "Kindergarten St. Bartholomäus", "description": "<b>Kategorie:<\/b> Kinder & Jugend — Kindergarten<br><b>Distanz:<\/b> 1321 m<br><b>Website:<\/b> <br><b>Wikipedia:<\/b> <br><b>Telefon:<\/b> ", "tessellate": -1, "extrude": 0, "visibility": -1 }, "geometry": { "type": "Point", "coordinates": [ 13.4842356, 48.5852551 ] } },
{ "type": "Feature", "properties": { "Name": "Kindergarten St. Elisabeth", "description": "<b>Kategorie:<\/b> Kinder & Jugend — Kindergarten<br><b>Distanz:<\/b> 2477 m<br><b>Website:<\/b> <br><b>Wikipedia:<\/b> <br><b>Telefon:<\/b> ", "tessellate": -1, "extrude": 0, "visibility": -1 }, "geometry": { "type": "Point", "coordinates": [ 13.4385423, 48.5713071 ] } },
{ "type": "Feature", "properties": { "Name": "RömerMuseum Kastell Boiotro - Passau", "description": "<b>Kategorie:<\/b> Kultur & Geschichte — Museum<br><b>Distanz:<\/b> 1058 m<br><b>Website:<\/b> http:\/\/www.stadtarchaeologie.de\/museum\/<br><b>Wikipedia:<\/b> de:Römermuseum Kastell Boiotro<br><b>Telefon:<\/b> ", "tessellate": -1, "extrude": 0, "visibility": -1 }, "geometry": { "type": "Point", "coordinates": [ 13.462092, 48.5698769 ] } },
{ "type": "Feature", "properties": { "Name": "Oberhausmuseum", "description": "<b>Kategorie:<\/b> Kultur & Geschichte — Museum<br><b>Distanz:<\/b>    0 m<br><b>Website:<\/b> <br><b>Wikipedia:<\/b> de:Oberhausmuseum<br><b>Telefon:<\/b> ", "tessellate": -1, "extrude": 0, "visibility": -1 }, "geometry": { "type": "Point", "coordinates": [ 13.4707785, 48.5774384 ] } },
{ "type": "Feature", "properties": { "Name": "Stadttheater Passau", "description": "<b>Kategorie:<\/b> Kultur & Geschichte — Theater<br><b>Distanz:<\/b>  594 m<br><b>Website:<\/b> https:\/\/www.landestheater-niederbayern.de\/content\/stadttheater-passau<br><b>Wikipedia:<\/b> de:Stadttheater Passau<br><b>Telefon:<\/b> ", "tessellate": -1, "extrude": 0, "visibility": -1 }, "geometry": { "type": "Point", "coordinates": [ 13.4650203, 48.5737183 ] } },
{ "type": "Feature", "properties": { "Name": "Passauer Glasmuseum", "description": "<b>Kategorie:<\/b> Kultur & Geschichte — Museum<br><b>Distanz:<\/b>  313 m<br><b>Website:<\/b> https:\/\/www.glasmuseum.de\/<br><b>Wikipedia:<\/b> de:Passauer Glasmuseum<br><b>Telefon:<\/b> ", "tessellate": -1, "extrude": 0, "visibility": -1 }, "geometry": { "type": "Point", "coordinates": [ 13.4684232, 48.5751045 ] } },
{ "type": "Feature", "properties": { "Name": "Film Theater Metropolis", "description": "<b>Kategorie:<\/b> Kultur & Geschichte — Kino<br><b>Distanz:<\/b> 1447 m<br><b>Website:<\/b> https:\/\/www.cineplex.de\/kino\/tree\/node1727\/city41\/<br><b>Wikipedia:<\/b> <br><b>Telefon:<\/b> +49 851 9883550", "tessellate": -1, "extrude": 0, "visibility": -1 }, "geometry": { "type": "Point", "coordinates": [ 13.4533678, 48.5714815 ] } },
{ "type": "Feature", "properties": { "Name": "Museum Moderner Kunst", "description": "<b>Kategorie:<\/b> Kultur & Geschichte — Museum<br><b>Distanz:<\/b>  352 m<br><b>Website:<\/b> https:\/\/www.mmk-passau.de\/<br><b>Wikipedia:<\/b> de:Museum Moderner Kunst (Passau)<br><b>Telefon:<\/b> ", "tessellate": -1, "extrude": 0, "visibility": -1 }, "geometry": { "type": "Point", "coordinates": [ 13.4728006, 48.5745727 ] } },
{ "type": "Feature", "properties": { "Name": "Merkur", "description": "<b>Kategorie:<\/b> Kultur & Geschichte — Attraktion<br><b>Distanz:<\/b>  566 m<br><b>Website:<\/b> <br><b>Wikipedia:<\/b> <br><b>Telefon:<\/b> ", "tessellate": -1, "extrude": 0, "visibility": -1 }, "geometry": { "type": "Point", "coordinates": [ 13.4755999, 48.573485 ] } },
{ "type": "Feature", "properties": { "Name": "Erde", "description": "<b>Kategorie:<\/b> Kultur & Geschichte — Attraktion<br><b>Distanz:<\/b>  527 m<br><b>Website:<\/b> <br><b>Wikipedia:<\/b> <br><b>Telefon:<\/b> ", "tessellate": -1, "extrude": 0, "visibility": -1 }, "geometry": { "type": "Point", "coordinates": [ 13.474531, 48.5734146 ] } },
{ "type": "Feature", "properties": { "Name": "Venus", "description": "<b>Kategorie:<\/b> Kultur & Geschichte — Attraktion<br><b>Distanz:<\/b>  543 m<br><b>Website:<\/b> <br><b>Wikipedia:<\/b> <br><b>Telefon:<\/b> ", "tessellate": -1, "extrude": 0, "visibility": -1 }, "geometry": { "type": "Point", "coordinates": [ 13.4749807, 48.5734372 ] } },
{ "type": "Feature", "properties": { "Name": "Ottfried Fischers Hochwasser-Museum", "description": "<b>Kategorie:<\/b> Kultur & Geschichte — Museum<br><b>Distanz:<\/b>  666 m<br><b>Website:<\/b> <br><b>Wikipedia:<\/b> <br><b>Telefon:<\/b> ", "tessellate": -1, "extrude": 0, "visibility": -1 }, "geometry": { "type": "Point", "coordinates": [ 13.4636416, 48.5737773 ] } },
{ "type": "Feature", "properties": { "Name": "Jupiter", "description": "<b>Kategorie:<\/b> Kultur & Geschichte — Attraktion<br><b>Distanz:<\/b>  560 m<br><b>Website:<\/b> <br><b>Wikipedia:<\/b> <br><b>Telefon:<\/b> ", "tessellate": -1, "extrude": 0, "visibility": -1 }, "geometry": { "type": "Point", "coordinates": [ 13.4660768, 48.5734958 ] } },
{ "type": "Feature", "properties": { "Name": "Sonne", "description": "<b>Kategorie:<\/b> Kultur & Geschichte — Attraktion<br><b>Distanz:<\/b>  599 m<br><b>Website:<\/b> <br><b>Wikipedia:<\/b> <br><b>Telefon:<\/b> ", "tessellate": -1, "extrude": 0, "visibility": -1 }, "geometry": { "type": "Point", "coordinates": [ 13.4764371, 48.5735839 ] } },
{ "type": "Feature", "properties": { "Name": "Asteroid \"Passau\"", "description": "<b>Kategorie:<\/b> Kultur & Geschichte — Attraktion<br><b>Distanz:<\/b>  470 m<br><b>Website:<\/b> <br><b>Wikipedia:<\/b> <br><b>Telefon:<\/b> ", "tessellate": -1, "extrude": 0, "visibility": -1 }, "geometry": { "type": "Point", "coordinates": [ 13.4714307, 48.5732367 ] } },
{ "type": "Feature", "properties": { "Name": "Mars", "description": "<b>Kategorie:<\/b> Kultur & Geschichte — Attraktion<br><b>Distanz:<\/b>  490 m<br><b>Website:<\/b> <br><b>Wikipedia:<\/b> <br><b>Telefon:<\/b> ", "tessellate": -1, "extrude": 0, "visibility": -1 }, "geometry": { "type": "Point", "coordinates": [ 13.4734624, 48.5734113 ] } },
{ "type": "Feature", "properties": { "Name": "Mittelalterliches Foltermuseum", "description": "<b>Kategorie:<\/b> Kultur & Geschichte — Museum<br><b>Distanz:<\/b>  919 m<br><b>Website:<\/b> <br><b>Wikipedia:<\/b> <br><b>Telefon:<\/b> ", "tessellate": -1, "extrude": 0, "visibility": -1 }, "geometry": { "type": "Point", "coordinates": [ 13.4583396, 48.5776553 ] } },
{ "type": "Feature", "properties": { "Name": "Wetterpilz", "description": "<b>Kategorie:<\/b> Natur & Landschaft — Aussichtspunkt<br><b>Distanz:<\/b>  283 m<br><b>Website:<\/b> <br><b>Wikipedia:<\/b> <br><b>Telefon:<\/b> ", "tessellate": -1, "extrude": 0, "visibility": -1 }, "geometry": { "type": "Point", "coordinates": [ 13.4670008, 48.5778366 ] } },
{ "type": "Feature", "properties": { "Name": "Donaublick", "description": "<b>Kategorie:<\/b> Natur & Landschaft — Aussichtspunkt<br><b>Distanz:<\/b> 1555 m<br><b>Website:<\/b> <br><b>Wikipedia:<\/b> <br><b>Telefon:<\/b> ", "tessellate": -1, "extrude": 0, "visibility": -1 }, "geometry": { "type": "Point", "coordinates": [ 13.4917867, 48.5765534 ] } },
{ "type": "Feature", "properties": { "Name": "Dreiflüsseeck", "description": "<b>Kategorie:<\/b> Natur & Landschaft — Aussichtspunkt<br><b>Distanz:<\/b>  608 m<br><b>Website:<\/b> <br><b>Wikipedia:<\/b> <br><b>Telefon:<\/b> ", "tessellate": -1, "extrude": 0, "visibility": -1 }, "geometry": { "type": "Point", "coordinates": [ 13.4768074, 48.5737129 ] } },
{ "type": "Feature", "properties": { "Name": "Stephankreuz", "description": "<b>Kategorie:<\/b> Natur & Landschaft — Aussichtspunkt<br><b>Distanz:<\/b> 1079 m<br><b>Website:<\/b> <br><b>Wikipedia:<\/b> <br><b>Telefon:<\/b> ", "tessellate": -1, "extrude": 0, "visibility": -1 }, "geometry": { "type": "Point", "coordinates": [ 13.4748689, 48.5681368 ] } }
]
}
