{
"type": "FeatureCollection",
"name": "merged",
"features": [
{ "type": "Feature", "properties": { "Name": "JH 262 — Jugendherberge Regensburg", "description": "<b>JH Nr:</b> 262<br><b>Name:</b> Jugendherberge Regensburg<br><b>Ort:</b> Regensburg", "tessellate": -1, "extrude": 0, "visibility": -1 }, "geometry": { "type": "Point", "coordinates": [ 12.110235, 49.0210835 ] } },
{ "type": "Feature", "properties": { "Name": "Städtische Berufsschule I für Metall- und Elektrotechnik", "description": "<b>Kategorie:<\/b> Bildungsinfrastruktur — Schule<br><b>Distanz:<\/b> 1747 m<br><b>Website:<\/b> <br><b>Wikipedia:<\/b> <br><b>Telefon:<\/b> ", "tessellate": -1, "extrude": 0, "visibility": -1 }, "geometry": { "type": "Point", "coordinates": [ 12.1093301, 49.0053864 ] } },
{ "type": "Feature", "properties": { "Name": "Universitätsbibliotheken Recht & Wirtschaft", "description": "<b>Kategorie:<\/b> Bildungsinfrastruktur — Bibliothek<br><b>Distanz:<\/b> 2639 m<br><b>Website:<\/b> <br><b>Wikipedia:<\/b> <br><b>Telefon:<\/b> ", "tessellate": -1, "extrude": 0, "visibility": -1 }, "geometry": { "type": "Point", "coordinates": [ 12.0937308, 48.999992 ] } },
{ "type": "Feature", "properties": { "Name": "Stadtbücherei", "description": "<b>Kategorie:<\/b> Bildungsinfrastruktur — Bibliothek<br><b>Distanz:<\/b> 1247 m<br><b>Website:<\/b> https:\/\/www.regensburg.de\/stadtbuecherei\/<br><b>Wikipedia:<\/b> <br><b>Telefon:<\/b> +49 941 5072470", "tessellate": -1, "extrude": 0, "visibility": -1 }, "geometry": { "type": "Point", "coordinates": [ 12.0932688, 49.0200512 ] } },
{ "type": "Feature", "properties": { "Name": "Bibliothek Recht II", "description": "<b>Kategorie:<\/b> Bildungsinfrastruktur — Bibliothek<br><b>Distanz:<\/b> 2715 m<br><b>Website:<\/b> <br><b>Wikipedia:<\/b> <br><b>Telefon:<\/b> ", "tessellate": -1, "extrude": 0, "visibility": -1 }, "geometry": { "type": "Point", "coordinates": [ 12.092811, 48.9995352 ] } },
{ "type": "Feature", "properties": { "Name": "Volkshochschule Regensburg", "description": "<b>Kategorie:<\/b> Bildungsinfrastruktur — Hochschule<br><b>Distanz:<\/b> 1237 m<br><b>Website:<\/b> https:\/\/vhs-regensburg.de\/<br><b>Wikipedia:<\/b> <br><b>Telefon:<\/b> +49 941 507 2433", "tessellate": -1, "extrude": 0, "visibility": -1 }, "geometry": { "type": "Point", "coordinates": [ 12.0933635, 49.0203802 ] } },
{ "type": "Feature", "properties": { "Name": "Stadtteilbücherei Nord", "description": "<b>Kategorie:<\/b> Bildungsinfrastruktur — Bibliothek<br><b>Distanz:<\/b> 1409 m<br><b>Website:<\/b> https:\/\/www.regensburg.de\/stadtbuecherei\/buechereien\/nord<br><b>Wikipedia:<\/b> <br><b>Telefon:<\/b> +49 941 5073470", "tessellate": -1, "extrude": 0, "visibility": -1 }, "geometry": { "type": "Point", "coordinates": [ 12.1131028, 49.0336073 ] } },
{ "type": "Feature", "properties": { "Name": "Städtische Berufsschule II \/ Städtische Fachakademie für Hauswirtschaft", "description": "<b>Kategorie:<\/b> Bildungsinfrastruktur — Schule<br><b>Distanz:<\/b> 1802 m<br><b>Website:<\/b> <br><b>Wikipedia:<\/b> <br><b>Telefon:<\/b> ", "tessellate": -1, "extrude": 0, "visibility": -1 }, "geometry": { "type": "Point", "coordinates": [ 12.1094026, 49.0048918 ] } },
{ "type": "Feature", "properties": { "Name": "Stadtbücherei Ost im Kerschensteiner Berufsschulzentrum", "description": "<b>Kategorie:<\/b> Bildungsinfrastruktur — Bibliothek<br><b>Distanz:<\/b> 1687 m<br><b>Website:<\/b> https:\/\/www.regensburg.de\/<br><b>Wikipedia:<\/b> de:Stadtbücherei Regensburg<br><b>Telefon:<\/b> +49 941 5073474", "tessellate": -1, "extrude": 0, "visibility": -1 }, "geometry": { "type": "Point", "coordinates": [ 12.109552, 49.0059209 ] } },
{ "type": "Feature", "properties": { "Name": "Döpfer-Schulen Regensburg GmbH", "description": "<b>Kategorie:<\/b> Bildungsinfrastruktur — Schule<br><b>Distanz:<\/b> 1452 m<br><b>Website:<\/b> https:\/\/www.doepfer-schulen.de\/<br><b>Wikipedia:<\/b> <br><b>Telefon:<\/b> +49 941 6989862 0", "tessellate": -1, "extrude": 0, "visibility": -1 }, "geometry": { "type": "Point", "coordinates": [ 12.1004411, 49.0097305 ] } },
{ "type": "Feature", "properties": { "Name": "Kosmetikschule Lippert-Mücke", "description": "<b>Kategorie:<\/b> Bildungsinfrastruktur — Schule<br><b>Distanz:<\/b> 1467 m<br><b>Website:<\/b> https:\/\/www.kosmetikschule-regensburg.de\/<br><b>Wikipedia:<\/b> <br><b>Telefon:<\/b> +49 941 378012 20", "tessellate": -1, "extrude": 0, "visibility": -1 }, "geometry": { "type": "Point", "coordinates": [ 12.1004469, 49.0095741 ] } },
{ "type": "Feature", "properties": { "Name": "Institut für Ostrecht", "description": "<b>Kategorie:<\/b> Bildungsinfrastruktur — Universität<br><b>Distanz:<\/b>  867 m<br><b>Website:<\/b> https:\/\/www.ostrecht.de\/<br><b>Wikipedia:<\/b> <br><b>Telefon:<\/b> +49 941 94354 50", "tessellate": -1, "extrude": 0, "visibility": -1 }, "geometry": { "type": "Point", "coordinates": [ 12.1030051, 49.0149117 ] } },
{ "type": "Feature", "properties": { "Name": "Leibniz-Institut für Ost- und Südosteuropaforschung", "description": "<b>Kategorie:<\/b> Bildungsinfrastruktur — Universität<br><b>Distanz:<\/b>  877 m<br><b>Website:<\/b> https:\/\/www.ios-regensburg.de\/<br><b>Wikipedia:<\/b> de:Leibniz-Institut für Ost- und Südosteuropaforschung<br><b>Telefon:<\/b> +49 941 94354 10", "tessellate": -1, "extrude": 0, "visibility": -1 }, "geometry": { "type": "Point", "coordinates": [ 12.1029629, 49.014817 ] } },
{ "type": "Feature", "properties": { "Name": "Ungarisches Institut", "description": "<b>Kategorie:<\/b> Bildungsinfrastruktur — Universität<br><b>Distanz:<\/b>  881 m<br><b>Website:<\/b> http:\/\/www.ungarisches-institut.de\/<br><b>Wikipedia:<\/b> <br><b>Telefon:<\/b> +49 941 94354 40", "tessellate": -1, "extrude": 0, "visibility": -1 }, "geometry": { "type": "Point", "coordinates": [ 12.1025184, 49.0150076 ] } },
{ "type": "Feature", "properties": { "Name": "M26", "description": "<b>Kategorie:<\/b> Bildungsinfrastruktur — Kunstzentrum<br><b>Distanz:<\/b>  976 m<br><b>Website:<\/b> https:\/\/m26kultur.org\/<br><b>Wikipedia:<\/b> <br><b>Telefon:<\/b> ", "tessellate": -1, "extrude": 0, "visibility": -1 }, "geometry": { "type": "Point", "coordinates": [ 12.1000803, 49.0153871 ] } },
{ "type": "Feature", "properties": { "Name": "Berufsfachschule für Gesundheits- und Krankenpflege", "description": "<b>Kategorie:<\/b> Bildungsinfrastruktur — Hochschule<br><b>Distanz:<\/b> 1702 m<br><b>Website:<\/b> https:\/\/www.caritasstjosef.de\/content\/node_3589.htm<br><b>Wikipedia:<\/b> <br><b>Telefon:<\/b> +49 941 782 4010", "tessellate": -1, "extrude": 0, "visibility": -1 }, "geometry": { "type": "Point", "coordinates": [ 12.1180925, 49.0066864 ] } },
{ "type": "Feature", "properties": { "Name": "Bootsschule Regensburg", "description": "<b>Kategorie:<\/b> Bildungsinfrastruktur — Schule<br><b>Distanz:<\/b> 1630 m<br><b>Website:<\/b> https:\/\/bootsschule-regensburg.de\/<br><b>Wikipedia:<\/b> <br><b>Telefon:<\/b> +49 941 892194", "tessellate": -1, "extrude": 0, "visibility": -1 }, "geometry": { "type": "Point", "coordinates": [ 12.1165235, 49.0070229 ] } },
{ "type": "Feature", "properties": { "Name": "bfz Regensburg", "description": "<b>Kategorie:<\/b> Bildungsinfrastruktur — Schule<br><b>Distanz:<\/b> 1130 m<br><b>Website:<\/b> https:\/\/www.bfz.de\/regensburg<br><b>Wikipedia:<\/b> <br><b>Telefon:<\/b> +49 941 40207 0", "tessellate": -1, "extrude": 0, "visibility": -1 }, "geometry": { "type": "Point", "coordinates": [ 12.1193032, 49.0293071 ] } },
{ "type": "Feature", "properties": { "Name": "Kreuzschule", "description": "<b>Kategorie:<\/b> Bildungsinfrastruktur — Schule<br><b>Distanz:<\/b> 1774 m<br><b>Website:<\/b> http:\/\/kreuzschule-regensburg.de.ps-server.net\/<br><b>Wikipedia:<\/b> <br><b>Telefon:<\/b> +49 941 507 3935", "tessellate": -1, "extrude": 0, "visibility": -1 }, "geometry": { "type": "Point", "coordinates": [ 12.0859946, 49.0205916 ] } },
{ "type": "Feature", "properties": { "Name": "Realschule am Judenstein", "description": "<b>Kategorie:<\/b> Bildungsinfrastruktur — Schule<br><b>Distanz:<\/b> 1812 m<br><b>Website:<\/b> https:\/\/www.realschule-am-judenstein.de\/<br><b>Wikipedia:<\/b> <br><b>Telefon:<\/b> +49 941 507 1072", "tessellate": -1, "extrude": 0, "visibility": -1 }, "geometry": { "type": "Point", "coordinates": [ 12.0854788, 49.0205041 ] } },
{ "type": "Feature", "properties": { "Name": "Akademie für Gestaltung Regensburg", "description": "<b>Kategorie:<\/b> Bildungsinfrastruktur — Universität<br><b>Distanz:<\/b>  787 m<br><b>Website:<\/b> http:\/\/akademie-für-gestaltung-regensburg.de\/<br><b>Wikipedia:<\/b> <br><b>Telefon:<\/b> +49 941 2800854", "tessellate": -1, "extrude": 0, "visibility": -1 }, "geometry": { "type": "Point", "coordinates": [ 12.1005785, 49.024209 ] } },
{ "type": "Feature", "properties": { "Name": "Alumneum (Haus der Kirche)", "description": "<b>Kategorie:<\/b> Bildungsinfrastruktur — Kunstzentrum<br><b>Distanz:<\/b> 1419 m<br><b>Website:<\/b> <br><b>Wikipedia:<\/b> <br><b>Telefon:<\/b> ", "tessellate": -1, "extrude": 0, "visibility": -1 }, "geometry": { "type": "Point", "coordinates": [ 12.0912749, 49.0184124 ] } },
{ "type": "Feature", "properties": { "Name": "Berufsfachschule für Krankenpflegehilfe", "description": "<b>Kategorie:<\/b> Bildungsinfrastruktur — Hochschule<br><b>Distanz:<\/b> 1273 m<br><b>Website:<\/b> https:\/\/www.barmherzige-regensburg.de\/karriere\/bildung\/berufsfachschule-fuer-krankenpflegehilfe.html<br><b>Wikipedia:<\/b> <br><b>Telefon:<\/b> +49 941 5040 2810", "tessellate": -1, "extrude": 0, "visibility": -1 }, "geometry": { "type": "Point", "coordinates": [ 12.0941082, 49.0167875 ] } },
{ "type": "Feature", "properties": { "Name": "Regensburger Fremdsprachenschule e.V.", "description": "<b>Kategorie:<\/b> Bildungsinfrastruktur — Schule<br><b>Distanz:<\/b> 1266 m<br><b>Website:<\/b> https:\/\/www.rfs-ev.de\/<br><b>Wikipedia:<\/b> <br><b>Telefon:<\/b> +49 941 57123", "tessellate": -1, "extrude": 0, "visibility": -1 }, "geometry": { "type": "Point", "coordinates": [ 12.093207, 49.0190334 ] } },
{ "type": "Feature", "properties": { "Name": "Bildungszentrum Ostbayern im Kolpinghaus Regensburg", "description": "<b>Kategorie:<\/b> Bildungsinfrastruktur — Schule<br><b>Distanz:<\/b>  639 m<br><b>Website:<\/b> http:\/\/bizo-regensburg.de\/<br><b>Wikipedia:<\/b> <br><b>Telefon:<\/b> +49 941 59500 0", "tessellate": -1, "extrude": 0, "visibility": -1 }, "geometry": { "type": "Point", "coordinates": [ 12.1018014, 49.019605 ] } },
{ "type": "Feature", "properties": { "Name": "W1 - Zentrum für junge Kultur", "description": "<b>Kategorie:<\/b> Bildungsinfrastruktur — Kunstzentrum<br><b>Distanz:<\/b> 1268 m<br><b>Website:<\/b> https:\/\/www.regensburg.de\/w1<br><b>Wikipedia:<\/b> <br><b>Telefon:<\/b> +49 941 5072555", "tessellate": -1, "extrude": 0, "visibility": -1 }, "geometry": { "type": "Point", "coordinates": [ 12.0929265, 49.0205645 ] } },
{ "type": "Feature", "properties": { "Name": "Berufsfachschule für Altenpflege des Berufsfortbildungswerks", "description": "<b>Kategorie:<\/b> Bildungsinfrastruktur — Schule<br><b>Distanz:<\/b>  606 m<br><b>Website:<\/b> <br><b>Wikipedia:<\/b> <br><b>Telefon:<\/b> +49 941 52068", "tessellate": -1, "extrude": 0, "visibility": -1 }, "geometry": { "type": "Point", "coordinates": [ 12.1059957, 49.0164067 ] } },
{ "type": "Feature", "properties": { "Name": "Sportinternat Regensburg", "description": "<b>Kategorie:<\/b> Bildungsinfrastruktur — Schule<br><b>Distanz:<\/b> 2188 m<br><b>Website:<\/b> https:\/\/www.sportinternat-r.de\/<br><b>Wikipedia:<\/b> <br><b>Telefon:<\/b> +49 941 29797835", "tessellate": -1, "extrude": 0, "visibility": -1 }, "geometry": { "type": "Point", "coordinates": [ 12.1390987, 49.026254 ] } },
{ "type": "Feature", "properties": { "Name": "Landwirtschaftsschule Regensburg, Abteilung Hauswirtschaft", "description": "<b>Kategorie:<\/b> Bildungsinfrastruktur — Schule<br><b>Distanz:<\/b> 1875 m<br><b>Website:<\/b> https:\/\/www.aelf-re.bayern.de\/bildung\/hauswirtschaft\/036331\/index.php<br><b>Wikipedia:<\/b> <br><b>Telefon:<\/b> +49 941 2083 0", "tessellate": -1, "extrude": 0, "visibility": -1 }, "geometry": { "type": "Point", "coordinates": [ 12.1244792, 49.035095 ] } },
{ "type": "Feature", "properties": { "Name": "DAA-Technikum", "description": "<b>Kategorie:<\/b> Bildungsinfrastruktur — Hochschule<br><b>Distanz:<\/b> 1705 m<br><b>Website:<\/b> https:\/\/www.daa-technikum.de\/<br><b>Wikipedia:<\/b> <br><b>Telefon:<\/b> ", "tessellate": -1, "extrude": 0, "visibility": -1 }, "geometry": { "type": "Point", "coordinates": [ 12.1094535, 49.0057686 ] } },
{ "type": "Feature", "properties": { "Name": "Stadtteilbücherei Candis", "description": "<b>Kategorie:<\/b> Bildungsinfrastruktur — Bibliothek<br><b>Distanz:<\/b> 1537 m<br><b>Website:<\/b> https:\/\/www.regensburg.de\/stadtbuecherei<br><b>Wikipedia:<\/b> de:Stadtbücherei Regensburg<br><b>Telefon:<\/b> +49 941 5073477", "tessellate": -1, "extrude": 0, "visibility": -1 }, "geometry": { "type": "Point", "coordinates": [ 12.1278608, 49.0135719 ] } },
{ "type": "Feature", "properties": { "Name": "Deutschkurs Von A1 Bis C2", "description": "<b>Kategorie:<\/b> Bildungsinfrastruktur — Schule<br><b>Distanz:<\/b> 1637 m<br><b>Website:<\/b> <br><b>Wikipedia:<\/b> <br><b>Telefon:<\/b> ", "tessellate": -1, "extrude": 0, "visibility": -1 }, "geometry": { "type": "Point", "coordinates": [ 12.1285781, 49.0295152 ] } },
{ "type": "Feature", "properties": { "Name": "Dallmeier SIT-Point", "description": "<b>Kategorie:<\/b> Bildungsinfrastruktur — Schule<br><b>Distanz:<\/b> 1429 m<br><b>Website:<\/b> https:\/\/www.sit-point.de\/<br><b>Wikipedia:<\/b> <br><b>Telefon:<\/b> +49 941 8700 200", "tessellate": -1, "extrude": 0, "visibility": -1 }, "geometry": { "type": "Point", "coordinates": [ 12.0960706, 49.0122396 ] } },
{ "type": "Feature", "properties": { "Name": "Ton Art", "description": "<b>Kategorie:<\/b> Bildungsinfrastruktur — Schule<br><b>Distanz:<\/b> 1651 m<br><b>Website:<\/b> <br><b>Wikipedia:<\/b> <br><b>Telefon:<\/b> +49 941 381 983 89", "tessellate": -1, "extrude": 0, "visibility": -1 }, "geometry": { "type": "Point", "coordinates": [ 12.1012504, 49.0074661 ] } },
{ "type": "Feature", "properties": { "Name": "Privat Internat PINDL", "description": "<b>Kategorie:<\/b> Bildungsinfrastruktur — Schule<br><b>Distanz:<\/b> 2103 m<br><b>Website:<\/b> https:\/\/www.internat-pindl.de\/<br><b>Wikipedia:<\/b> <br><b>Telefon:<\/b> +49 941 29758 0", "tessellate": -1, "extrude": 0, "visibility": -1 }, "geometry": { "type": "Point", "coordinates": [ 12.082327, 49.0165663 ] } },
{ "type": "Feature", "properties": { "Name": "Privat-Gymnasium PINDL", "description": "<b>Kategorie:<\/b> Bildungsinfrastruktur — Schule<br><b>Distanz:<\/b> 1922 m<br><b>Website:<\/b> https:\/\/www.gymnasium-pindl.de\/<br><b>Wikipedia:<\/b> <br><b>Telefon:<\/b> +49 941 29757 0", "tessellate": -1, "extrude": 0, "visibility": -1 }, "geometry": { "type": "Point", "coordinates": [ 12.0840597, 49.0195865 ] } },
{ "type": "Feature", "properties": { "Name": "Private Wirtschaftsschule PINDL", "description": "<b>Kategorie:<\/b> Bildungsinfrastruktur — Schule<br><b>Distanz:<\/b> 1780 m<br><b>Website:<\/b> https:\/\/www.wirtschaftsschule-pindl.de\/<br><b>Wikipedia:<\/b> <br><b>Telefon:<\/b> +49 941 29756 10", "tessellate": -1, "extrude": 0, "visibility": -1 }, "geometry": { "type": "Point", "coordinates": [ 12.086353, 49.0180298 ] } },
{ "type": "Feature", "properties": { "Name": "Private Realschule PINDL", "description": "<b>Kategorie:<\/b> Bildungsinfrastruktur — Schule<br><b>Distanz:<\/b> 1805 m<br><b>Website:<\/b> https:\/\/www.realschule-pindl.de\/<br><b>Wikipedia:<\/b> <br><b>Telefon:<\/b> +49 941 29756 0", "tessellate": -1, "extrude": 0, "visibility": -1 }, "geometry": { "type": "Point", "coordinates": [ 12.0860365, 49.0179383 ] } },
{ "type": "Feature", "properties": { "Name": "Private Fachoberschule PINDL", "description": "<b>Kategorie:<\/b> Bildungsinfrastruktur — Hochschule<br><b>Distanz:<\/b> 1939 m<br><b>Website:<\/b> https:\/\/www.fos-pindl.de\/<br><b>Wikipedia:<\/b> <br><b>Telefon:<\/b> +49 941 29757 40", "tessellate": -1, "extrude": 0, "visibility": -1 }, "geometry": { "type": "Point", "coordinates": [ 12.0838156, 49.0196587 ] } },
{ "type": "Feature", "properties": { "Name": "Künstlerhaus Andreasstadel", "description": "<b>Kategorie:<\/b> Bildungsinfrastruktur — Kunstzentrum<br><b>Distanz:<\/b>  789 m<br><b>Website:<\/b> https:\/\/www.kuenstlerhaus-andreasstadel.de\/stiftung\/satzung.html<br><b>Wikipedia:<\/b> <br><b>Telefon:<\/b> +49 941 8905810", "tessellate": -1, "extrude": 0, "visibility": -1 }, "geometry": { "type": "Point", "coordinates": [ 12.10058, 49.0242492 ] } },
{ "type": "Feature", "properties": { "Name": "Graduiertenschule für Ost- und Südosteuropastudien", "description": "<b>Kategorie:<\/b> Bildungsinfrastruktur — Universität<br><b>Distanz:<\/b>  874 m<br><b>Website:<\/b> <br><b>Wikipedia:<\/b> <br><b>Telefon:<\/b> ", "tessellate": -1, "extrude": 0, "visibility": -1 }, "geometry": { "type": "Point", "coordinates": [ 12.1026712, 49.0150051 ] } },
{ "type": "Feature", "properties": { "Name": "Transition", "description": "<b>Kategorie:<\/b> Bildungsinfrastruktur — Gemeindezentrum<br><b>Distanz:<\/b> 1175 m<br><b>Website:<\/b> https:\/\/www.transition-regensburg.de<br><b>Wikipedia:<\/b> <br><b>Telefon:<\/b> ", "tessellate": -1, "extrude": 0, "visibility": -1 }, "geometry": { "type": "Point", "coordinates": [ 12.0941768, 49.0211616 ] } },
{ "type": "Feature", "properties": { "Name": "Sigismundkapelle", "description": "<b>Kategorie:<\/b> Bildungsinfrastruktur — Kunstzentrum<br><b>Distanz:<\/b> 1237 m<br><b>Website:<\/b> <br><b>Wikipedia:<\/b> <br><b>Telefon:<\/b> ", "tessellate": -1, "extrude": 0, "visibility": -1 }, "geometry": { "type": "Point", "coordinates": [ 12.0933898, 49.0201705 ] } },
{ "type": "Feature", "properties": { "Name": "Lesesaal Philosophicum 1", "description": "<b>Kategorie:<\/b> Bildungsinfrastruktur — Bibliothek<br><b>Distanz:<\/b> 2673 m<br><b>Website:<\/b> <br><b>Wikipedia:<\/b> <br><b>Telefon:<\/b> ", "tessellate": -1, "extrude": 0, "visibility": -1 }, "geometry": { "type": "Point", "coordinates": [ 12.0960297, 48.9989439 ] } },
{ "type": "Feature", "properties": { "Name": "Lesesaal Philosophicum 2", "description": "<b>Kategorie:<\/b> Bildungsinfrastruktur — Bibliothek<br><b>Distanz:<\/b> 2604 m<br><b>Website:<\/b> <br><b>Wikipedia:<\/b> <br><b>Telefon:<\/b> ", "tessellate": -1, "extrude": 0, "visibility": -1 }, "geometry": { "type": "Point", "coordinates": [ 12.0961512, 48.9995855 ] } },
{ "type": "Feature", "properties": { "Name": "Kaufladen für Erwachsene", "description": "<b>Kategorie:<\/b> Bildungsinfrastruktur — Gemeindezentrum<br><b>Distanz:<\/b> 1621 m<br><b>Website:<\/b> https:\/\/ribisl.org\/kaufladen-fuer-erwachsene\/<br><b>Wikipedia:<\/b> <br><b>Telefon:<\/b> ", "tessellate": -1, "extrude": 0, "visibility": -1 }, "geometry": { "type": "Point", "coordinates": [ 12.1222028, 49.0088212 ] } },
{ "type": "Feature", "properties": { "Name": "Von-der-Tann-Grundschule Haus II", "description": "<b>Kategorie:<\/b> Bildungsinfrastruktur — Schule<br><b>Distanz:<\/b>  740 m<br><b>Website:<\/b> <br><b>Wikipedia:<\/b> <br><b>Telefon:<\/b> ", "tessellate": -1, "extrude": 0, "visibility": -1 }, "geometry": { "type": "Point", "coordinates": [ 12.1062379, 49.0149727 ] } },
{ "type": "Feature", "properties": { "Name": "Albertus Magnus Gymnasium Zweigstelle", "description": "<b>Kategorie:<\/b> Bildungsinfrastruktur — Schule<br><b>Distanz:<\/b> 2531 m<br><b>Website:<\/b> <br><b>Wikipedia:<\/b> <br><b>Telefon:<\/b> ", "tessellate": -1, "extrude": 0, "visibility": -1 }, "geometry": { "type": "Point", "coordinates": [ 12.0761448, 49.0249712 ] } },
{ "type": "Feature", "properties": { "Name": "Räume für Engagement am Bahnhof", "description": "<b>Kategorie:<\/b> Bildungsinfrastruktur — Gemeindezentrum<br><b>Distanz:<\/b> 1022 m<br><b>Website:<\/b> <br><b>Wikipedia:<\/b> <br><b>Telefon:<\/b> +499415072252", "tessellate": -1, "extrude": 0, "visibility": -1 }, "geometry": { "type": "Point", "coordinates": [ 12.1018132, 49.0137521 ] } },
{ "type": "Feature", "properties": { "Name": "RFZ Rückenzentrum Regensburg", "description": "<b>Kategorie:<\/b> Freizeit & Sport — Sportzentrum<br><b>Distanz:<\/b> 1850 m<br><b>Website:<\/b> http:\/\/www.rfz-regensburg.de\/<br><b>Wikipedia:<\/b> <br><b>Telefon:<\/b> +49 941 49596", "tessellate": -1, "extrude": 0, "visibility": -1 }, "geometry": { "type": "Point", "coordinates": [ 12.1302895, 49.0312159 ] } },
{ "type": "Feature", "properties": { "Name": "InForm Frauenfitness", "description": "<b>Kategorie:<\/b> Freizeit & Sport — Sportzentrum<br><b>Distanz:<\/b> 1874 m<br><b>Website:<\/b> <br><b>Wikipedia:<\/b> <br><b>Telefon:<\/b> ", "tessellate": -1, "extrude": 0, "visibility": -1 }, "geometry": { "type": "Point", "coordinates": [ 12.0876247, 49.0131652 ] } },
{ "type": "Feature", "properties": { "Name": "Boxfit", "description": "<b>Kategorie:<\/b> Freizeit & Sport — Sportzentrum<br><b>Distanz:<\/b> 1264 m<br><b>Website:<\/b> https:\/\/www.boxfit.de\/<br><b>Wikipedia:<\/b> <br><b>Telefon:<\/b> +49 941 20827747", "tessellate": -1, "extrude": 0, "visibility": -1 }, "geometry": { "type": "Point", "coordinates": [ 12.1231918, 49.0286074 ] } },
{ "type": "Feature", "properties": { "Name": "Travel Divers", "description": "<b>Kategorie:<\/b> Freizeit & Sport — Sportzentrum<br><b>Distanz:<\/b> 1618 m<br><b>Website:<\/b> http:\/\/www.travel-divers.de\/<br><b>Wikipedia:<\/b> <br><b>Telefon:<\/b> +49 941 54400", "tessellate": -1, "extrude": 0, "visibility": -1 }, "geometry": { "type": "Point", "coordinates": [ 12.1273231, 49.0303181 ] } },
{ "type": "Feature", "properties": { "Name": "Kick Arena", "description": "<b>Kategorie:<\/b> Freizeit & Sport — Sportzentrum<br><b>Distanz:<\/b> 1571 m<br><b>Website:<\/b> https:\/\/www.kickarena.com\/<br><b>Wikipedia:<\/b> <br><b>Telefon:<\/b> +49 941 46122 44", "tessellate": -1, "extrude": 0, "visibility": -1 }, "geometry": { "type": "Point", "coordinates": [ 12.1265107, 49.0302994 ] } },
{ "type": "Feature", "properties": { "Name": "Boulderwelt Regensburg", "description": "<b>Kategorie:<\/b> Freizeit & Sport — Sportzentrum<br><b>Distanz:<\/b> 1828 m<br><b>Website:<\/b> https:\/\/www.boulderwelt-regensburg.de\/<br><b>Wikipedia:<\/b> <br><b>Telefon:<\/b> +49 941 89963606", "tessellate": -1, "extrude": 0, "visibility": -1 }, "geometry": { "type": "Point", "coordinates": [ 12.128645, 49.0321913 ] } },
{ "type": "Feature", "properties": { "Name": "Marina Regensburg", "description": "<b>Kategorie:<\/b> Freizeit & Sport — Yachthafen<br><b>Distanz:<\/b> 1561 m<br><b>Website:<\/b> <br><b>Wikipedia:<\/b> <br><b>Telefon:<\/b> ", "tessellate": -1, "extrude": 0, "visibility": -1 }, "geometry": { "type": "Point", "coordinates": [ 12.131528, 49.0219248 ] } },
{ "type": "Feature", "properties": { "Name": "Trimmdichpfad", "description": "<b>Kategorie:<\/b> Freizeit & Sport — Fitnessstation<br><b>Distanz:<\/b> 2289 m<br><b>Website:<\/b> <br><b>Wikipedia:<\/b> <br><b>Telefon:<\/b> ", "tessellate": -1, "extrude": 0, "visibility": -1 }, "geometry": { "type": "Point", "coordinates": [ 12.0805389, 49.0275733 ] } },
{ "type": "Feature", "properties": { "Name": "Tourismusverband Ostbayern e.V.", "description": "<b>Kategorie:<\/b> Information — Besucherinformation<br><b>Distanz:<\/b> 1712 m<br><b>Website:<\/b> <br><b>Wikipedia:<\/b> <br><b>Telefon:<\/b> ", "tessellate": -1, "extrude": 0, "visibility": -1 }, "geometry": { "type": "Point", "coordinates": [ 12.1275897, 49.0314068 ] } },
{ "type": "Feature", "properties": { "Name": "Tourist Information Regensburg", "description": "<b>Kategorie:<\/b> Information — Besucherinformation<br><b>Distanz:<\/b> 1169 m<br><b>Website:<\/b> https:\/\/tourismus.regensburg.de\/<br><b>Wikipedia:<\/b> <br><b>Telefon:<\/b> +49 941 507 4410", "tessellate": -1, "extrude": 0, "visibility": -1 }, "geometry": { "type": "Point", "coordinates": [ 12.0943208, 49.0201013 ] } },
{ "type": "Feature", "properties": { "Name": "Schottenportal", "description": "<b>Kategorie:<\/b> Information — Besucherinformation<br><b>Distanz:<\/b> 1638 m<br><b>Website:<\/b> <br><b>Wikipedia:<\/b> <br><b>Telefon:<\/b> ", "tessellate": -1, "extrude": 0, "visibility": -1 }, "geometry": { "type": "Point", "coordinates": [ 12.0881218, 49.0187564 ] } },
{ "type": "Feature", "properties": { "Name": "Evangelisch-Lutherische Bruderhauskirche", "description": "<b>Kategorie:<\/b> Information — Besucherinformation<br><b>Distanz:<\/b> 1286 m<br><b>Website:<\/b> <br><b>Wikipedia:<\/b> <br><b>Telefon:<\/b> ", "tessellate": -1, "extrude": 0, "visibility": -1 }, "geometry": { "type": "Point", "coordinates": [ 12.0943471, 49.0161465 ] } },
{ "type": "Feature", "properties": { "Name": "Information OTH Regensburg", "description": "<b>Kategorie:<\/b> Information — Besucherinformation<br><b>Distanz:<\/b> 2253 m<br><b>Website:<\/b> <br><b>Wikipedia:<\/b> <br><b>Telefon:<\/b> ", "tessellate": -1, "extrude": 0, "visibility": -1 }, "geometry": { "type": "Point", "coordinates": [ 12.0948498, 49.0035437 ] } },
{ "type": "Feature", "properties": { "Name": "Domplatz 5", "description": "<b>Kategorie:<\/b> Information — Besucherinformation<br><b>Distanz:<\/b>  953 m<br><b>Website:<\/b> <br><b>Wikipedia:<\/b> <br><b>Telefon:<\/b> ", "tessellate": -1, "extrude": 0, "visibility": -1 }, "geometry": { "type": "Point", "coordinates": [ 12.0975632, 49.0191117 ] } },
{ "type": "Feature", "properties": { "Name": "RVV-Kundenzentrum", "description": "<b>Kategorie:<\/b> Information — Besucherinformation<br><b>Distanz:<\/b> 1032 m<br><b>Website:<\/b> http:\/\/www.rvv.de\/rvv-kundenzentrum<br><b>Wikipedia:<\/b> <br><b>Telefon:<\/b> +49 941 20495555", "tessellate": -1, "extrude": 0, "visibility": -1 }, "geometry": { "type": "Point", "coordinates": [ 12.1020978, 49.0135011 ] } },
{ "type": "Feature", "properties": { "Name": "Unsere Partnerstädte", "description": "<b>Kategorie:<\/b> Information — Besucherinformation<br><b>Distanz:<\/b> 2932 m<br><b>Website:<\/b> <br><b>Wikipedia:<\/b> <br><b>Telefon:<\/b> ", "tessellate": -1, "extrude": 0, "visibility": -1 }, "geometry": { "type": "Point", "coordinates": [ 12.1312722, 48.9986516 ] } },
{ "type": "Feature", "properties": { "Name": "Am Wiedfang", "description": "<b>Kategorie:<\/b> Information — Besucherinformation<br><b>Distanz:<\/b> 1013 m<br><b>Website:<\/b> <br><b>Wikipedia:<\/b> <br><b>Telefon:<\/b> ", "tessellate": -1, "extrude": 0, "visibility": -1 }, "geometry": { "type": "Point", "coordinates": [ 12.0963911, 49.02106 ] } },
{ "type": "Feature", "properties": { "Name": "Tourist Information", "description": "<b>Kategorie:<\/b> Information — Besucherinformation<br><b>Distanz:<\/b>  637 m<br><b>Website:<\/b> https:\/\/tourismus.regensburg.de\/<br><b>Wikipedia:<\/b> <br><b>Telefon:<\/b> ", "tessellate": -1, "extrude": 0, "visibility": -1 }, "geometry": { "type": "Point", "coordinates": [ 12.1021834, 49.0188988 ] } },
{ "type": "Feature", "properties": { "Name": "Emma - Ein Orkan", "description": "<b>Kategorie:<\/b> Information — Besucherinformation<br><b>Distanz:<\/b> 1616 m<br><b>Website:<\/b> <br><b>Wikipedia:<\/b> <br><b>Telefon:<\/b> ", "tessellate": -1, "extrude": 0, "visibility": -1 }, "geometry": { "type": "Point", "coordinates": [ 12.089223, 49.0165912 ] } },
{ "type": "Feature", "properties": { "Name": "Familienbildung: Unser aktuelles Angebot", "description": "<b>Kategorie:<\/b> Information — Besucherinformation<br><b>Distanz:<\/b> 1445 m<br><b>Website:<\/b> <br><b>Wikipedia:<\/b> <br><b>Telefon:<\/b> ", "tessellate": -1, "extrude": 0, "visibility": -1 }, "geometry": { "type": "Point", "coordinates": [ 12.0908642, 49.0185485 ] } },
{ "type": "Feature", "properties": { "Name": "Ehem. fürstprimatische Residenz", "description": "<b>Kategorie:<\/b> Information — Besucherinformation<br><b>Distanz:<\/b>  961 m<br><b>Website:<\/b> <br><b>Wikipedia:<\/b> <br><b>Telefon:<\/b> ", "tessellate": -1, "extrude": 0, "visibility": -1 }, "geometry": { "type": "Point", "coordinates": [ 12.0974086, 49.0192074 ] } },
{ "type": "Feature", "properties": { "Name": "Klimaschutzweg Regensburg", "description": "<b>Kategorie:<\/b> Information — Besucherinformation<br><b>Distanz:<\/b> 1086 m<br><b>Website:<\/b> <br><b>Wikipedia:<\/b> <br><b>Telefon:<\/b> ", "tessellate": -1, "extrude": 0, "visibility": -1 }, "geometry": { "type": "Point", "coordinates": [ 12.1151451, 49.0303009 ] } },
{ "type": "Feature", "properties": { "Name": "Kunden-Information", "description": "<b>Kategorie:<\/b> Information — Besucherinformation<br><b>Distanz:<\/b>  672 m<br><b>Website:<\/b> <br><b>Wikipedia:<\/b> <br><b>Telefon:<\/b> +49 941 46080", "tessellate": -1, "extrude": 0, "visibility": -1 }, "geometry": { "type": "Point", "coordinates": [ 12.1159807, 49.0257972 ] } },
{ "type": "Feature", "properties": { "Name": "Gewerbepark C 1-11", "description": "<b>Kategorie:<\/b> Information — Besucherinformation<br><b>Distanz:<\/b> 1463 m<br><b>Website:<\/b> <br><b>Wikipedia:<\/b> <br><b>Telefon:<\/b> ", "tessellate": -1, "extrude": 0, "visibility": -1 }, "geometry": { "type": "Point", "coordinates": [ 12.1242216, 49.0304786 ] } },
{ "type": "Feature", "properties": { "Name": "Bischof-Bundschuh-Weg - 2 Weitblick", "description": "<b>Kategorie:<\/b> Information — Besucherinformation<br><b>Distanz:<\/b>  273 m<br><b>Website:<\/b> <br><b>Wikipedia:<\/b> <br><b>Telefon:<\/b> ", "tessellate": -1, "extrude": 0, "visibility": -1 }, "geometry": { "type": "Point", "coordinates": [ 12.1116626, 49.0233497 ] } },
{ "type": "Feature", "properties": { "Name": "Kinder haben Rechte!", "description": "<b>Kategorie:<\/b> Information — Besucherinformation<br><b>Distanz:<\/b>  434 m<br><b>Website:<\/b> <br><b>Wikipedia:<\/b> <br><b>Telefon:<\/b> ", "tessellate": -1, "extrude": 0, "visibility": -1 }, "geometry": { "type": "Point", "coordinates": [ 12.1103631, 49.024986 ] } },
{ "type": "Feature", "properties": { "Name": "document Legionslagermauer, Südost-Ecke", "description": "<b>Kategorie:<\/b> Information — Besucherinformation<br><b>Distanz:<\/b>  987 m<br><b>Website:<\/b> <br><b>Wikipedia:<\/b> <br><b>Telefon:<\/b> ", "tessellate": -1, "extrude": 0, "visibility": -1 }, "geometry": { "type": "Point", "coordinates": [ 12.1007153, 49.0147941 ] } },
{ "type": "Feature", "properties": { "Name": "Zentraler Omnibusbahnhof", "description": "<b>Kategorie:<\/b> Information — Besucherinformation<br><b>Distanz:<\/b> 1121 m<br><b>Website:<\/b> <br><b>Wikipedia:<\/b> <br><b>Telefon:<\/b> ", "tessellate": -1, "extrude": 0, "visibility": -1 }, "geometry": { "type": "Point", "coordinates": [ 12.1000668, 49.0135486 ] } },
{ "type": "Feature", "properties": { "Name": "Ältester Stadtteil Regensburg - Das römerzeitliche Kumpfmühl", "description": "<b>Kategorie:<\/b> Information — Besucherinformation<br><b>Distanz:<\/b> 2407 m<br><b>Website:<\/b> <br><b>Wikipedia:<\/b> <br><b>Telefon:<\/b> ", "tessellate": -1, "extrude": 0, "visibility": -1 }, "geometry": { "type": "Point", "coordinates": [ 12.0847881, 49.0073639 ] } },
{ "type": "Feature", "properties": { "Name": "Das römerzeitliche Kastell auf dem Königsberg", "description": "<b>Kategorie:<\/b> Information — Besucherinformation<br><b>Distanz:<\/b> 2473 m<br><b>Website:<\/b> <br><b>Wikipedia:<\/b> <br><b>Telefon:<\/b> ", "tessellate": -1, "extrude": 0, "visibility": -1 }, "geometry": { "type": "Point", "coordinates": [ 12.0839124, 49.0071418 ] } },
{ "type": "Feature", "properties": { "Name": "Montessori Kinderhaus Villa der Vielfalt", "description": "<b>Kategorie:<\/b> Kinder & Jugend — Kindergarten<br><b>Distanz:<\/b>  725 m<br><b>Website:<\/b> https:\/\/www.montessori-regensburg.de\/index.php?id=394<br><b>Wikipedia:<\/b> <br><b>Telefon:<\/b> ", "tessellate": -1, "extrude": 0, "visibility": -1 }, "geometry": { "type": "Point", "coordinates": [ 12.1058772, 49.0152281 ] } },
{ "type": "Feature", "properties": { "Name": "Spielplatz Am Grieß Nr. 058", "description": "<b>Kategorie:<\/b> Kinder & Jugend — Spielplatz<br><b>Distanz:<\/b>  577 m<br><b>Website:<\/b> <br><b>Wikipedia:<\/b> <br><b>Telefon:<\/b> ", "tessellate": -1, "extrude": 0, "visibility": -1 }, "geometry": { "type": "Point", "coordinates": [ 12.1041753, 49.0244005 ] } },
{ "type": "Feature", "properties": { "Name": "Kinderheim St. Leonhard", "description": "<b>Kategorie:<\/b> Kinder & Jugend — Kindergarten<br><b>Distanz:<\/b> 1766 m<br><b>Website:<\/b> <br><b>Wikipedia:<\/b> <br><b>Telefon:<\/b> ", "tessellate": -1, "extrude": 0, "visibility": -1 }, "geometry": { "type": "Point", "coordinates": [ 12.0860987, 49.0214341 ] } },
{ "type": "Feature", "properties": { "Name": "Spielplatz Bayerwaldwohnanlage", "description": "<b>Kategorie:<\/b> Kinder & Jugend — Spielplatz<br><b>Distanz:<\/b> 1307 m<br><b>Website:<\/b> <br><b>Wikipedia:<\/b> <br><b>Telefon:<\/b> ", "tessellate": -1, "extrude": 0, "visibility": -1 }, "geometry": { "type": "Point", "coordinates": [ 12.1006861, 49.0310176 ] } },
{ "type": "Feature", "properties": { "Name": "Spielplatz Arnulf-Enders-Straße", "description": "<b>Kategorie:<\/b> Kinder & Jugend — Spielplatz<br><b>Distanz:<\/b> 1701 m<br><b>Website:<\/b> <br><b>Wikipedia:<\/b> <br><b>Telefon:<\/b> ", "tessellate": -1, "extrude": 0, "visibility": -1 }, "geometry": { "type": "Point", "coordinates": [ 12.095781, 49.0330654 ] } },
{ "type": "Feature", "properties": { "Name": "Spielplatz Arnulf-Enders-Straße", "description": "<b>Kategorie:<\/b> Kinder & Jugend — Spielplatz<br><b>Distanz:<\/b> 1786 m<br><b>Website:<\/b> <br><b>Wikipedia:<\/b> <br><b>Telefon:<\/b> ", "tessellate": -1, "extrude": 0, "visibility": -1 }, "geometry": { "type": "Point", "coordinates": [ 12.0962672, 49.0342504 ] } },
{ "type": "Feature", "properties": { "Name": "Ostheim", "description": "<b>Kategorie:<\/b> Kinder & Jugend — Spielplatz<br><b>Distanz:<\/b> 2007 m<br><b>Website:<\/b> https:\/\/www.regensburg.de\/leben\/sport-u-freizeit\/sportstaetten-und-freizeitanlagen\/regensburger-spielplaetze\/105157\/ostheim.html<br><b>Wikipedia:<\/b> <br><b>Telefon:<\/b> ", "tessellate": -1, "extrude": 0, "visibility": -1 }, "geometry": { "type": "Point", "coordinates": [ 12.1319198, 49.0100406 ] } },
{ "type": "Feature", "properties": { "Name": "Johanniter-Kinderkrippe Inselzwerge", "description": "<b>Kategorie:<\/b> Kinder & Jugend — Kindergarten<br><b>Distanz:<\/b>  328 m<br><b>Website:<\/b> https:\/\/www.johanniter.de\/einrichtungen\/fuer-kinder-und-jugendliche\/kindertageseinrichtungen\/johanniter-kinderkrippe-inselzwerge\/<br><b>Wikipedia:<\/b> <br><b>Telefon:<\/b> +49 941 69631810", "tessellate": -1, "extrude": 0, "visibility": -1 }, "geometry": { "type": "Point", "coordinates": [ 12.1058046, 49.0215294 ] } },
{ "type": "Feature", "properties": { "Name": "Kindertagesstätte KiKu Zuckerschnute", "description": "<b>Kategorie:<\/b> Kinder & Jugend — Kinderbetreuung<br><b>Distanz:<\/b> 1276 m<br><b>Website:<\/b> <br><b>Wikipedia:<\/b> <br><b>Telefon:<\/b> ", "tessellate": -1, "extrude": 0, "visibility": -1 }, "geometry": { "type": "Point", "coordinates": [ 12.1239281, 49.0139816 ] } },
{ "type": "Feature", "properties": { "Name": "Johanniter-Krabbelstube Blumenstraße", "description": "<b>Kategorie:<\/b> Kinder & Jugend — Kindergarten<br><b>Distanz:<\/b> 1037 m<br><b>Website:<\/b> https:\/\/www.johanniter.de\/einrichtungen\/fuer-kinder-und-jugendliche\/kindertageseinrichtungen\/johanniter-krabbelstube-blumenstrasse\/<br><b>Wikipedia:<\/b> <br><b>Telefon:<\/b> +49 941 794339", "tessellate": -1, "extrude": 0, "visibility": -1 }, "geometry": { "type": "Point", "coordinates": [ 12.1155419, 49.0124438 ] } },
{ "type": "Feature", "properties": { "Name": "Dreirad", "description": "<b>Kategorie:<\/b> Kinder & Jugend — Kindergarten<br><b>Distanz:<\/b> 2430 m<br><b>Website:<\/b> <br><b>Wikipedia:<\/b> <br><b>Telefon:<\/b> ", "tessellate": -1, "extrude": 0, "visibility": -1 }, "geometry": { "type": "Point", "coordinates": [ 12.1401942, 49.0116479 ] } },
{ "type": "Feature", "properties": { "Name": "Blumenkinder", "description": "<b>Kategorie:<\/b> Kinder & Jugend — Kindergarten<br><b>Distanz:<\/b> 2414 m<br><b>Website:<\/b> <br><b>Wikipedia:<\/b> <br><b>Telefon:<\/b> ", "tessellate": -1, "extrude": 0, "visibility": -1 }, "geometry": { "type": "Point", "coordinates": [ 12.1398348, 49.0115036 ] } },
{ "type": "Feature", "properties": { "Name": "Krabbelstube Altmannstraße", "description": "<b>Kategorie:<\/b> Kinder & Jugend — Kindergarten<br><b>Distanz:<\/b> 1505 m<br><b>Website:<\/b> <br><b>Wikipedia:<\/b> <br><b>Telefon:<\/b> +49 941 7057430", "tessellate": -1, "extrude": 0, "visibility": -1 }, "geometry": { "type": "Point", "coordinates": [ 12.1197466, 49.0090857 ] } },
{ "type": "Feature", "properties": { "Name": "Kindertagesstätte KiKu Am See", "description": "<b>Kategorie:<\/b> Kinder & Jugend — Kindergarten<br><b>Distanz:<\/b> 1853 m<br><b>Website:<\/b> http:\/\/www.kinderzentren.de\/regensburg-kita-kiku-am-see\/<br><b>Wikipedia:<\/b> <br><b>Telefon:<\/b> +49 941 780303 0", "tessellate": -1, "extrude": 0, "visibility": -1 }, "geometry": { "type": "Point", "coordinates": [ 12.1299378, 49.0315553 ] } },
{ "type": "Feature", "properties": { "Name": "Kindergarten St. Emmeram", "description": "<b>Kategorie:<\/b> Kinder & Jugend — Kindergarten<br><b>Distanz:<\/b> 1378 m<br><b>Website:<\/b> https:\/\/www.kindergarten-st-emmeram.de\/<br><b>Wikipedia:<\/b> <br><b>Telefon:<\/b> +49 941 54020", "tessellate": -1, "extrude": 0, "visibility": -1 }, "geometry": { "type": "Point", "coordinates": [ 12.0924618, 49.0169819 ] } },
{ "type": "Feature", "properties": { "Name": "Kinderkrippe der Katholischen Jugendfürsorge", "description": "<b>Kategorie:<\/b> Kinder & Jugend — Kindergarten<br><b>Distanz:<\/b>  476 m<br><b>Website:<\/b> <br><b>Wikipedia:<\/b> <br><b>Telefon:<\/b> +49 941 562340", "tessellate": -1, "extrude": 0, "visibility": -1 }, "geometry": { "type": "Point", "coordinates": [ 12.1055663, 49.0181037 ] } },
{ "type": "Feature", "properties": { "Name": "St. Leonhard", "description": "<b>Kategorie:<\/b> Kinder & Jugend — Kindergarten<br><b>Distanz:<\/b> 1849 m<br><b>Website:<\/b> https:\/\/www.st-leonhard.org\/kindergarten<br><b>Wikipedia:<\/b> <br><b>Telefon:<\/b> +49 941 59407-420", "tessellate": -1, "extrude": 0, "visibility": -1 }, "geometry": { "type": "Point", "coordinates": [ 12.0849918, 49.0218646 ] } },
{ "type": "Feature", "properties": { "Name": "Kinderkrippe St. Leonhard", "description": "<b>Kategorie:<\/b> Kinder & Jugend — Kinderbetreuung<br><b>Distanz:<\/b> 1782 m<br><b>Website:<\/b> https:\/\/www.st-leonhard.org\/kinderkrippe<br><b>Wikipedia:<\/b> <br><b>Telefon:<\/b> +49 941 59407-430", "tessellate": -1, "extrude": 0, "visibility": -1 }, "geometry": { "type": "Point", "coordinates": [ 12.0858823, 49.0215955 ] } },
{ "type": "Feature", "properties": { "Name": "Spielplatz Bei der Rinnen", "description": "<b>Kategorie:<\/b> Kinder & Jugend — Spielplatz<br><b>Distanz:<\/b> 2036 m<br><b>Website:<\/b> <br><b>Wikipedia:<\/b> <br><b>Telefon:<\/b> ", "tessellate": -1, "extrude": 0, "visibility": -1 }, "geometry": { "type": "Point", "coordinates": [ 12.0937605, 49.0358378 ] } },
{ "type": "Feature", "properties": { "Name": "Johanniter-Kinderkrippe \"Küken-Nest\"", "description": "<b>Kategorie:<\/b> Kinder & Jugend — Kindergarten<br><b>Distanz:<\/b> 2368 m<br><b>Website:<\/b> https:\/\/www.johanniter.de\/einrichtungen\/fuer-kinder-und-jugendliche\/kindertageseinrichtungen\/johanniter-kinderkrippe-kueken-nest-kumpfmuehl<br><b>Wikipedia:<\/b> <br><b>Telefon:<\/b> ", "tessellate": -1, "extrude": 0, "visibility": -1 }, "geometry": { "type": "Point", "coordinates": [ 12.0863274, 49.0067283 ] } },
{ "type": "Feature", "properties": { "Name": "Kindertagesstätte KiKu Zuckerschnute", "description": "<b>Kategorie:<\/b> Kinder & Jugend — Kindergarten<br><b>Distanz:<\/b> 1287 m<br><b>Website:<\/b> https:\/\/candis-quartier.de\/candis-quartier\/leben\/candis-kita<br><b>Wikipedia:<\/b> <br><b>Telefon:<\/b> +49 941 28096555", "tessellate": -1, "extrude": 0, "visibility": -1 }, "geometry": { "type": "Point", "coordinates": [ 12.1240957, 49.0139654 ] } },
{ "type": "Feature", "properties": { "Name": "miniPINDL - Privates Kinderhaus", "description": "<b>Kategorie:<\/b> Kinder & Jugend — Kindergarten<br><b>Distanz:<\/b> 2115 m<br><b>Website:<\/b> https:\/\/www.minipindl.de\/<br><b>Wikipedia:<\/b> <br><b>Telefon:<\/b> +49 941 600922 20", "tessellate": -1, "extrude": 0, "visibility": -1 }, "geometry": { "type": "Point", "coordinates": [ 12.0822331, 49.0163657 ] } },
{ "type": "Feature", "properties": { "Name": "Bauspielplatz", "description": "<b>Kategorie:<\/b> Kinder & Jugend — Spielplatz<br><b>Distanz:<\/b> 2242 m<br><b>Website:<\/b> https:\/\/regensburger-eltern.de\/blog\/bauspielplatz\/<br><b>Wikipedia:<\/b> <br><b>Telefon:<\/b> ", "tessellate": -1, "extrude": 0, "visibility": -1 }, "geometry": { "type": "Point", "coordinates": [ 12.108015, 49.000977 ] } },
{ "type": "Feature", "properties": { "Name": "Städtische Kindertagesstätte Gewerbepark", "description": "<b>Kategorie:<\/b> Kinder & Jugend — Kinderbetreuung<br><b>Distanz:<\/b> 1980 m<br><b>Website:<\/b> https:\/\/www.regensburg.de\/leben\/familien\/kinderbetreuung\/kindergaerten\/70031\/staedtische-kindertagesstaette-gewerbepark.html<br><b>Wikipedia:<\/b> <br><b>Telefon:<\/b> ", "tessellate": -1, "extrude": 0, "visibility": -1 }, "geometry": { "type": "Point", "coordinates": [ 12.1306953, 49.0327379 ] } },
{ "type": "Feature", "properties": { "Name": "Kindernest Schabernack", "description": "<b>Kategorie:<\/b> Kinder & Jugend — Kinderbetreuung<br><b>Distanz:<\/b> 1591 m<br><b>Website:<\/b> <br><b>Wikipedia:<\/b> <br><b>Telefon:<\/b> ", "tessellate": -1, "extrude": 0, "visibility": -1 }, "geometry": { "type": "Point", "coordinates": [ 12.0885192, 49.0203982 ] } },
{ "type": "Feature", "properties": { "Name": "Kinderhaus Pestalozzi", "description": "<b>Kategorie:<\/b> Kinder & Jugend — Kinderbetreuung<br><b>Distanz:<\/b> 1563 m<br><b>Website:<\/b> <br><b>Wikipedia:<\/b> <br><b>Telefon:<\/b> ", "tessellate": -1, "extrude": 0, "visibility": -1 }, "geometry": { "type": "Point", "coordinates": [ 12.1175132, 49.0078752 ] } },
{ "type": "Feature", "properties": { "Name": "BRK-Kinderhaus \"Am Kunstpark\"", "description": "<b>Kategorie:<\/b> Kinder & Jugend — Kindergarten<br><b>Distanz:<\/b> 1401 m<br><b>Website:<\/b> https:\/\/www.brk-regensburg.de\/leistungen\/kinderhaeuser\/am-kunstpark-regensburg\/<br><b>Wikipedia:<\/b> <br><b>Telefon:<\/b> +49 941 788 358 0", "tessellate": -1, "extrude": 0, "visibility": -1 }, "geometry": { "type": "Point", "coordinates": [ 12.1204347, 49.0104218 ] } },
{ "type": "Feature", "properties": { "Name": "Kinderzimmer", "description": "<b>Kategorie:<\/b> Kinder & Jugend — Kinderbetreuung<br><b>Distanz:<\/b> 1057 m<br><b>Website:<\/b> <br><b>Wikipedia:<\/b> <br><b>Telefon:<\/b> ", "tessellate": -1, "extrude": 0, "visibility": -1 }, "geometry": { "type": "Point", "coordinates": [ 12.097393, 49.0167354 ] } },
{ "type": "Feature", "properties": { "Name": "Spielplatz Josefssiedlung", "description": "<b>Kategorie:<\/b> Kinder & Jugend — Spielplatz<br><b>Distanz:<\/b> 1318 m<br><b>Website:<\/b> <br><b>Wikipedia:<\/b> <br><b>Telefon:<\/b> ", "tessellate": -1, "extrude": 0, "visibility": -1 }, "geometry": { "type": "Point", "coordinates": [ 12.1111296, 49.0329162 ] } },
{ "type": "Feature", "properties": { "Name": "Spielplatz Hans-Hayder-Straße", "description": "<b>Kategorie:<\/b> Kinder & Jugend — Spielplatz<br><b>Distanz:<\/b> 1371 m<br><b>Website:<\/b> <br><b>Wikipedia:<\/b> <br><b>Telefon:<\/b> ", "tessellate": -1, "extrude": 0, "visibility": -1 }, "geometry": { "type": "Point", "coordinates": [ 12.1104843, 49.0334067 ] } },
{ "type": "Feature", "properties": { "Name": "Spielplatz Brahmsstraße", "description": "<b>Kategorie:<\/b> Kinder & Jugend — Spielplatz<br><b>Distanz:<\/b> 1976 m<br><b>Website:<\/b> <br><b>Wikipedia:<\/b> <br><b>Telefon:<\/b> ", "tessellate": -1, "extrude": 0, "visibility": -1 }, "geometry": { "type": "Point", "coordinates": [ 12.1059014, 49.0035496 ] } },
{ "type": "Feature", "properties": { "Name": "Kindergarten St. Wolfgang 1", "description": "<b>Kategorie:<\/b> Kinder & Jugend — Kindergarten<br><b>Distanz:<\/b> 2600 m<br><b>Website:<\/b> https:\/\/www.wolfgangskirche-regensburg.de\/kiga-st-wolfgang-1\/<br><b>Wikipedia:<\/b> <br><b>Telefon:<\/b> +49 941 93415", "tessellate": -1, "extrude": 0, "visibility": -1 }, "geometry": { "type": "Point", "coordinates": [ 12.0826667, 49.0063317 ] } },
{ "type": "Feature", "properties": { "Name": "Porta praetoria", "description": "<b>Kategorie:<\/b> Kultur & Geschichte — Attraktion<br><b>Distanz:<\/b>  859 m<br><b>Website:<\/b> <br><b>Wikipedia:<\/b> de:Porta praetoria (Regensburg)<br><b>Telefon:<\/b> ", "tessellate": -1, "extrude": 0, "visibility": -1 }, "geometry": { "type": "Point", "coordinates": [ 12.0985841, 49.0201321 ] } },
{ "type": "Feature", "properties": { "Name": "Garbo", "description": "<b>Kategorie:<\/b> Kultur & Geschichte — Kino<br><b>Distanz:<\/b> 1452 m<br><b>Website:<\/b> https:\/\/www.altstadtkinos.de\/<br><b>Wikipedia:<\/b> <br><b>Telefon:<\/b> +49 941 57586", "tessellate": -1, "extrude": 0, "visibility": -1 }, "geometry": { "type": "Point", "coordinates": [ 12.0904046, 49.0206578 ] } },
{ "type": "Feature", "properties": { "Name": "Theater am Haidplatz", "description": "<b>Kategorie:<\/b> Kultur & Geschichte — Theater<br><b>Distanz:<\/b> 1232 m<br><b>Website:<\/b> https:\/\/www.theater-regensburg.de\/haus\/spielstaetten\/theater-am-haidplatz.html<br><b>Wikipedia:<\/b> <br><b>Telefon:<\/b> +49 941 5071415", "tessellate": -1, "extrude": 0, "visibility": -1 }, "geometry": { "type": "Point", "coordinates": [ 12.0934351, 49.0203263 ] } },
{ "type": "Feature", "properties": { "Name": "Turmtheater", "description": "<b>Kategorie:<\/b> Kultur & Geschichte — Theater<br><b>Distanz:<\/b> 1010 m<br><b>Website:<\/b> https:\/\/www.regensburgerturmtheater.de<br><b>Wikipedia:<\/b> <br><b>Telefon:<\/b> +49 941 562233", "tessellate": -1, "extrude": 0, "visibility": -1 }, "geometry": { "type": "Point", "coordinates": [ 12.0965062, 49.0200942 ] } },
{ "type": "Feature", "properties": { "Name": "Historischer Hafenkran", "description": "<b>Kategorie:<\/b> Kultur & Geschichte — Attraktion<br><b>Distanz:<\/b>  240 m<br><b>Website:<\/b> <br><b>Wikipedia:<\/b> <br><b>Telefon:<\/b> ", "tessellate": -1, "extrude": 0, "visibility": -1 }, "geometry": { "type": "Point", "coordinates": [ 12.1116825, 49.0191522 ] } },
{ "type": "Feature", "properties": { "Name": "document Schnupftabakfabrik", "description": "<b>Kategorie:<\/b> Kultur & Geschichte — Museum<br><b>Distanz:<\/b> 1260 m<br><b>Website:<\/b> https:\/\/www.regensburg.de\/kultur\/museen-in-regensburg\/staedtische-museen\/document-schnupftabakfabrik\/39090<br><b>Wikipedia:<\/b> <br><b>Telefon:<\/b> ", "tessellate": -1, "extrude": 0, "visibility": -1 }, "geometry": { "type": "Point", "coordinates": [ 12.0935165, 49.0183651 ] } },
{ "type": "Feature", "properties": { "Name": "Reichstagsmuseum", "description": "<b>Kategorie:<\/b> Kultur & Geschichte — Museum<br><b>Distanz:<\/b> 1171 m<br><b>Website:<\/b> https:\/\/www.regensburg.de\/kultur\/museen-in-regensburg\/staedtische-museen\/document-reichstag<br><b>Wikipedia:<\/b> <br><b>Telefon:<\/b> ", "tessellate": -1, "extrude": 0, "visibility": -1 }, "geometry": { "type": "Point", "coordinates": [ 12.0942746, 49.0202506 ] } },
{ "type": "Feature", "properties": { "Name": "Römermauer (Castra Regina)", "description": "<b>Kategorie:<\/b> Kultur & Geschichte — Attraktion<br><b>Distanz:<\/b>  954 m<br><b>Website:<\/b> <br><b>Wikipedia:<\/b> <br><b>Telefon:<\/b> ", "tessellate": -1, "extrude": 0, "visibility": -1 }, "geometry": { "type": "Point", "coordinates": [ 12.1008401, 49.0151315 ] } },
{ "type": "Feature", "properties": { "Name": "Römermauer (Castra Regina)", "description": "<b>Kategorie:<\/b> Kultur & Geschichte — Attraktion<br><b>Distanz:<\/b>  811 m<br><b>Website:<\/b> <br><b>Wikipedia:<\/b> <br><b>Telefon:<\/b> ", "tessellate": -1, "extrude": 0, "visibility": -1 }, "geometry": { "type": "Point", "coordinates": [ 12.1011964, 49.0168618 ] } },
{ "type": "Feature", "properties": { "Name": "Besucherzentrum Welterbe", "description": "<b>Kategorie:<\/b> Kultur & Geschichte — Museum<br><b>Distanz:<\/b>  941 m<br><b>Website:<\/b> https:\/\/www.regensburg.de\/welterbe\/besucherzentrum<br><b>Wikipedia:<\/b> <br><b>Telefon:<\/b> +49 941 5075410", "tessellate": -1, "extrude": 0, "visibility": -1 }, "geometry": { "type": "Point", "coordinates": [ 12.0973747, 49.021075 ] } },
{ "type": "Feature", "properties": { "Name": "Kinos im Andreasstadel", "description": "<b>Kategorie:<\/b> Kultur & Geschichte — Kino<br><b>Distanz:<\/b>  793 m<br><b>Website:<\/b> http:\/\/www.kinos-im-andreasstadel.de\/<br><b>Wikipedia:<\/b> <br><b>Telefon:<\/b> +49 941 89799169", "tessellate": -1, "extrude": 0, "visibility": -1 }, "geometry": { "type": "Point", "coordinates": [ 12.1005673, 49.0243123 ] } },
{ "type": "Feature", "properties": { "Name": "Dampflokomotive der Walhallabahn", "description": "<b>Kategorie:<\/b> Kultur & Geschichte — Attraktion<br><b>Distanz:<\/b> 1151 m<br><b>Website:<\/b> <br><b>Wikipedia:<\/b> <br><b>Telefon:<\/b> ", "tessellate": -1, "extrude": 0, "visibility": -1 }, "geometry": { "type": "Point", "coordinates": [ 12.096711, 49.026379 ] } },
{ "type": "Feature", "properties": { "Name": "Domschatzmuseum", "description": "<b>Kategorie:<\/b> Kultur & Geschichte — Museum<br><b>Distanz:<\/b>  865 m<br><b>Website:<\/b> https:\/\/www.domschatz-regensburg.de\/<br><b>Wikipedia:<\/b> de:Bistumsmuseen Regensburg<br><b>Telefon:<\/b> +49 941 57645", "tessellate": -1, "extrude": 0, "visibility": -1 }, "geometry": { "type": "Point", "coordinates": [ 12.0985806, 49.0197936 ] } },
{ "type": "Feature", "properties": { "Name": "Junges Theater", "description": "<b>Kategorie:<\/b> Kultur & Geschichte — Theater<br><b>Distanz:<\/b> 1550 m<br><b>Website:<\/b> <br><b>Wikipedia:<\/b> <br><b>Telefon:<\/b> ", "tessellate": -1, "extrude": 0, "visibility": -1 }, "geometry": { "type": "Point", "coordinates": [ 12.0895853, 49.0179607 ] } },
{ "type": "Feature", "properties": { "Name": "document Niedermünster", "description": "<b>Kategorie:<\/b> Kultur & Geschichte — Attraktion<br><b>Distanz:<\/b>  733 m<br><b>Website:<\/b> https:\/\/www.regensburg.de\/museen\/unsere-museen\/documente\/document-niedermuenster<br><b>Wikipedia:<\/b> de:Document Niedermünster<br><b>Telefon:<\/b> +49 941 5971662", "tessellate": -1, "extrude": 0, "visibility": -1 }, "geometry": { "type": "Point", "coordinates": [ 12.1004803, 49.0195843 ] } },
{ "type": "Feature", "properties": { "Name": "Diözesanzentrum Obermünster", "description": "<b>Kategorie:<\/b> Kultur & Geschichte — Museum<br><b>Distanz:<\/b> 1233 m<br><b>Website:<\/b> https:\/\/www.bistum-regensburg.de\/bistum\/einrichtungen-a-z\/dioezesanzentrum-obermuenster\/<br><b>Wikipedia:<\/b> <br><b>Telefon:<\/b> +49 941 5972249", "tessellate": -1, "extrude": 0, "visibility": -1 }, "geometry": { "type": "Point", "coordinates": [ 12.0953277, 49.0159094 ] } },
{ "type": "Feature", "properties": { "Name": "Regensburger Bauerntheater", "description": "<b>Kategorie:<\/b> Kultur & Geschichte — Theater<br><b>Distanz:<\/b> 3395 m<br><b>Website:<\/b> http:\/\/www.regensburger-bauerntheater.de\/<br><b>Wikipedia:<\/b> <br><b>Telefon:<\/b> +49 941 85958", "tessellate": -1, "extrude": 0, "visibility": -1 }, "geometry": { "type": "Point", "coordinates": [ 12.0780496, 48.9991063 ] } },
{ "type": "Feature", "properties": { "Name": "Städtische Galerie im Leeren Beutel", "description": "<b>Kategorie:<\/b> Kultur & Geschichte — Galerie<br><b>Distanz:<\/b>  609 m<br><b>Website:<\/b> https:\/\/www.regensburg.de\/kultur\/museen\/alle-museen\/staedtische-galerie-im-leeren-beutel<br><b>Wikipedia:<\/b> <br><b>Telefon:<\/b> +49 941 507-1442", "tessellate": -1, "extrude": 0, "visibility": -1 }, "geometry": { "type": "Point", "coordinates": [ 12.1029067, 49.0184778 ] } },
{ "type": "Feature", "properties": { "Name": "FilmGalerie - Kino im Leeren Beutel", "description": "<b>Kategorie:<\/b> Kultur & Geschichte — Kino<br><b>Distanz:<\/b>  588 m<br><b>Website:<\/b> https:\/\/www.kinoheld.de\/kino-regensburg\/filmgalerie-im-leeren-beutel\/shows\/movies<br><b>Wikipedia:<\/b> <br><b>Telefon:<\/b> +49 941 2984563", "tessellate": -1, "extrude": 0, "visibility": -1 }, "geometry": { "type": "Point", "coordinates": [ 12.1032998, 49.0184161 ] } },
{ "type": "Feature", "properties": { "Name": "Ostentor-Kino", "description": "<b>Kategorie:<\/b> Kultur & Geschichte — Kino<br><b>Distanz:<\/b>  355 m<br><b>Website:<\/b> https:\/\/www.altstadtkinos.de\/<br><b>Wikipedia:<\/b> <br><b>Telefon:<\/b> +49 941 791974", "tessellate": -1, "extrude": 0, "visibility": -1 }, "geometry": { "type": "Point", "coordinates": [ 12.1096829, 49.0179164 ] } },
{ "type": "Feature", "properties": { "Name": "Golfmuseum Regensburg", "description": "<b>Kategorie:<\/b> Kultur & Geschichte — Museum<br><b>Distanz:<\/b> 1029 m<br><b>Website:<\/b> https:\/\/www.golfmuseum.de\/<br><b>Wikipedia:<\/b> <br><b>Telefon:<\/b> +49 941 51074", "tessellate": -1, "extrude": 0, "visibility": -1 }, "geometry": { "type": "Point", "coordinates": [ 12.0963536, 49.0196085 ] } },
{ "type": "Feature", "properties": { "Name": "ARTIFICIUM RATISBONA", "description": "<b>Kategorie:<\/b> Kultur & Geschichte — Galerie<br><b>Distanz:<\/b> 1048 m<br><b>Website:<\/b> <br><b>Wikipedia:<\/b> <br><b>Telefon:<\/b> ", "tessellate": -1, "extrude": 0, "visibility": -1 }, "geometry": { "type": "Point", "coordinates": [ 12.0960375, 49.0198073 ] } },
{ "type": "Feature", "properties": { "Name": "Galerie Bild & Rahmen", "description": "<b>Kategorie:<\/b> Kultur & Geschichte — Galerie<br><b>Distanz:<\/b> 1118 m<br><b>Website:<\/b> <br><b>Wikipedia:<\/b> <br><b>Telefon:<\/b> ", "tessellate": -1, "extrude": 0, "visibility": -1 }, "geometry": { "type": "Point", "coordinates": [ 12.0953097, 49.0189196 ] } },
{ "type": "Feature", "properties": { "Name": "Akademietheater Regensburg", "description": "<b>Kategorie:<\/b> Kultur & Geschichte — Theater<br><b>Distanz:<\/b> 1588 m<br><b>Website:<\/b> https:\/\/www.adk-bayern.com\/akademietheater\/akademietheater-1\/akademietheater<br><b>Wikipedia:<\/b> <br><b>Telefon:<\/b> ", "tessellate": -1, "extrude": 0, "visibility": -1 }, "geometry": { "type": "Point", "coordinates": [ 12.0886568, 49.0195614 ] } },
{ "type": "Feature", "properties": { "Name": "Kunstkontor Westnerwacht", "description": "<b>Kategorie:<\/b> Kultur & Geschichte — Galerie<br><b>Distanz:<\/b> 1554 m<br><b>Website:<\/b> https:\/\/kunstkontor-westnerwacht.de<br><b>Wikipedia:<\/b> <br><b>Telefon:<\/b> ", "tessellate": -1, "extrude": 0, "visibility": -1 }, "geometry": { "type": "Point", "coordinates": [ 12.0890015, 49.021433 ] } },
{ "type": "Feature", "properties": { "Name": "Glas 49", "description": "<b>Kategorie:<\/b> Kultur & Geschichte — Galerie<br><b>Distanz:<\/b> 1477 m<br><b>Website:<\/b> http:\/\/glaskunst-zanella.de\/<br><b>Wikipedia:<\/b> <br><b>Telefon:<\/b> ", "tessellate": -1, "extrude": 0, "visibility": -1 }, "geometry": { "type": "Point", "coordinates": [ 12.0900895, 49.0201933 ] } },
{ "type": "Feature", "properties": { "Name": "Art Affair", "description": "<b>Kategorie:<\/b> Kultur & Geschichte — Galerie<br><b>Distanz:<\/b> 1197 m<br><b>Website:<\/b> https:\/\/art-affair.net\/<br><b>Wikipedia:<\/b> <br><b>Telefon:<\/b> ", "tessellate": -1, "extrude": 0, "visibility": -1 }, "geometry": { "type": "Point", "coordinates": [ 12.0939474, 49.0200182 ] } },
{ "type": "Feature", "properties": { "Name": "Kuss Künsterlhaus", "description": "<b>Kategorie:<\/b> Kultur & Geschichte — Galerie<br><b>Distanz:<\/b> 1094 m<br><b>Website:<\/b> <br><b>Wikipedia:<\/b> <br><b>Telefon:<\/b> ", "tessellate": -1, "extrude": 0, "visibility": -1 }, "geometry": { "type": "Point", "coordinates": [ 12.0971219, 49.0258141 ] } },
{ "type": "Feature", "properties": { "Name": "Kunstkabinett Galerie Lesmeister", "description": "<b>Kategorie:<\/b> Kultur & Geschichte — Galerie<br><b>Distanz:<\/b> 1133 m<br><b>Website:<\/b> <br><b>Wikipedia:<\/b> <br><b>Telefon:<\/b> ", "tessellate": -1, "extrude": 0, "visibility": -1 }, "geometry": { "type": "Point", "coordinates": [ 12.0949898, 49.0192939 ] } },
{ "type": "Feature", "properties": { "Name": "Art Trafik", "description": "<b>Kategorie:<\/b> Kultur & Geschichte — Galerie<br><b>Distanz:<\/b>  985 m<br><b>Website:<\/b> <br><b>Wikipedia:<\/b> <br><b>Telefon:<\/b> ", "tessellate": -1, "extrude": 0, "visibility": -1 }, "geometry": { "type": "Point", "coordinates": [ 12.1000429, 49.0153037 ] } },
{ "type": "Feature", "properties": { "Name": "DEZ-Bühne", "description": "<b>Kategorie:<\/b> Kultur & Geschichte — Theater<br><b>Distanz:<\/b>  670 m<br><b>Website:<\/b> https:\/\/www.dezbuehne.de\/<br><b>Wikipedia:<\/b> <br><b>Telefon:<\/b> ", "tessellate": -1, "extrude": 0, "visibility": -1 }, "geometry": { "type": "Point", "coordinates": [ 12.1174392, 49.024805 ] } },
{ "type": "Feature", "properties": { "Name": "Ausstellungsraum Neuer Kunstverein Regensburg", "description": "<b>Kategorie:<\/b> Kultur & Geschichte — Galerie<br><b>Distanz:<\/b>  660 m<br><b>Website:<\/b> https:\/\/www.neuerkunstverein.de\/index.php\/ausstellungsraum.html<br><b>Wikipedia:<\/b> <br><b>Telefon:<\/b> ", "tessellate": -1, "extrude": 0, "visibility": -1 }, "geometry": { "type": "Point", "coordinates": [ 12.1021068, 49.018511 ] } },
{ "type": "Feature", "properties": { "Name": "Antoniushaus", "description": "<b>Kategorie:<\/b> Kultur & Geschichte — Theater<br><b>Distanz:<\/b> 1428 m<br><b>Website:<\/b> <br><b>Wikipedia:<\/b> <br><b>Telefon:<\/b> ", "tessellate": -1, "extrude": 0, "visibility": -1 }, "geometry": { "type": "Point", "coordinates": [ 12.1093154, 49.0082558 ] } },
{ "type": "Feature", "properties": { "Name": "Dackelmuseum", "description": "<b>Kategorie:<\/b> Kultur & Geschichte — Museum<br><b>Distanz:<\/b>  919 m<br><b>Website:<\/b> https:\/\/www.dackelmuseum.de\/<br><b>Wikipedia:<\/b> <br><b>Telefon:<\/b> +49 941 30771773", "tessellate": -1, "extrude": 0, "visibility": -1 }, "geometry": { "type": "Point", "coordinates": [ 12.097701, 49.0205318 ] } },
{ "type": "Feature", "properties": { "Name": "Walhalla of Whisky", "description": "<b>Kategorie:<\/b> Kultur & Geschichte — Museum<br><b>Distanz:<\/b> 1437 m<br><b>Website:<\/b> https:\/\/walhallaofwhisky.de\/<br><b>Wikipedia:<\/b> <br><b>Telefon:<\/b> ", "tessellate": -1, "extrude": 0, "visibility": -1 }, "geometry": { "type": "Point", "coordinates": [ 12.0954097, 49.0295576 ] } },
{ "type": "Feature", "properties": { "Name": "Brückenturm-Museum", "description": "<b>Kategorie:<\/b> Kultur & Geschichte — Museum<br><b>Distanz:<\/b>  968 m<br><b>Website:<\/b> <br><b>Wikipedia:<\/b> <br><b>Telefon:<\/b> ", "tessellate": -1, "extrude": 0, "visibility": -1 }, "geometry": { "type": "Point", "coordinates": [ 12.097008, 49.0212001 ] } },
{ "type": "Feature", "properties": { "Name": "Kreuzkapelle im Bach", "description": "<b>Kategorie:<\/b> Kultur & Geschichte — Attraktion<br><b>Distanz:<\/b> 1212 m<br><b>Website:<\/b> <br><b>Wikipedia:<\/b> <br><b>Telefon:<\/b> ", "tessellate": -1, "extrude": 0, "visibility": -1 }, "geometry": { "type": "Point", "coordinates": [ 12.0946964, 49.0173087 ] } },
{ "type": "Feature", "properties": { "Name": "Kunst Paper Art", "description": "<b>Kategorie:<\/b> Kultur & Geschichte — Galerie<br><b>Distanz:<\/b> 1231 m<br><b>Website:<\/b> <br><b>Wikipedia:<\/b> <br><b>Telefon:<\/b> ", "tessellate": -1, "extrude": 0, "visibility": -1 }, "geometry": { "type": "Point", "coordinates": [ 12.0935304, 49.0197337 ] } },
{ "type": "Feature", "properties": { "Name": "Pappelallee", "description": "<b>Kategorie:<\/b> Kultur & Geschichte — Attraktion<br><b>Distanz:<\/b> 1667 m<br><b>Website:<\/b> <br><b>Wikipedia:<\/b> <br><b>Telefon:<\/b> ", "tessellate": -1, "extrude": 0, "visibility": -1 }, "geometry": { "type": "Point", "coordinates": [ 12.0881903, 49.0248947 ] } },
{ "type": "Feature", "properties": { "Name": "Sallerner Berg", "description": "<b>Kategorie:<\/b> Natur & Landschaft — Natur-Feature (alle)<br><b>Distanz:<\/b> 2340 m<br><b>Website:<\/b> <br><b>Wikipedia:<\/b> <br><b>Telefon:<\/b> ", "tessellate": -1, "extrude": 0, "visibility": -1 }, "geometry": { "type": "Point", "coordinates": [ 12.1074857, 49.042046 ] } },
{ "type": "Feature", "properties": { "Name": "Dreifaltigkeitsberg", "description": "<b>Kategorie:<\/b> Natur & Landschaft — Natur-Feature (alle)<br><b>Distanz:<\/b> 2034 m<br><b>Website:<\/b> <br><b>Wikipedia:<\/b> de:Dreifaltigkeitsberg (Regensburg)<br><b>Telefon:<\/b> ", "tessellate": -1, "extrude": 0, "visibility": -1 }, "geometry": { "type": "Point", "coordinates": [ 12.0917764, 49.0347559 ] } },
{ "type": "Feature", "properties": { "Name": "Dreifaltigkeitsberg", "description": "<b>Kategorie:<\/b> Natur & Landschaft — Aussichtspunkt<br><b>Distanz:<\/b> 1481 m<br><b>Website:<\/b> <br><b>Wikipedia:<\/b> <br><b>Telefon:<\/b> ", "tessellate": -1, "extrude": 0, "visibility": -1 }, "geometry": { "type": "Point", "coordinates": [ 12.096645, 49.0309559 ] } },
{ "type": "Feature", "properties": { "Name": "Nordturm", "description": "<b>Kategorie:<\/b> Natur & Landschaft — Aussichtspunkt<br><b>Distanz:<\/b> 1361 m<br><b>Website:<\/b> <br><b>Wikipedia:<\/b> <br><b>Telefon:<\/b> ", "tessellate": -1, "extrude": 0, "visibility": -1 }, "geometry": { "type": "Point", "coordinates": [ 12.0920654, 49.018457 ] } },
{ "type": "Feature", "properties": { "Name": "Park der Generationen", "description": "<b>Kategorie:<\/b> Natur & Landschaft — Natur-Feature (alle)<br><b>Distanz:<\/b> 2966 m<br><b>Website:<\/b> <br><b>Wikipedia:<\/b> <br><b>Telefon:<\/b> ", "tessellate": -1, "extrude": 0, "visibility": -1 }, "geometry": { "type": "Point", "coordinates": [ 12.0858075, 49.0423722 ] } }
]
}
