{"type": "FeatureCollection", "features": [{"type": "Feature", "properties": {"Name": "JH 247 — Jugendherberge Mühldorf", "description": "<b>JH Nr:</b> 247<br><b>Name:</b> Jugendherberge Mühldorf<br><b>Ort:</b> Mühldorf a. Inn", "timestamp": null, "begin": null, "end": null, "altitudeMode": null, "tessellate": -1, "extrude": 0, "visibility": -1, "drawOrder": null, "icon": null, "category_group": "JH"}, "geometry": {"type": "Point", "coordinates": [12.5348895, 48.2391052]}}, {"type": "Feature", "properties": {"Name": "Stadtbücherei", "description": "<b>Kategorie:</b> Bildungsinfrastruktur — Bibliothek<br><b>Distanz:</b>  646 m<br><b>Website:</b> <br><b>Telefon:</b> ", "timestamp": null, "begin": null, "end": null, "altitudeMode": null, "tessellate": -1, "extrude": 0, "visibility": -1, "drawOrder": null, "icon": null, "category_group": "Bildungsinfrastruktur"}, "geometry": {"type": "Point", "coordinates": [12.5269595, 48.2414863]}}, {"type": "Feature", "properties": {"Name": "VHS", "description": "<b>Kategorie:</b> Bildungsinfrastruktur — Hochschule<br><b>Distanz:</b> 1965 m<br><b>Website:</b> <br><b>Telefon:</b> ", "timestamp": null, "begin": null, "end": null, "altitudeMode": null, "tessellate": -1, "extrude": 0, "visibility": -1, "drawOrder": null, "icon": null, "category_group": "Bildungsinfrastruktur"}, "geometry": {"type": "Point", "coordinates": [12.5269032, 48.25594]}}, {"type": "Feature", "properties": {"Name": "Jugendzentrum M24", "description": "<b>Kategorie:</b> Bildungsinfrastruktur — Gemeindezentrum<br><b>Distanz:</b> 1487 m<br><b>Website:</b> <br><b>Telefon:</b> ", "timestamp": null, "begin": null, "end": null, "altitudeMode": null, "tessellate": -1, "extrude": 0, "visibility": -1, "drawOrder": null, "icon": null, "category_group": "Bildungsinfrastruktur"}, "geometry": {"type": "Point", "coordinates": [12.5187414, 48.247001]}}, {"type": "Feature", "properties": {"Name": "Katholische Jugendstelle im Landkreis Mühldorf", "description": "<b>Kategorie:</b> Bildungsinfrastruktur — Gemeindezentrum<br><b>Distanz:</b>  617 m<br><b>Website:</b> https://www.jugendstelle-muehldorf.de/<br><b>Telefon:</b> ", "timestamp": null, "begin": null, "end": null, "altitudeMode": null, "tessellate": -1, "extrude": 0, "visibility": -1, "drawOrder": null, "icon": null, "category_group": "Bildungsinfrastruktur"}, "geometry": {"type": "Point", "coordinates": [12.5266881, 48.239993]}}, {"type": "Feature", "properties": {"Name": "SV Mühldorf", "description": "<b>Kategorie:</b> Freizeit & Sport — Sportzentrum<br><b>Distanz:</b> 2177 m<br><b>Website:</b> <br><b>Telefon:</b> ", "timestamp": null, "begin": null, "end": null, "altitudeMode": null, "tessellate": -1, "extrude": 0, "visibility": -1, "drawOrder": null, "icon": null, "category_group": "Freizeit & Sport"}, "geometry": {"type": "Point", "coordinates": [12.506783, 48.2446264]}}, {"type": "Feature", "properties": {"Name": "Atlantis Bowling", "description": "<b>Kategorie:</b> Freizeit & Sport — Sportzentrum<br><b>Distanz:</b> 1809 m<br><b>Website:</b> <br><b>Telefon:</b> +49 8631 1853155", "timestamp": null, "begin": null, "end": null, "altitudeMode": null, "tessellate": -1, "extrude": 0, "visibility": -1, "drawOrder": null, "icon": null, "category_group": "Freizeit & Sport"}, "geometry": {"type": "Point", "coordinates": [12.518527, 48.251143]}}, {"type": "Feature", "properties": {"Name": "Twin Taekwondo", "description": "<b>Kategorie:</b> Freizeit & Sport — Sportzentrum<br><b>Distanz:</b> 1372 m<br><b>Website:</b> <br><b>Telefon:</b> ", "timestamp": null, "begin": null, "end": null, "altitudeMode": null, "tessellate": -1, "extrude": 0, "visibility": -1, "drawOrder": null, "icon": null, "category_group": "Freizeit & Sport"}, "geometry": {"type": "Point", "coordinates": [12.520439, 48.2467874]}}, {"type": "Feature", "properties": {"Name": "Verkehrs- und Kulturbüro", "description": "<b>Kategorie:</b> Information — Besucherinformation<br><b>Distanz:</b> 1007 m<br><b>Website:</b> <br><b>Telefon:</b> ", "timestamp": null, "begin": null, "end": null, "altitudeMode": null, "tessellate": -1, "extrude": 0, "visibility": -1, "drawOrder": null, "icon": null, "category_group": "Information"}, "geometry": {"type": "Point", "coordinates": [12.522671, 48.2430297]}}, {"type": "Feature", "properties": {"Name": "ABS38-Infocenter", "description": "<b>Kategorie:</b> Information — Besucherinformation<br><b>Distanz:</b> 1456 m<br><b>Website:</b> <br><b>Telefon:</b> ", "timestamp": null, "begin": null, "end": null, "altitudeMode": null, "tessellate": -1, "extrude": 0, "visibility": -1, "drawOrder": null, "icon": null, "category_group": "Information"}, "geometry": {"type": "Point", "coordinates": [12.5203288, 48.2478623]}}, {"type": "Feature", "properties": {"Name": "Natur Inn Bewegung", "description": "<b>Kategorie:</b> Information — Besucherinformation<br><b>Distanz:</b> 1207 m<br><b>Website:</b> <br><b>Telefon:</b> ", "timestamp": null, "begin": null, "end": null, "altitudeMode": null, "tessellate": -1, "extrude": 0, "visibility": -1, "drawOrder": null, "icon": null, "category_group": "Information"}, "geometry": {"type": "Point", "coordinates": [12.518659, 48.2394649]}}, {"type": "Feature", "properties": {"Name": "Natur Inn Bewegung", "description": "<b>Kategorie:</b> Information — Besucherinformation<br><b>Distanz:</b> 1219 m<br><b>Website:</b> <br><b>Telefon:</b> ", "timestamp": null, "begin": null, "end": null, "altitudeMode": null, "tessellate": -1, "extrude": 0, "visibility": -1, "drawOrder": null, "icon": null, "category_group": "Information"}, "geometry": {"type": "Point", "coordinates": [12.5185017, 48.2396019]}}, {"type": "Feature", "properties": {"Name": "Natur Inn Bewegung", "description": "<b>Kategorie:</b> Information — Besucherinformation<br><b>Distanz:</b> 1043 m<br><b>Website:</b> <br><b>Telefon:</b> ", "timestamp": null, "begin": null, "end": null, "altitudeMode": null, "tessellate": -1, "extrude": 0, "visibility": -1, "drawOrder": null, "icon": null, "category_group": "Information"}, "geometry": {"type": "Point", "coordinates": [12.5246539, 48.2326901]}}, {"type": "Feature", "properties": {"Name": "Natur Inn Bewegung", "description": "<b>Kategorie:</b> Information — Besucherinformation<br><b>Distanz:</b>  745 m<br><b>Website:</b> <br><b>Telefon:</b> ", "timestamp": null, "begin": null, "end": null, "altitudeMode": null, "tessellate": -1, "extrude": 0, "visibility": -1, "drawOrder": null, "icon": null, "category_group": "Information"}, "geometry": {"type": "Point", "coordinates": [12.5291795, 48.233602]}}, {"type": "Feature", "properties": {"Name": "Natur Inn Bewegung", "description": "<b>Kategorie:</b> Information — Besucherinformation<br><b>Distanz:</b> 1251 m<br><b>Website:</b> <br><b>Telefon:</b> ", "timestamp": null, "begin": null, "end": null, "altitudeMode": null, "tessellate": -1, "extrude": 0, "visibility": -1, "drawOrder": null, "icon": null, "category_group": "Information"}, "geometry": {"type": "Point", "coordinates": [12.5180628, 48.2395329]}}, {"type": "Feature", "properties": {"Name": "Natur Inn Bewegung", "description": "<b>Kategorie:</b> Information — Besucherinformation<br><b>Distanz:</b> 1055 m<br><b>Website:</b> <br><b>Telefon:</b> ", "timestamp": null, "begin": null, "end": null, "altitudeMode": null, "tessellate": -1, "extrude": 0, "visibility": -1, "drawOrder": null, "icon": null, "category_group": "Information"}, "geometry": {"type": "Point", "coordinates": [12.5234764, 48.2334723]}}, {"type": "Feature", "properties": {"Name": "Natur Inn Bewegung", "description": "<b>Kategorie:</b> Information — Besucherinformation<br><b>Distanz:</b> 1526 m<br><b>Website:</b> <br><b>Telefon:</b> ", "timestamp": null, "begin": null, "end": null, "altitudeMode": null, "tessellate": -1, "extrude": 0, "visibility": -1, "drawOrder": null, "icon": null, "category_group": "Information"}, "geometry": {"type": "Point", "coordinates": [12.5171984, 48.2321336]}}, {"type": "Feature", "properties": {"Name": "Innauen und Leitenwälder", "description": "<b>Kategorie:</b> Information — Besucherinformation<br><b>Distanz:</b>  520 m<br><b>Website:</b> <br><b>Telefon:</b> ", "timestamp": null, "begin": null, "end": null, "altitudeMode": null, "tessellate": -1, "extrude": 0, "visibility": -1, "drawOrder": null, "icon": null, "category_group": "Information"}, "geometry": {"type": "Point", "coordinates": [12.5279075, 48.2387482]}}, {"type": "Feature", "properties": {"Name": "Innauen und Leitenwälder", "description": "<b>Kategorie:</b> Information — Besucherinformation<br><b>Distanz:</b> 1095 m<br><b>Website:</b> <br><b>Telefon:</b> ", "timestamp": null, "begin": null, "end": null, "altitudeMode": null, "tessellate": -1, "extrude": 0, "visibility": -1, "drawOrder": null, "icon": null, "category_group": "Information"}, "geometry": {"type": "Point", "coordinates": [12.520306, 48.2404998]}}, {"type": "Feature", "properties": {"Name": "Theresia-Gerhardinger Kindergarten", "description": "<b>Kategorie:</b> Kinder & Jugend — Kindergarten<br><b>Distanz:</b>  760 m<br><b>Website:</b> <br><b>Telefon:</b> ", "timestamp": null, "begin": null, "end": null, "altitudeMode": null, "tessellate": -1, "extrude": 0, "visibility": -1, "drawOrder": null, "icon": null, "category_group": "Kinder & Jugend"}, "geometry": {"type": "Point", "coordinates": [12.525007, 48.2408669]}}, {"type": "Feature", "properties": {"Name": "Kinderhaus Vierjahreszeiten", "description": "<b>Kategorie:</b> Kinder & Jugend — Kindergarten<br><b>Distanz:</b> 1679 m<br><b>Website:</b> <br><b>Telefon:</b> ", "timestamp": null, "begin": null, "end": null, "altitudeMode": null, "tessellate": -1, "extrude": 0, "visibility": -1, "drawOrder": null, "icon": null, "category_group": "Kinder & Jugend"}, "geometry": {"type": "Point", "coordinates": [12.5266308, 48.253155]}}, {"type": "Feature", "properties": {"Name": "Holzxylophon", "description": "<b>Kategorie:</b> Kinder & Jugend — Spielplatz<br><b>Distanz:</b> 1046 m<br><b>Website:</b> <br><b>Telefon:</b> ", "timestamp": null, "begin": null, "end": null, "altitudeMode": null, "tessellate": -1, "extrude": 0, "visibility": -1, "drawOrder": null, "icon": null, "category_group": "Kinder & Jugend"}, "geometry": {"type": "Point", "coordinates": [12.5246489, 48.2326572]}}, {"type": "Feature", "properties": {"Name": "Barfuß-Pfad", "description": "<b>Kategorie:</b> Kinder & Jugend — Spielplatz<br><b>Distanz:</b> 1055 m<br><b>Website:</b> <br><b>Telefon:</b> ", "timestamp": null, "begin": null, "end": null, "altitudeMode": null, "tessellate": -1, "extrude": 0, "visibility": -1, "drawOrder": null, "icon": null, "category_group": "Kinder & Jugend"}, "geometry": {"type": "Point", "coordinates": [12.5232816, 48.233645]}}, {"type": "Feature", "properties": {"Name": "Kieselstein-Mobile", "description": "<b>Kategorie:</b> Kinder & Jugend — Spielplatz<br><b>Distanz:</b> 1055 m<br><b>Website:</b> <br><b>Telefon:</b> ", "timestamp": null, "begin": null, "end": null, "altitudeMode": null, "tessellate": -1, "extrude": 0, "visibility": -1, "drawOrder": null, "icon": null, "category_group": "Kinder & Jugend"}, "geometry": {"type": "Point", "coordinates": [12.5233946, 48.2335474]}}, {"type": "Feature", "properties": {"Name": "Natur Inn Bewegung", "description": "<b>Kategorie:</b> Kinder & Jugend — Spielplatz<br><b>Distanz:</b> 1247 m<br><b>Website:</b> <br><b>Telefon:</b> ", "timestamp": null, "begin": null, "end": null, "altitudeMode": null, "tessellate": -1, "extrude": 0, "visibility": -1, "drawOrder": null, "icon": null, "category_group": "Kinder & Jugend"}, "geometry": {"type": "Point", "coordinates": [12.5181161, 48.2395453]}}, {"type": "Feature", "properties": {"Name": "Jagdmusseum", "description": "<b>Kategorie:</b> Kultur & Geschichte — Museum<br><b>Distanz:</b>  661 m<br><b>Website:</b> http://www.musseum.de/<br><b>Telefon:</b> ", "timestamp": null, "begin": null, "end": null, "altitudeMode": null, "tessellate": -1, "extrude": 0, "visibility": -1, "drawOrder": null, "icon": null, "category_group": "Kultur & Geschichte"}, "geometry": {"type": "Point", "coordinates": [12.5261392, 48.2401702]}}, {"type": "Feature", "properties": {"Name": "Hollywood am Inn", "description": "<b>Kategorie:</b> Kultur & Geschichte — Kino<br><b>Distanz:</b> 1785 m<br><b>Website:</b> <br><b>Telefon:</b> +49 8631 1841569", "timestamp": null, "begin": null, "end": null, "altitudeMode": null, "tessellate": -1, "extrude": 0, "visibility": -1, "drawOrder": null, "icon": null, "category_group": "Kultur & Geschichte"}, "geometry": {"type": "Point", "coordinates": [12.5186057, 48.2509043]}}, {"type": "Feature", "properties": {"Name": "Kulturschuppn Mühldorf", "description": "<b>Kategorie:</b> Kultur & Geschichte — Theater<br><b>Distanz:</b> 1497 m<br><b>Website:</b> https://kulturschuppn.de/<br><b>Telefon:</b> ", "timestamp": null, "begin": null, "end": null, "altitudeMode": null, "tessellate": -1, "extrude": 0, "visibility": -1, "drawOrder": null, "icon": null, "category_group": "Kultur & Geschichte"}, "geometry": {"type": "Point", "coordinates": [12.5186801, 48.247099]}}, {"type": "Feature", "properties": {"Name": "Sauloch", "description": "<b>Kategorie:</b> Natur & Landschaft — Aussichtspunkt<br><b>Distanz:</b>  742 m<br><b>Website:</b> <br><b>Telefon:</b> ", "timestamp": null, "begin": null, "end": null, "altitudeMode": null, "tessellate": -1, "extrude": 0, "visibility": -1, "drawOrder": null, "icon": null, "category_group": "Natur & Landschaft"}, "geometry": {"type": "Point", "coordinates": [12.5291638, 48.2336358]}}]}