{
"type": "FeatureCollection",
"name": "merged",
"features": [
{ "type": "Feature", "properties": { "Name": "JH 273 — Jugendherberge Burg Trausnitz", "description": "<b>JH Nr:</b> 273<br><b>Name:</b> Jugendherberge Burg Trausnitz<br><b>Ort:</b> Trausnitz", "tessellate": -1, "extrude": 0, "visibility": -1 }, "geometry": { "type": "Point", "coordinates": [ 12.2640231, 49.5205259 ] } },
{ "type": "Feature", "properties": { "Name": "Grundschule Trausnitz", "description": "<b>Kategorie:<\/b> Bildungsinfrastruktur — Schule<br><b>Distanz:<\/b>  446 m<br><b>Wikipedia:<\/b> ", "tessellate": -1, "extrude": 0, "visibility": -1 }, "geometry": { "type": "Point", "coordinates": [ 12.2639965, 49.5245317 ] } },
{ "type": "Feature", "properties": { "Name": "Naturpark Oberpfälzer Wald", "description": "<b>Kategorie:<\/b> Information — Besucherinformation<br><b>Distanz:<\/b>  135 m<br><b>Wikipedia:<\/b> ", "tessellate": -1, "extrude": 0, "visibility": -1 }, "geometry": { "type": "Point", "coordinates": [ 12.2628202, 49.5214587 ] } },
{ "type": "Feature", "properties": { "Name": "Naturpark Oberpfälzer Wald", "description": "<b>Kategorie:<\/b> Information — Besucherinformation<br><b>Distanz:<\/b>  776 m<br><b>Wikipedia:<\/b> ", "tessellate": -1, "extrude": 0, "visibility": -1 }, "geometry": { "type": "Point", "coordinates": [ 12.2590597, 49.514347 ] } },
{ "type": "Feature", "properties": { "Name": "Naturelebnispfad Rittersteig", "description": "<b>Kategorie:<\/b> Information — Besucherinformation<br><b>Distanz:<\/b>  273 m<br><b>Wikipedia:<\/b> ", "tessellate": -1, "extrude": 0, "visibility": -1 }, "geometry": { "type": "Point", "coordinates": [ 12.2613951, 49.5187701 ] } },
{ "type": "Feature", "properties": { "Name": "Blick nach Trausnitz-Tännesberg", "description": "<b>Kategorie:<\/b> Natur & Landschaft — Aussichtspunkt<br><b>Distanz:<\/b> 2115 m<br><b>Wikipedia:<\/b> ", "tessellate": -1, "extrude": 0, "visibility": -1 }, "geometry": { "type": "Point", "coordinates": [ 12.2584915, 49.5018591 ] } },
{ "type": "Feature", "properties": { "Name": "Rossau", "description": "<b>Kategorie:<\/b> Natur & Landschaft — Natur-Feature (alle)<br><b>Distanz:<\/b> 2812 m<br><b>Wikipedia:<\/b> ", "tessellate": -1, "extrude": 0, "visibility": -1 }, "geometry": { "type": "Point", "coordinates": [ 12.233444, 49.5360988 ] } },
{ "type": "Feature", "properties": { "Name": "Büchelberg Westgipfel", "description": "<b>Kategorie:<\/b> Natur & Landschaft — Natur-Feature (alle)<br><b>Distanz:<\/b> 2481 m<br><b>Wikipedia:<\/b> ", "tessellate": -1, "extrude": 0, "visibility": -1 }, "geometry": { "type": "Point", "coordinates": [ 12.2298908, 49.5223811 ] } },
{ "type": "Feature", "properties": { "Name": "Büchelberg Mittelgipfel", "description": "<b>Kategorie:<\/b> Natur & Landschaft — Natur-Feature (alle)<br><b>Distanz:<\/b> 2179 m<br><b>Wikipedia:<\/b> ", "tessellate": -1, "extrude": 0, "visibility": -1 }, "geometry": { "type": "Point", "coordinates": [ 12.2340869, 49.5224595 ] } },
{ "type": "Feature", "properties": { "Name": "Büchelberg Ostgipfel", "description": "<b>Kategorie:<\/b> Natur & Landschaft — Natur-Feature (alle)<br><b>Distanz:<\/b> 1882 m<br><b>Wikipedia:<\/b> ", "tessellate": -1, "extrude": 0, "visibility": -1 }, "geometry": { "type": "Point", "coordinates": [ 12.2387314, 49.5244286 ] } },
{ "type": "Feature", "properties": { "Name": "Habersbühl", "description": "<b>Kategorie:<\/b> Natur & Landschaft — Natur-Feature (alle)<br><b>Distanz:<\/b> 2130 m<br><b>Wikipedia:<\/b> ", "tessellate": -1, "extrude": 0, "visibility": -1 }, "geometry": { "type": "Point", "coordinates": [ 12.2485864, 49.5368233 ] } },
{ "type": "Feature", "properties": { "Name": "Kühberg", "description": "<b>Kategorie:<\/b> Natur & Landschaft — Natur-Feature (alle)<br><b>Distanz:<\/b> 2530 m<br><b>Wikipedia:<\/b> ", "tessellate": -1, "extrude": 0, "visibility": -1 }, "geometry": { "type": "Point", "coordinates": [ 12.2770125, 49.499413 ] } },
{ "type": "Feature", "properties": { "Name": "Am Haselsteig", "description": "<b>Kategorie:<\/b> Natur & Landschaft — Natur-Feature (alle)<br><b>Distanz:<\/b> 1687 m<br><b>Wikipedia:<\/b> ", "tessellate": -1, "extrude": 0, "visibility": -1 }, "geometry": { "type": "Point", "coordinates": [ 12.2732386, 49.5065999 ] } },
{ "type": "Feature", "properties": { "Name": "Vogelherd", "description": "<b>Kategorie:<\/b> Natur & Landschaft — Natur-Feature (alle)<br><b>Distanz:<\/b> 2347 m<br><b>Wikipedia:<\/b> ", "tessellate": -1, "extrude": 0, "visibility": -1 }, "geometry": { "type": "Point", "coordinates": [ 12.256751, 49.4999704 ] } }
]
}
