{"type": "FeatureCollection", "features": [{"type": "Feature", "properties": {"Name": "JH 294 — Jugendherberge Goslar", "description": "<b>JH Nr:</b> 294<br><b>Name:</b> Jugendherberge Goslar<br><b>Ort:</b> Goslar", "timestamp": null, "begin": null, "end": null, "altitudeMode": null, "tessellate": -1, "extrude": 0, "visibility": -1, "drawOrder": null, "icon": null, "category_group": "JH"}, "geometry": {"type": "Point", "coordinates": [10.4191053, 51.8989725]}}, {"type": "Feature", "properties": {"Name": "Center for Digital Technologies (DIGIT)", "description": "<b>Kategorie:</b> Bildungsinfrastruktur — Universität<br><b>Distanz:</b>  911 m<br><b>Website:</b> <br><b>Wikipedia:</b> <br><b>Telefon:</b> ", "timestamp": null, "begin": null, "end": null, "altitudeMode": null, "tessellate": -1, "extrude": 0, "visibility": -1, "drawOrder": null, "icon": null, "category_group": "Bildungsinfrastruktur"}, "geometry": {"type": "Point", "coordinates": [10.4319005, 51.9010829]}}, {"type": "Feature", "properties": {"Name": "Pflegeschulzentrum Goslar", "description": "<b>Kategorie:</b> Bildungsinfrastruktur — Hochschule<br><b>Distanz:</b> 1831 m<br><b>Website:</b> https://www.pflegeschulzentrum-goslar.de/<br><b>Wikipedia:</b> <br><b>Telefon:</b> ", "timestamp": null, "begin": null, "end": null, "altitudeMode": null, "tessellate": -1, "extrude": 0, "visibility": -1, "drawOrder": null, "icon": null, "category_group": "Bildungsinfrastruktur"}, "geometry": {"type": "Point", "coordinates": [10.4455708, 51.9006362]}}, {"type": "Feature", "properties": {"Name": "Stadtbücherei Goslar", "description": "<b>Kategorie:</b> Bildungsinfrastruktur — Bibliothek<br><b>Distanz:</b>  942 m<br><b>Website:</b> https://stadtbibliothek.goslar.de/<br><b>Wikipedia:</b> <br><b>Telefon:</b> ", "timestamp": null, "begin": null, "end": null, "altitudeMode": null, "tessellate": -1, "extrude": 0, "visibility": -1, "drawOrder": null, "icon": null, "category_group": "Bildungsinfrastruktur"}, "geometry": {"type": "Point", "coordinates": [10.4296201, 51.9044002]}}, {"type": "Feature", "properties": {"Name": "MachMit!Haus Goslar", "description": "<b>Kategorie:</b> Bildungsinfrastruktur — Gemeindezentrum<br><b>Distanz:</b> 1068 m<br><b>Website:</b> https://machmit.goslar.de/<br><b>Wikipedia:</b> <br><b>Telefon:</b> ", "timestamp": null, "begin": null, "end": null, "altitudeMode": null, "tessellate": -1, "extrude": 0, "visibility": -1, "drawOrder": null, "icon": null, "category_group": "Bildungsinfrastruktur"}, "geometry": {"type": "Point", "coordinates": [10.4293554, 51.9061838]}}, {"type": "Feature", "properties": {"Name": "Stadtplan Goslar", "description": "<b>Kategorie:</b> Information — Besucherinformation<br><b>Distanz:</b> 1754 m<br><b>Website:</b> <br><b>Wikipedia:</b> <br><b>Telefon:</b> ", "timestamp": null, "begin": null, "end": null, "altitudeMode": null, "tessellate": -1, "extrude": 0, "visibility": -1, "drawOrder": null, "icon": null, "category_group": "Information"}, "geometry": {"type": "Point", "coordinates": [10.4185051, 51.9147323]}}, {"type": "Feature", "properties": {"Name": "Ehrenfriedhof für Soldaten des 1. Weltkrieges", "description": "<b>Kategorie:</b> Information — Besucherinformation<br><b>Distanz:</b> 1837 m<br><b>Website:</b> <br><b>Wikipedia:</b> <br><b>Telefon:</b> ", "timestamp": null, "begin": null, "end": null, "altitudeMode": null, "tessellate": -1, "extrude": 0, "visibility": -1, "drawOrder": null, "icon": null, "category_group": "Information"}, "geometry": {"type": "Point", "coordinates": [10.4149699, 51.9152867]}}, {"type": "Feature", "properties": {"Name": "Naturpark Harz - Wandergebiet Granetalsperre", "description": "<b>Kategorie:</b> Information — Besucherinformation<br><b>Distanz:</b> 2332 m<br><b>Website:</b> <br><b>Wikipedia:</b> <br><b>Telefon:</b> ", "timestamp": null, "begin": null, "end": null, "altitudeMode": null, "tessellate": -1, "extrude": 0, "visibility": -1, "drawOrder": null, "icon": null, "category_group": "Information"}, "geometry": {"type": "Point", "coordinates": [10.3860857, 51.8942714]}}, {"type": "Feature", "properties": {"Name": "Goslar Altstadt", "description": "<b>Kategorie:</b> Information — Besucherinformation<br><b>Distanz:</b>  931 m<br><b>Website:</b> <br><b>Wikipedia:</b> <br><b>Telefon:</b> ", "timestamp": null, "begin": null, "end": null, "altitudeMode": null, "tessellate": -1, "extrude": 0, "visibility": -1, "drawOrder": null, "icon": null, "category_group": "Information"}, "geometry": {"type": "Point", "coordinates": [10.429272, 51.9044997]}}, {"type": "Feature", "properties": {"Name": "Servicecenter Deutsche Bahn", "description": "<b>Kategorie:</b> Information — Besucherinformation<br><b>Distanz:</b> 1367 m<br><b>Website:</b> <br><b>Wikipedia:</b> <br><b>Telefon:</b> +49 1575 4977889", "timestamp": null, "begin": null, "end": null, "altitudeMode": null, "tessellate": -1, "extrude": 0, "visibility": -1, "drawOrder": null, "icon": null, "category_group": "Information"}, "geometry": {"type": "Point", "coordinates": [10.422794, 51.9110453]}}, {"type": "Feature", "properties": {"Name": "Altstadt Goslar", "description": "<b>Kategorie:</b> Information — Besucherinformation<br><b>Distanz:</b> 1019 m<br><b>Website:</b> <br><b>Wikipedia:</b> <br><b>Telefon:</b> ", "timestamp": null, "begin": null, "end": null, "altitudeMode": null, "tessellate": -1, "extrude": 0, "visibility": -1, "drawOrder": null, "icon": null, "category_group": "Information"}, "geometry": {"type": "Point", "coordinates": [10.4306822, 51.9046914]}}, {"type": "Feature", "properties": {"Name": "Parkleit- und Hotelroutensystem Goslar", "description": "<b>Kategorie:</b> Information — Besucherinformation<br><b>Distanz:</b>  747 m<br><b>Website:</b> <br><b>Wikipedia:</b> <br><b>Telefon:</b> ", "timestamp": null, "begin": null, "end": null, "altitudeMode": null, "tessellate": -1, "extrude": 0, "visibility": -1, "drawOrder": null, "icon": null, "category_group": "Information"}, "geometry": {"type": "Point", "coordinates": [10.4275473, 51.9031963]}}, {"type": "Feature", "properties": {"Name": "Naturpark Harz - Wandergebiet Granetalsperre", "description": "<b>Kategorie:</b> Information — Besucherinformation<br><b>Distanz:</b> 1743 m<br><b>Website:</b> <br><b>Wikipedia:</b> <br><b>Telefon:</b> ", "timestamp": null, "begin": null, "end": null, "altitudeMode": null, "tessellate": -1, "extrude": 0, "visibility": -1, "drawOrder": null, "icon": null, "category_group": "Information"}, "geometry": {"type": "Point", "coordinates": [10.3943717, 51.8956045]}}, {"type": "Feature", "properties": {"Name": "Unser Alptraum", "description": "<b>Kategorie:</b> Information — Besucherinformation<br><b>Distanz:</b> 2216 m<br><b>Website:</b> <br><b>Wikipedia:</b> <br><b>Telefon:</b> ", "timestamp": null, "begin": null, "end": null, "altitudeMode": null, "tessellate": -1, "extrude": 0, "visibility": -1, "drawOrder": null, "icon": null, "category_group": "Information"}, "geometry": {"type": "Point", "coordinates": [10.4007686, 51.8826001]}}, {"type": "Feature", "properties": {"Name": "Blockschutthalden am Rammelsberg", "description": "<b>Kategorie:</b> Information — Besucherinformation<br><b>Distanz:</b> 1074 m<br><b>Website:</b> <br><b>Wikipedia:</b> <br><b>Telefon:</b> ", "timestamp": null, "begin": null, "end": null, "altitudeMode": null, "tessellate": -1, "extrude": 0, "visibility": -1, "drawOrder": null, "icon": null, "category_group": "Information"}, "geometry": {"type": "Point", "coordinates": [10.4258764, 51.8902704]}}, {"type": "Feature", "properties": {"Name": "Steig aus und wandere", "description": "<b>Kategorie:</b> Information — Besucherinformation<br><b>Distanz:</b> 1967 m<br><b>Website:</b> <br><b>Wikipedia:</b> <br><b>Telefon:</b> ", "timestamp": null, "begin": null, "end": null, "altitudeMode": null, "tessellate": -1, "extrude": 0, "visibility": -1, "drawOrder": null, "icon": null, "category_group": "Information"}, "geometry": {"type": "Point", "coordinates": [10.4095996, 51.9156481]}}, {"type": "Feature", "properties": {"Name": "R1 Niedersachsen", "description": "<b>Kategorie:</b> Information — Besucherinformation<br><b>Distanz:</b> 1941 m<br><b>Website:</b> <br><b>Wikipedia:</b> <br><b>Telefon:</b> ", "timestamp": null, "begin": null, "end": null, "altitudeMode": null, "tessellate": -1, "extrude": 0, "visibility": -1, "drawOrder": null, "icon": null, "category_group": "Information"}, "geometry": {"type": "Point", "coordinates": [10.409859, 51.9154628]}}, {"type": "Feature", "properties": {"Name": "Oberer Triftweg / Am Heiligen Grabe", "description": "<b>Kategorie:</b> Information — Besucherinformation<br><b>Distanz:</b> 1160 m<br><b>Website:</b> <br><b>Wikipedia:</b> <br><b>Telefon:</b> ", "timestamp": null, "begin": null, "end": null, "altitudeMode": null, "tessellate": -1, "extrude": 0, "visibility": -1, "drawOrder": null, "icon": null, "category_group": "Information"}, "geometry": {"type": "Point", "coordinates": [10.4169219, 51.9093125]}}, {"type": "Feature", "properties": {"Name": "E6/E11", "description": "<b>Kategorie:</b> Information — Besucherinformation<br><b>Distanz:</b> 1971 m<br><b>Website:</b> <br><b>Wikipedia:</b> <br><b>Telefon:</b> ", "timestamp": null, "begin": null, "end": null, "altitudeMode": null, "tessellate": -1, "extrude": 0, "visibility": -1, "drawOrder": null, "icon": null, "category_group": "Information"}, "geometry": {"type": "Point", "coordinates": [10.4476126, 51.9007098]}}, {"type": "Feature", "properties": {"Name": "Bollrich", "description": "<b>Kategorie:</b> Information — Besucherinformation<br><b>Distanz:</b> 2132 m<br><b>Website:</b> <br><b>Wikipedia:</b> <br><b>Telefon:</b> ", "timestamp": null, "begin": null, "end": null, "altitudeMode": null, "tessellate": -1, "extrude": 0, "visibility": -1, "drawOrder": null, "icon": null, "category_group": "Information"}, "geometry": {"type": "Point", "coordinates": [10.4500678, 51.899746]}}, {"type": "Feature", "properties": {"Name": "Bollrich", "description": "<b>Kategorie:</b> Information — Besucherinformation<br><b>Distanz:</b> 2138 m<br><b>Website:</b> <br><b>Wikipedia:</b> <br><b>Telefon:</b> ", "timestamp": null, "begin": null, "end": null, "altitudeMode": null, "tessellate": -1, "extrude": 0, "visibility": -1, "drawOrder": null, "icon": null, "category_group": "Information"}, "geometry": {"type": "Point", "coordinates": [10.450155, 51.899744]}}, {"type": "Feature", "properties": {"Name": "Gelmketal", "description": "<b>Kategorie:</b> Information — Besucherinformation<br><b>Distanz:</b> 2124 m<br><b>Website:</b> <br><b>Wikipedia:</b> <br><b>Telefon:</b> ", "timestamp": null, "begin": null, "end": null, "altitudeMode": null, "tessellate": -1, "extrude": 0, "visibility": -1, "drawOrder": null, "icon": null, "category_group": "Information"}, "geometry": {"type": "Point", "coordinates": [10.4496241, 51.8961361]}}, {"type": "Feature", "properties": {"Name": "Klusfelsen: Geopunkt 3 der Landmarke 3 des UNESCO Global Geopark: Harz - Braunschweiger Land - Ostfalen", "description": "<b>Kategorie:</b> Information — Besucherinformation<br><b>Distanz:</b> 2174 m<br><b>Website:</b> https://www.harzregion.de/files/rvh/downloads/geopark_infotafeln/03_Infotafel%20Klusfelsen.pdf<br><b>Wikipedia:</b> <br><b>Telefon:</b> ", "timestamp": null, "begin": null, "end": null, "altitudeMode": null, "tessellate": -1, "extrude": 0, "visibility": -1, "drawOrder": null, "icon": null, "category_group": "Information"}, "geometry": {"type": "Point", "coordinates": [10.4442372, 51.9108253]}}, {"type": "Feature", "properties": {"Name": "Rammelsberg: Geopunkt 1 der Landmarke 3 des UNESCO Global Geopark: Harz - Braunschweiger Land - Ostfalen", "description": "<b>Kategorie:</b> Information — Besucherinformation<br><b>Distanz:</b>  984 m<br><b>Website:</b> https://www.harzregion.de/files/rvh/downloads/Landmarken_Deutsch/11701-18-A0484%20RVH%20Infotafel%20Rammelsberg%20100x80%20cm%202018.pdf<br><b>Wikipedia:</b> <br><b>Telefon:</b> ", "timestamp": null, "begin": null, "end": null, "altitudeMode": null, "tessellate": -1, "extrude": 0, "visibility": -1, "drawOrder": null, "icon": null, "category_group": "Information"}, "geometry": {"type": "Point", "coordinates": [10.4180022, 51.890152]}}, {"type": "Feature", "properties": {"Name": "Wichtiger Rohstoff: Holz", "description": "<b>Kategorie:</b> Information — Besucherinformation<br><b>Distanz:</b> 2636 m<br><b>Website:</b> <br><b>Wikipedia:</b> <br><b>Telefon:</b> ", "timestamp": null, "begin": null, "end": null, "altitudeMode": null, "tessellate": -1, "extrude": 0, "visibility": -1, "drawOrder": null, "icon": null, "category_group": "Information"}, "geometry": {"type": "Point", "coordinates": [10.3837686, 51.8898253]}}, {"type": "Feature", "properties": {"Name": "Europaradweg Euroroute R1", "description": "<b>Kategorie:</b> Information — Besucherinformation<br><b>Distanz:</b>  749 m<br><b>Website:</b> <br><b>Wikipedia:</b> <br><b>Telefon:</b> ", "timestamp": null, "begin": null, "end": null, "altitudeMode": null, "tessellate": -1, "extrude": 0, "visibility": -1, "drawOrder": null, "icon": null, "category_group": "Information"}, "geometry": {"type": "Point", "coordinates": [10.4275608, 51.9032134]}}, {"type": "Feature", "properties": {"Name": "Tourist-Information Goslar", "description": "<b>Kategorie:</b> Information — Besucherinformation<br><b>Distanz:</b>  994 m<br><b>Website:</b> https://www.goslar.de<br><b>Wikipedia:</b> <br><b>Telefon:</b> +49 5321 78060", "timestamp": null, "begin": null, "end": null, "altitudeMode": null, "tessellate": -1, "extrude": 0, "visibility": -1, "drawOrder": null, "icon": null, "category_group": "Information"}, "geometry": {"type": "Point", "coordinates": [10.4285714, 51.9057223]}}, {"type": "Feature", "properties": {"Name": "Fledermäuse", "description": "<b>Kategorie:</b> Information — Besucherinformation<br><b>Distanz:</b> 1906 m<br><b>Website:</b> <br><b>Wikipedia:</b> <br><b>Telefon:</b> ", "timestamp": null, "begin": null, "end": null, "altitudeMode": null, "tessellate": -1, "extrude": 0, "visibility": -1, "drawOrder": null, "icon": null, "category_group": "Information"}, "geometry": {"type": "Point", "coordinates": [10.3918742, 51.8958304]}}, {"type": "Feature", "properties": {"Name": "Winterquartier der Fledermäuse", "description": "<b>Kategorie:</b> Information — Besucherinformation<br><b>Distanz:</b> 1886 m<br><b>Website:</b> <br><b>Wikipedia:</b> <br><b>Telefon:</b> ", "timestamp": null, "begin": null, "end": null, "altitudeMode": null, "tessellate": -1, "extrude": 0, "visibility": -1, "drawOrder": null, "icon": null, "category_group": "Information"}, "geometry": {"type": "Point", "coordinates": [10.3921303, 51.8959819]}}, {"type": "Feature", "properties": {"Name": "Kulturfrauen: Harte Arbeit - Karger Lohn", "description": "<b>Kategorie:</b> Information — Besucherinformation<br><b>Distanz:</b> 3253 m<br><b>Website:</b> <br><b>Wikipedia:</b> <br><b>Telefon:</b> ", "timestamp": null, "begin": null, "end": null, "altitudeMode": null, "tessellate": -1, "extrude": 0, "visibility": -1, "drawOrder": null, "icon": null, "category_group": "Information"}, "geometry": {"type": "Point", "coordinates": [10.3855871, 51.8783534]}}, {"type": "Feature", "properties": {"Name": "Kamele im Harz?", "description": "<b>Kategorie:</b> Information — Besucherinformation<br><b>Distanz:</b> 3377 m<br><b>Website:</b> <br><b>Wikipedia:</b> <br><b>Telefon:</b> ", "timestamp": null, "begin": null, "end": null, "altitudeMode": null, "tessellate": -1, "extrude": 0, "visibility": -1, "drawOrder": null, "icon": null, "category_group": "Information"}, "geometry": {"type": "Point", "coordinates": [10.3860571, 51.8765307]}}, {"type": "Feature", "properties": {"Name": "Fluggebiet Rammelsberg", "description": "<b>Kategorie:</b> Information — Besucherinformation<br><b>Distanz:</b> 1344 m<br><b>Website:</b> <br><b>Wikipedia:</b> <br><b>Telefon:</b> ", "timestamp": null, "begin": null, "end": null, "altitudeMode": null, "tessellate": -1, "extrude": 0, "visibility": -1, "drawOrder": null, "icon": null, "category_group": "Information"}, "geometry": {"type": "Point", "coordinates": [10.4310428, 51.8894155]}}, {"type": "Feature", "properties": {"Name": "Goslarer Museum", "description": "<b>Kategorie:</b> Kultur & Geschichte — Museum<br><b>Distanz:</b>  954 m<br><b>Website:</b> <br><b>Wikipedia:</b> <br><b>Telefon:</b> ", "timestamp": null, "begin": null, "end": null, "altitudeMode": null, "tessellate": -1, "extrude": 0, "visibility": -1, "drawOrder": null, "icon": null, "category_group": "Kultur & Geschichte"}, "geometry": {"type": "Point", "coordinates": [10.4296835, 51.9045163]}}, {"type": "Feature", "properties": {"Name": "Drachen- u. Gleitschirmstartplatz, Nordwest, 610 m", "description": "<b>Kategorie:</b> Kultur & Geschichte — Attraktion<br><b>Distanz:</b> 1319 m<br><b>Website:</b> <br><b>Wikipedia:</b> <br><b>Telefon:</b> ", "timestamp": null, "begin": null, "end": null, "altitudeMode": null, "tessellate": -1, "extrude": 0, "visibility": -1, "drawOrder": null, "icon": null, "category_group": "Kultur & Geschichte"}, "geometry": {"type": "Point", "coordinates": [10.4309714, 51.8896634]}}, {"type": "Feature", "properties": {"Name": "Roeder-Stollen", "description": "<b>Kategorie:</b> Kultur & Geschichte — Attraktion<br><b>Distanz:</b> 1203 m<br><b>Website:</b> <br><b>Wikipedia:</b> <br><b>Telefon:</b> ", "timestamp": null, "begin": null, "end": null, "altitudeMode": null, "tessellate": -1, "extrude": 0, "visibility": -1, "drawOrder": null, "icon": null, "category_group": "Kultur & Geschichte"}, "geometry": {"type": "Point", "coordinates": [10.4203044, 51.8881868]}}, {"type": "Feature", "properties": {"Name": "Zinnfiguren Museum", "description": "<b>Kategorie:</b> Kultur & Geschichte — Museum<br><b>Distanz:</b>  912 m<br><b>Website:</b> http://www.zinnfigurenmuseum-goslar.de/<br><b>Wikipedia:</b> <br><b>Telefon:</b> ", "timestamp": null, "begin": null, "end": null, "altitudeMode": null, "tessellate": -1, "extrude": 0, "visibility": -1, "drawOrder": null, "icon": null, "category_group": "Kultur & Geschichte"}, "geometry": {"type": "Point", "coordinates": [10.4289519, 51.9044573]}}, {"type": "Feature", "properties": {"Name": "Museum im Zwinger", "description": "<b>Kategorie:</b> Kultur & Geschichte — Museum<br><b>Distanz:</b> 1038 m<br><b>Website:</b> https://zwinger.de/<br><b>Wikipedia:</b> <br><b>Telefon:</b> ", "timestamp": null, "begin": null, "end": null, "altitudeMode": null, "tessellate": -1, "extrude": 0, "visibility": -1, "drawOrder": null, "icon": null, "category_group": "Kultur & Geschichte"}, "geometry": {"type": "Point", "coordinates": [10.4328682, 51.9027862]}}, {"type": "Feature", "properties": {"Name": "Stubengalerie StoetzelTiedt", "description": "<b>Kategorie:</b> Kultur & Geschichte — Galerie<br><b>Distanz:</b>  995 m<br><b>Website:</b> <br><b>Wikipedia:</b> <br><b>Telefon:</b> ", "timestamp": null, "begin": null, "end": null, "altitudeMode": null, "tessellate": -1, "extrude": 0, "visibility": -1, "drawOrder": null, "icon": null, "category_group": "Kultur & Geschichte"}, "geometry": {"type": "Point", "coordinates": [10.4303303, 51.904609]}}, {"type": "Feature", "properties": {"Name": "Rammelsberg", "description": "<b>Kategorie:</b> Natur & Landschaft — Natur-Feature (alle)<br><b>Distanz:</b> 1545 m<br><b>Website:</b> <br><b>Wikipedia:</b> de:Rammelsberg (Harz)<br><b>Telefon:</b> ", "timestamp": null, "begin": null, "end": null, "altitudeMode": null, "tessellate": -1, "extrude": 0, "visibility": -1, "drawOrder": null, "icon": null, "category_group": "Natur & Landschaft"}, "geometry": {"type": "Point", "coordinates": [10.4318605, 51.887545]}}, {"type": "Feature", "properties": {"Name": "Kattenberg", "description": "<b>Kategorie:</b> Natur & Landschaft — Natur-Feature (alle)<br><b>Distanz:</b> 1774 m<br><b>Website:</b> <br><b>Wikipedia:</b> <br><b>Telefon:</b> ", "timestamp": null, "begin": null, "end": null, "altitudeMode": null, "tessellate": -1, "extrude": 0, "visibility": -1, "drawOrder": null, "icon": null, "category_group": "Natur & Landschaft"}, "geometry": {"type": "Point", "coordinates": [10.4211427, 51.9148682]}}, {"type": "Feature", "properties": {"Name": "Ramseck, Rammelsberg", "description": "<b>Kategorie:</b> Natur & Landschaft — Aussichtspunkt<br><b>Distanz:</b> 1262 m<br><b>Website:</b> <br><b>Wikipedia:</b> <br><b>Telefon:</b> ", "timestamp": null, "begin": null, "end": null, "altitudeMode": null, "tessellate": -1, "extrude": 0, "visibility": -1, "drawOrder": null, "icon": null, "category_group": "Natur & Landschaft"}, "geometry": {"type": "Point", "coordinates": [10.4265756, 51.888616]}}, {"type": "Feature", "properties": {"Name": "Nordberg", "description": "<b>Kategorie:</b> Natur & Landschaft — Natur-Feature (alle)<br><b>Distanz:</b> 2435 m<br><b>Website:</b> <br><b>Wikipedia:</b> <br><b>Telefon:</b> ", "timestamp": null, "begin": null, "end": null, "altitudeMode": null, "tessellate": -1, "extrude": 0, "visibility": -1, "drawOrder": null, "icon": null, "category_group": "Natur & Landschaft"}, "geometry": {"type": "Point", "coordinates": [10.388362, 51.909811]}}, {"type": "Feature", "properties": {"Name": "Blauer Haufen", "description": "<b>Kategorie:</b> Natur & Landschaft — Aussichtspunkt<br><b>Distanz:</b>  820 m<br><b>Website:</b> <br><b>Wikipedia:</b> <br><b>Telefon:</b> ", "timestamp": null, "begin": null, "end": null, "altitudeMode": null, "tessellate": -1, "extrude": 0, "visibility": -1, "drawOrder": null, "icon": null, "category_group": "Natur & Landschaft"}, "geometry": {"type": "Point", "coordinates": [10.4284799, 51.8944168]}}, {"type": "Feature", "properties": {"Name": "Stollenlinde", "description": "<b>Kategorie:</b> Natur & Landschaft — Natur-Feature (alle)<br><b>Distanz:</b> 1035 m<br><b>Website:</b> <br><b>Wikipedia:</b> <br><b>Telefon:</b> ", "timestamp": null, "begin": null, "end": null, "altitudeMode": null, "tessellate": -1, "extrude": 0, "visibility": -1, "drawOrder": null, "icon": null, "category_group": "Natur & Landschaft"}, "geometry": {"type": "Point", "coordinates": [10.4336559, 51.9013156]}}, {"type": "Feature", "properties": {"Name": "Giengelsberg", "description": "<b>Kategorie:</b> Natur & Landschaft — Natur-Feature (alle)<br><b>Distanz:</b> 2256 m<br><b>Website:</b> <br><b>Wikipedia:</b> <br><b>Telefon:</b> ", "timestamp": null, "begin": null, "end": null, "altitudeMode": null, "tessellate": -1, "extrude": 0, "visibility": -1, "drawOrder": null, "icon": null, "category_group": "Natur & Landschaft"}, "geometry": {"type": "Point", "coordinates": [10.4401056, 51.8834035]}}, {"type": "Feature", "properties": {"Name": "Brautstein", "description": "<b>Kategorie:</b> Natur & Landschaft — Natur-Feature (alle)<br><b>Distanz:</b> 3324 m<br><b>Website:</b> <br><b>Wikipedia:</b> <br><b>Telefon:</b> ", "timestamp": null, "begin": null, "end": null, "altitudeMode": null, "tessellate": -1, "extrude": 0, "visibility": -1, "drawOrder": null, "icon": null, "category_group": "Natur & Landschaft"}, "geometry": {"type": "Point", "coordinates": [10.4552, 51.879121]}}, {"type": "Feature", "properties": {"Name": "Herzberg", "description": "<b>Kategorie:</b> Natur & Landschaft — Natur-Feature (alle)<br><b>Distanz:</b> 1980 m<br><b>Website:</b> <br><b>Wikipedia:</b> <br><b>Telefon:</b> ", "timestamp": null, "begin": null, "end": null, "altitudeMode": null, "tessellate": -1, "extrude": 0, "visibility": -1, "drawOrder": null, "icon": null, "category_group": "Natur & Landschaft"}, "geometry": {"type": "Point", "coordinates": [10.4117167, 51.8817667]}}, {"type": "Feature", "properties": {"Name": "Alte Pferdetränke", "description": "<b>Kategorie:</b> Natur & Landschaft — Natur-Feature (alle)<br><b>Distanz:</b> 2895 m<br><b>Website:</b> <br><b>Wikipedia:</b> <br><b>Telefon:</b> ", "timestamp": null, "begin": null, "end": null, "altitudeMode": null, "tessellate": -1, "extrude": 0, "visibility": -1, "drawOrder": null, "icon": null, "category_group": "Natur & Landschaft"}, "geometry": {"type": "Point", "coordinates": [10.3846577, 51.8840396]}}, {"type": "Feature", "properties": {"Name": "Elisabethquelle", "description": "<b>Kategorie:</b> Natur & Landschaft — Natur-Feature (alle)<br><b>Distanz:</b> 1494 m<br><b>Website:</b> <br><b>Wikipedia:</b> <br><b>Telefon:</b> ", "timestamp": null, "begin": null, "end": null, "altitudeMode": null, "tessellate": -1, "extrude": 0, "visibility": -1, "drawOrder": null, "icon": null, "category_group": "Natur & Landschaft"}, "geometry": {"type": "Point", "coordinates": [10.3976979, 51.8967349]}}, {"type": "Feature", "properties": {"Name": "Aussichtspunkt Jugendherberge", "description": "<b>Kategorie:</b> Natur & Landschaft — Aussichtspunkt<br><b>Distanz:</b>   31 m<br><b>Website:</b> <br><b>Wikipedia:</b> <br><b>Telefon:</b> ", "timestamp": null, "begin": null, "end": null, "altitudeMode": null, "tessellate": -1, "extrude": 0, "visibility": -1, "drawOrder": null, "icon": null, "category_group": "Natur & Landschaft"}, "geometry": {"type": "Point", "coordinates": [10.418718, 51.8988343]}}, {"type": "Feature", "properties": {"Name": "Königsberg", "description": "<b>Kategorie:</b> Natur & Landschaft — Natur-Feature (alle)<br><b>Distanz:</b> 1572 m<br><b>Website:</b> <br><b>Wikipedia:</b> de:Königsberg (Goslar)<br><b>Telefon:</b> ", "timestamp": null, "begin": null, "end": null, "altitudeMode": null, "tessellate": -1, "extrude": 0, "visibility": -1, "drawOrder": null, "icon": null, "category_group": "Natur & Landschaft"}, "geometry": {"type": "Point", "coordinates": [10.3964583, 51.9008611]}}, {"type": "Feature", "properties": {"Name": "Königsberg", "description": "<b>Kategorie:</b> Natur & Landschaft — Natur-Feature (alle)<br><b>Distanz:</b> 2114 m<br><b>Website:</b> <br><b>Wikipedia:</b> de:Königsberg (Goslar)<br><b>Telefon:</b> ", "timestamp": null, "begin": null, "end": null, "altitudeMode": null, "tessellate": -1, "extrude": 0, "visibility": -1, "drawOrder": null, "icon": null, "category_group": "Natur & Landschaft"}, "geometry": {"type": "Point", "coordinates": [10.388421, 51.8980805]}}, {"type": "Feature", "properties": {"Name": "Waldschratquelle", "description": "<b>Kategorie:</b> Natur & Landschaft — Natur-Feature (alle)<br><b>Distanz:</b> 2357 m<br><b>Website:</b> <br><b>Wikipedia:</b> <br><b>Telefon:</b> ", "timestamp": null, "begin": null, "end": null, "altitudeMode": null, "tessellate": -1, "extrude": 0, "visibility": -1, "drawOrder": null, "icon": null, "category_group": "Natur & Landschaft"}, "geometry": {"type": "Point", "coordinates": [10.4354805, 51.8803669]}}, {"type": "Feature", "properties": {"Name": "Steinberg", "description": "<b>Kategorie:</b> Natur & Landschaft — Natur-Feature (alle)<br><b>Distanz:</b> 1267 m<br><b>Website:</b> <br><b>Wikipedia:</b> <br><b>Telefon:</b> ", "timestamp": null, "begin": null, "end": null, "altitudeMode": null, "tessellate": -1, "extrude": 0, "visibility": -1, "drawOrder": null, "icon": null, "category_group": "Natur & Landschaft"}, "geometry": {"type": "Point", "coordinates": [10.4053435, 51.90654]}}, {"type": "Feature", "properties": {"Name": "Kinderbrunnen", "description": "<b>Kategorie:</b> Natur & Landschaft — Natur-Feature (alle)<br><b>Distanz:</b> 1521 m<br><b>Website:</b> <br><b>Wikipedia:</b> <br><b>Telefon:</b> ", "timestamp": null, "begin": null, "end": null, "altitudeMode": null, "tessellate": -1, "extrude": 0, "visibility": -1, "drawOrder": null, "icon": null, "category_group": "Natur & Landschaft"}, "geometry": {"type": "Point", "coordinates": [10.4220464, 51.8854246]}}, {"type": "Feature", "properties": {"Name": "Hessenkopf", "description": "<b>Kategorie:</b> Natur & Landschaft — Natur-Feature (alle)<br><b>Distanz:</b> 2427 m<br><b>Website:</b> <br><b>Wikipedia:</b> <br><b>Telefon:</b> ", "timestamp": null, "begin": null, "end": null, "altitudeMode": null, "tessellate": -1, "extrude": 0, "visibility": -1, "drawOrder": null, "icon": null, "category_group": "Natur & Landschaft"}, "geometry": {"type": "Point", "coordinates": [10.3874599, 51.8893367]}}, {"type": "Feature", "properties": {"Name": "Hohenkehl", "description": "<b>Kategorie:</b> Natur & Landschaft — Natur-Feature (alle)<br><b>Distanz:</b> 2952 m<br><b>Website:</b> <br><b>Wikipedia:</b> <br><b>Telefon:</b> ", "timestamp": null, "begin": null, "end": null, "altitudeMode": null, "tessellate": -1, "extrude": 0, "visibility": -1, "drawOrder": null, "icon": null, "category_group": "Natur & Landschaft"}, "geometry": {"type": "Point", "coordinates": [10.3894006, 51.8798342]}}, {"type": "Feature", "properties": {"Name": "Petersberg", "description": "<b>Kategorie:</b> Natur & Landschaft — Natur-Feature (alle)<br><b>Distanz:</b> 2558 m<br><b>Website:</b> <br><b>Wikipedia:</b> <br><b>Telefon:</b> ", "timestamp": null, "begin": null, "end": null, "altitudeMode": null, "tessellate": -1, "extrude": 0, "visibility": -1, "drawOrder": null, "icon": null, "category_group": "Natur & Landschaft"}, "geometry": {"type": "Point", "coordinates": [10.450349, 51.9114324]}}, {"type": "Feature", "properties": {"Name": "Rabenkopf", "description": "<b>Kategorie:</b> Natur & Landschaft — Natur-Feature (alle)<br><b>Distanz:</b> 1065 m<br><b>Website:</b> <br><b>Wikipedia:</b> <br><b>Telefon:</b> ", "timestamp": null, "begin": null, "end": null, "altitudeMode": null, "tessellate": -1, "extrude": 0, "visibility": -1, "drawOrder": null, "icon": null, "category_group": "Natur & Landschaft"}, "geometry": {"type": "Point", "coordinates": [10.4036712, 51.898267]}}, {"type": "Feature", "properties": {"Name": "Rosenberg", "description": "<b>Kategorie:</b> Natur & Landschaft — Natur-Feature (alle)<br><b>Distanz:</b> 1575 m<br><b>Website:</b> <br><b>Wikipedia:</b> <br><b>Telefon:</b> ", "timestamp": null, "begin": null, "end": null, "altitudeMode": null, "tessellate": -1, "extrude": 0, "visibility": -1, "drawOrder": null, "icon": null, "category_group": "Natur & Landschaft"}, "geometry": {"type": "Point", "coordinates": [10.4405258, 51.9039747]}}, {"type": "Feature", "properties": {"Name": "Schafskopf", "description": "<b>Kategorie:</b> Natur & Landschaft — Natur-Feature (alle)<br><b>Distanz:</b> 2471 m<br><b>Website:</b> <br><b>Wikipedia:</b> <br><b>Telefon:</b> ", "timestamp": null, "begin": null, "end": null, "altitudeMode": null, "tessellate": -1, "extrude": 0, "visibility": -1, "drawOrder": null, "icon": null, "category_group": "Natur & Landschaft"}, "geometry": {"type": "Point", "coordinates": [10.3843198, 51.9044752]}}, {"type": "Feature", "properties": {"Name": "Verlorener Berg", "description": "<b>Kategorie:</b> Natur & Landschaft — Natur-Feature (alle)<br><b>Distanz:</b> 1838 m<br><b>Website:</b> <br><b>Wikipedia:</b> <br><b>Telefon:</b> ", "timestamp": null, "begin": null, "end": null, "altitudeMode": null, "tessellate": -1, "extrude": 0, "visibility": -1, "drawOrder": null, "icon": null, "category_group": "Natur & Landschaft"}, "geometry": {"type": "Point", "coordinates": [10.3932042, 51.9030117]}}, {"type": "Feature", "properties": {"Name": "Königsbrunnen", "description": "<b>Kategorie:</b> Natur & Landschaft — Natur-Feature (alle)<br><b>Distanz:</b> 1878 m<br><b>Website:</b> <br><b>Wikipedia:</b> <br><b>Telefon:</b> ", "timestamp": null, "begin": null, "end": null, "altitudeMode": null, "tessellate": -1, "extrude": 0, "visibility": -1, "drawOrder": null, "icon": null, "category_group": "Natur & Landschaft"}, "geometry": {"type": "Point", "coordinates": [10.391938, 51.9005967]}}, {"type": "Feature", "properties": {"Name": "Reinbachquelle / Scobike-Quelle", "description": "<b>Kategorie:</b> Natur & Landschaft — Natur-Feature (alle)<br><b>Distanz:</b> 1872 m<br><b>Website:</b> <br><b>Wikipedia:</b> <br><b>Telefon:</b> ", "timestamp": null, "begin": null, "end": null, "altitudeMode": null, "tessellate": -1, "extrude": 0, "visibility": -1, "drawOrder": null, "icon": null, "category_group": "Natur & Landschaft"}, "geometry": {"type": "Point", "coordinates": [10.3956417, 51.907496]}}, {"type": "Feature", "properties": {"Name": "Kuhberg", "description": "<b>Kategorie:</b> Natur & Landschaft — Natur-Feature (alle)<br><b>Distanz:</b> 2052 m<br><b>Website:</b> <br><b>Wikipedia:</b> <br><b>Telefon:</b> ", "timestamp": null, "begin": null, "end": null, "altitudeMode": null, "tessellate": -1, "extrude": 0, "visibility": -1, "drawOrder": null, "icon": null, "category_group": "Natur & Landschaft"}, "geometry": {"type": "Point", "coordinates": [10.4104787, 51.9166287]}}, {"type": "Feature", "properties": {"Name": "Nonnenberg", "description": "<b>Kategorie:</b> Natur & Landschaft — Natur-Feature (alle)<br><b>Distanz:</b>  464 m<br><b>Website:</b> <br><b>Wikipedia:</b> <br><b>Telefon:</b> ", "timestamp": null, "begin": null, "end": null, "altitudeMode": null, "tessellate": -1, "extrude": 0, "visibility": -1, "drawOrder": null, "icon": null, "category_group": "Natur & Landschaft"}, "geometry": {"type": "Point", "coordinates": [10.4127601, 51.9003906]}}, {"type": "Feature", "properties": {"Name": "Weberbrunnen", "description": "<b>Kategorie:</b> Natur & Landschaft — Natur-Feature (alle)<br><b>Distanz:</b> 2304 m<br><b>Website:</b> <br><b>Wikipedia:</b> <br><b>Telefon:</b> ", "timestamp": null, "begin": null, "end": null, "altitudeMode": null, "tessellate": -1, "extrude": 0, "visibility": -1, "drawOrder": null, "icon": null, "category_group": "Natur & Landschaft"}, "geometry": {"type": "Point", "coordinates": [10.3888131, 51.9078067]}}, {"type": "Feature", "properties": {"Name": "Bergenkopf", "description": "<b>Kategorie:</b> Natur & Landschaft — Natur-Feature (alle)<br><b>Distanz:</b>  459 m<br><b>Website:</b> <br><b>Wikipedia:</b> <br><b>Telefon:</b> ", "timestamp": null, "begin": null, "end": null, "altitudeMode": null, "tessellate": -1, "extrude": 0, "visibility": -1, "drawOrder": null, "icon": null, "category_group": "Natur & Landschaft"}, "geometry": {"type": "Point", "coordinates": [10.4195916, 51.8948603]}}, {"type": "Feature", "properties": {"Name": "Georgenberg", "description": "<b>Kategorie:</b> Natur & Landschaft — Natur-Feature (alle)<br><b>Distanz:</b> 1776 m<br><b>Website:</b> <br><b>Wikipedia:</b> <br><b>Telefon:</b> ", "timestamp": null, "begin": null, "end": null, "altitudeMode": null, "tessellate": -1, "extrude": 0, "visibility": -1, "drawOrder": null, "icon": null, "category_group": "Natur & Landschaft"}, "geometry": {"type": "Point", "coordinates": [10.4319021, 51.9128362]}}]}