{"type": "FeatureCollection", "features": [{"type": "Feature", "properties": {"Name": "JH 354 — Jugendherberge Wuppertal", "description": "<b>JH Nr:</b> 354<br><b>Name:</b> Jugendherberge Wuppertal<br><b>Ort:</b> Wuppertal", "timestamp": null, "begin": null, "end": null, "altitudeMode": null, "tessellate": -1, "extrude": 0, "visibility": -1, "drawOrder": null, "icon": null, "category_group": "JH"}, "geometry": {"type": "Point", "coordinates": [7.1998898, 51.2630939]}}, {"type": "Feature", "properties": {"Name": "Bernhard-Letterhaus-Schule", "description": "<b>Kategorie:</b> Bildungsinfrastruktur — Schule<br><b>Distanz:</b> 1245 m<br><b>Website:</b> http://b-letterhaus-schule.info/<br><b>Wikipedia:</b> <br><b>Telefon:</b> +49 202 5636329", "timestamp": null, "begin": null, "end": null, "altitudeMode": null, "tessellate": -1, "extrude": 0, "visibility": -1, "drawOrder": null, "icon": null, "category_group": "Bildungsinfrastruktur"}, "geometry": {"type": "Point", "coordinates": [7.1913079, 51.2729079]}}, {"type": "Feature", "properties": {"Name": "Die Färberei", "description": "<b>Kategorie:</b> Bildungsinfrastruktur — Gemeindezentrum<br><b>Distanz:</b> 1726 m<br><b>Website:</b> <br><b>Wikipedia:</b> <br><b>Telefon:</b> ", "timestamp": null, "begin": null, "end": null, "altitudeMode": null, "tessellate": -1, "extrude": 0, "visibility": -1, "drawOrder": null, "icon": null, "category_group": "Bildungsinfrastruktur"}, "geometry": {"type": "Point", "coordinates": [7.2166852, 51.2744848]}}, {"type": "Feature", "properties": {"Name": "Stadtteilbibliothek Barmen", "description": "<b>Kategorie:</b> Bildungsinfrastruktur — Bibliothek<br><b>Distanz:</b>  950 m<br><b>Website:</b> https://www.wuppertal.de/<br><b>Wikipedia:</b> <br><b>Telefon:</b> ", "timestamp": null, "begin": null, "end": null, "altitudeMode": null, "tessellate": -1, "extrude": 0, "visibility": -1, "drawOrder": null, "icon": null, "category_group": "Bildungsinfrastruktur"}, "geometry": {"type": "Point", "coordinates": [7.2032841, 51.2713648]}}, {"type": "Feature", "properties": {"Name": "Seminar für pastorale Aus- und Fortbildung", "description": "<b>Kategorie:</b> Bildungsinfrastruktur — Hochschule<br><b>Distanz:</b> 1978 m<br><b>Website:</b> <br><b>Wikipedia:</b> <br><b>Telefon:</b> ", "timestamp": null, "begin": null, "end": null, "altitudeMode": null, "tessellate": -1, "extrude": 0, "visibility": -1, "drawOrder": null, "icon": null, "category_group": "Bildungsinfrastruktur"}, "geometry": {"type": "Point", "coordinates": [7.1718193, 51.2655654]}}, {"type": "Feature", "properties": {"Name": "Schachclub Tornado Wuppertal 1991", "description": "<b>Kategorie:</b> Bildungsinfrastruktur — Gemeindezentrum<br><b>Distanz:</b> 2667 m<br><b>Website:</b> http://tornado-wuppertal.de<br><b>Wikipedia:</b> <br><b>Telefon:</b> ", "timestamp": null, "begin": null, "end": null, "altitudeMode": null, "tessellate": -1, "extrude": 0, "visibility": -1, "drawOrder": null, "icon": null, "category_group": "Bildungsinfrastruktur"}, "geometry": {"type": "Point", "coordinates": [7.1644944, 51.2540496]}}, {"type": "Feature", "properties": {"Name": "Hochschul- und Landeskirchenbibliothek Wuppertal", "description": "<b>Kategorie:</b> Bildungsinfrastruktur — Bibliothek<br><b>Distanz:</b> 2011 m<br><b>Website:</b> https://www.hlb-wuppertal.de/<br><b>Wikipedia:</b> <br><b>Telefon:</b> +49 202 2820-125", "timestamp": null, "begin": null, "end": null, "altitudeMode": null, "tessellate": -1, "extrude": 0, "visibility": -1, "drawOrder": null, "icon": null, "category_group": "Bildungsinfrastruktur"}, "geometry": {"type": "Point", "coordinates": [7.1712684, 51.265171]}}, {"type": "Feature", "properties": {"Name": "Berliner Plätzchen", "description": "<b>Kategorie:</b> Bildungsinfrastruktur — Gemeindezentrum<br><b>Distanz:</b> 2046 m<br><b>Website:</b> https://dein-plaetzchen.de/<br><b>Wikipedia:</b> <br><b>Telefon:</b> ", "timestamp": null, "begin": null, "end": null, "altitudeMode": null, "tessellate": -1, "extrude": 0, "visibility": -1, "drawOrder": null, "icon": null, "category_group": "Bildungsinfrastruktur"}, "geometry": {"type": "Point", "coordinates": [7.2215058, 51.275523]}}, {"type": "Feature", "properties": {"Name": "Kultur und Bildungszentrum Wuppertal e.V.", "description": "<b>Kategorie:</b> Bildungsinfrastruktur — Gemeindezentrum<br><b>Distanz:</b> 2228 m<br><b>Website:</b> <br><b>Wikipedia:</b> <br><b>Telefon:</b> ", "timestamp": null, "begin": null, "end": null, "altitudeMode": null, "tessellate": -1, "extrude": 0, "visibility": -1, "drawOrder": null, "icon": null, "category_group": "Bildungsinfrastruktur"}, "geometry": {"type": "Point", "coordinates": [7.2186983, 51.2792865]}}, {"type": "Feature", "properties": {"Name": "CVJM Wuppertal Oberbarmen e.V.", "description": "<b>Kategorie:</b> Bildungsinfrastruktur — Gemeindezentrum<br><b>Distanz:</b> 1905 m<br><b>Website:</b> <br><b>Wikipedia:</b> <br><b>Telefon:</b> ", "timestamp": null, "begin": null, "end": null, "altitudeMode": null, "tessellate": -1, "extrude": 0, "visibility": -1, "drawOrder": null, "icon": null, "category_group": "Bildungsinfrastruktur"}, "geometry": {"type": "Point", "coordinates": [7.2157378, 51.277039]}}, {"type": "Feature", "properties": {"Name": "Stadtteiltreff Offenes Ohr", "description": "<b>Kategorie:</b> Bildungsinfrastruktur — Gemeindezentrum<br><b>Distanz:</b> 2316 m<br><b>Website:</b> <br><b>Wikipedia:</b> <br><b>Telefon:</b> ", "timestamp": null, "begin": null, "end": null, "altitudeMode": null, "tessellate": -1, "extrude": 0, "visibility": -1, "drawOrder": null, "icon": null, "category_group": "Bildungsinfrastruktur"}, "geometry": {"type": "Point", "coordinates": [7.2182375, 51.2804482]}}, {"type": "Feature", "properties": {"Name": "Stadtteilbibliothek Wichlinghausen", "description": "<b>Kategorie:</b> Bildungsinfrastruktur — Bibliothek<br><b>Distanz:</b> 2370 m<br><b>Website:</b> <br><b>Wikipedia:</b> <br><b>Telefon:</b> ", "timestamp": null, "begin": null, "end": null, "altitudeMode": null, "tessellate": -1, "extrude": 0, "visibility": -1, "drawOrder": null, "icon": null, "category_group": "Bildungsinfrastruktur"}, "geometry": {"type": "Point", "coordinates": [7.2162003, 51.2817789]}}, {"type": "Feature", "properties": {"Name": "Stadtteilbibliothek am Rott", "description": "<b>Kategorie:</b> Bildungsinfrastruktur — Bibliothek<br><b>Distanz:</b> 1402 m<br><b>Website:</b> <br><b>Wikipedia:</b> <br><b>Telefon:</b> ", "timestamp": null, "begin": null, "end": null, "altitudeMode": null, "tessellate": -1, "extrude": 0, "visibility": -1, "drawOrder": null, "icon": null, "category_group": "Bildungsinfrastruktur"}, "geometry": {"type": "Point", "coordinates": [7.1877694, 51.273149]}}, {"type": "Feature", "properties": {"Name": "Grüne Ecke", "description": "<b>Kategorie:</b> Bildungsinfrastruktur — Gemeindezentrum<br><b>Distanz:</b> 1878 m<br><b>Website:</b> <br><b>Wikipedia:</b> <br><b>Telefon:</b> ", "timestamp": null, "begin": null, "end": null, "altitudeMode": null, "tessellate": -1, "extrude": 0, "visibility": -1, "drawOrder": null, "icon": null, "category_group": "Bildungsinfrastruktur"}, "geometry": {"type": "Point", "coordinates": [7.222709, 51.272044]}}, {"type": "Feature", "properties": {"Name": "Vierzwozwo Quartierbüro", "description": "<b>Kategorie:</b> Bildungsinfrastruktur — Gemeindezentrum<br><b>Distanz:</b> 2272 m<br><b>Website:</b> http://vierzwozwo.de/<br><b>Wikipedia:</b> <br><b>Telefon:</b> ", "timestamp": null, "begin": null, "end": null, "altitudeMode": null, "tessellate": -1, "extrude": 0, "visibility": -1, "drawOrder": null, "icon": null, "category_group": "Bildungsinfrastruktur"}, "geometry": {"type": "Point", "coordinates": [7.218688, 51.2797715]}}, {"type": "Feature", "properties": {"Name": "Alte Schlosserei", "description": "<b>Kategorie:</b> Bildungsinfrastruktur — Kunstzentrum<br><b>Distanz:</b> 1478 m<br><b>Website:</b> https://www.alte-schlosserei-wtal.de/<br><b>Wikipedia:</b> <br><b>Telefon:</b> ", "timestamp": null, "begin": null, "end": null, "altitudeMode": null, "tessellate": -1, "extrude": 0, "visibility": -1, "drawOrder": null, "icon": null, "category_group": "Bildungsinfrastruktur"}, "geometry": {"type": "Point", "coordinates": [7.1787092, 51.2629787]}}, {"type": "Feature", "properties": {"Name": "Kultur Kinder Cafe", "description": "<b>Kategorie:</b> Bildungsinfrastruktur — Gemeindezentrum<br><b>Distanz:</b>  874 m<br><b>Website:</b> <br><b>Wikipedia:</b> <br><b>Telefon:</b> ", "timestamp": null, "begin": null, "end": null, "altitudeMode": null, "tessellate": -1, "extrude": 0, "visibility": -1, "drawOrder": null, "icon": null, "category_group": "Bildungsinfrastruktur"}, "geometry": {"type": "Point", "coordinates": [7.2002697, 51.2709449]}}, {"type": "Feature", "properties": {"Name": "HeLa Quartierbüro", "description": "<b>Kategorie:</b> Bildungsinfrastruktur — Gemeindezentrum<br><b>Distanz:</b> 2475 m<br><b>Website:</b> https://www.hela-qb.de/<br><b>Wikipedia:</b> <br><b>Telefon:</b> ", "timestamp": null, "begin": null, "end": null, "altitudeMode": null, "tessellate": -1, "extrude": 0, "visibility": -1, "drawOrder": null, "icon": null, "category_group": "Bildungsinfrastruktur"}, "geometry": {"type": "Point", "coordinates": [7.231685, 51.2729617]}}, {"type": "Feature", "properties": {"Name": "Sporthalle Schulzentrum Ost", "description": "<b>Kategorie:</b> Freizeit & Sport — Sportzentrum<br><b>Distanz:</b> 2196 m<br><b>Website:</b> <br><b>Wikipedia:</b> <br><b>Telefon:</b> ", "timestamp": null, "begin": null, "end": null, "altitudeMode": null, "tessellate": -1, "extrude": 0, "visibility": -1, "drawOrder": null, "icon": null, "category_group": "Freizeit & Sport"}, "geometry": {"type": "Point", "coordinates": [7.2207423, 51.2778848]}}, {"type": "Feature", "properties": {"Name": "Informationstafel", "description": "<b>Kategorie:</b> Information — Besucherinformation<br><b>Distanz:</b> 2373 m<br><b>Website:</b> <br><b>Wikipedia:</b> <br><b>Telefon:</b> ", "timestamp": null, "begin": null, "end": null, "altitudeMode": null, "tessellate": -1, "extrude": 0, "visibility": -1, "drawOrder": null, "icon": null, "category_group": "Information"}, "geometry": {"type": "Point", "coordinates": [7.2108937, 51.2429091]}}, {"type": "Feature", "properties": {"Name": "Informationstafel", "description": "<b>Kategorie:</b> Information — Besucherinformation<br><b>Distanz:</b> 1608 m<br><b>Website:</b> <br><b>Wikipedia:</b> <br><b>Telefon:</b> ", "timestamp": null, "begin": null, "end": null, "altitudeMode": null, "tessellate": -1, "extrude": 0, "visibility": -1, "drawOrder": null, "icon": null, "category_group": "Information"}, "geometry": {"type": "Point", "coordinates": [7.2115537, 51.2506276]}}, {"type": "Feature", "properties": {"Name": "Informationstafel", "description": "<b>Kategorie:</b> Information — Besucherinformation<br><b>Distanz:</b> 1971 m<br><b>Website:</b> <br><b>Wikipedia:</b> <br><b>Telefon:</b> ", "timestamp": null, "begin": null, "end": null, "altitudeMode": null, "tessellate": -1, "extrude": 0, "visibility": -1, "drawOrder": null, "icon": null, "category_group": "Information"}, "geometry": {"type": "Point", "coordinates": [7.2213118, 51.2515444]}}, {"type": "Feature", "properties": {"Name": "informationstafel", "description": "<b>Kategorie:</b> Information — Besucherinformation<br><b>Distanz:</b> 1849 m<br><b>Website:</b> <br><b>Wikipedia:</b> <br><b>Telefon:</b> ", "timestamp": null, "begin": null, "end": null, "altitudeMode": null, "tessellate": -1, "extrude": 0, "visibility": -1, "drawOrder": null, "icon": null, "category_group": "Information"}, "geometry": {"type": "Point", "coordinates": [7.2052152, 51.2468059]}}, {"type": "Feature", "properties": {"Name": "Barmer Anlagen", "description": "<b>Kategorie:</b> Information — Besucherinformation<br><b>Distanz:</b>  449 m<br><b>Website:</b> <br><b>Wikipedia:</b> <br><b>Telefon:</b> ", "timestamp": null, "begin": null, "end": null, "altitudeMode": null, "tessellate": -1, "extrude": 0, "visibility": -1, "drawOrder": null, "icon": null, "category_group": "Information"}, "geometry": {"type": "Point", "coordinates": [7.2022297, 51.2668572]}}, {"type": "Feature", "properties": {"Name": "Geopfad", "description": "<b>Kategorie:</b> Information — Besucherinformation<br><b>Distanz:</b> 2546 m<br><b>Website:</b> <br><b>Wikipedia:</b> <br><b>Telefon:</b> ", "timestamp": null, "begin": null, "end": null, "altitudeMode": null, "tessellate": -1, "extrude": 0, "visibility": -1, "drawOrder": null, "icon": null, "category_group": "Information"}, "geometry": {"type": "Point", "coordinates": [7.2093211, 51.2852089]}}, {"type": "Feature", "properties": {"Name": "Geopfad", "description": "<b>Kategorie:</b> Information — Besucherinformation<br><b>Distanz:</b> 2305 m<br><b>Website:</b> <br><b>Wikipedia:</b> <br><b>Telefon:</b> ", "timestamp": null, "begin": null, "end": null, "altitudeMode": null, "tessellate": -1, "extrude": 0, "visibility": -1, "drawOrder": null, "icon": null, "category_group": "Information"}, "geometry": {"type": "Point", "coordinates": [7.1968703, 51.2837331]}}, {"type": "Feature", "properties": {"Name": "Zauberhafte Barmer Anlagen", "description": "<b>Kategorie:</b> Information — Besucherinformation<br><b>Distanz:</b>  577 m<br><b>Website:</b> <br><b>Wikipedia:</b> <br><b>Telefon:</b> ", "timestamp": null, "begin": null, "end": null, "altitudeMode": null, "tessellate": -1, "extrude": 0, "visibility": -1, "drawOrder": null, "icon": null, "category_group": "Information"}, "geometry": {"type": "Point", "coordinates": [7.2014557, 51.2681872]}}, {"type": "Feature", "properties": {"Name": "Informationstafel", "description": "<b>Kategorie:</b> Information — Besucherinformation<br><b>Distanz:</b> 1635 m<br><b>Website:</b> <br><b>Wikipedia:</b> <br><b>Telefon:</b> ", "timestamp": null, "begin": null, "end": null, "altitudeMode": null, "tessellate": -1, "extrude": 0, "visibility": -1, "drawOrder": null, "icon": null, "category_group": "Information"}, "geometry": {"type": "Point", "coordinates": [7.2168951, 51.252981]}}, {"type": "Feature", "properties": {"Name": "Informationstafel", "description": "<b>Kategorie:</b> Information — Besucherinformation<br><b>Distanz:</b> 1569 m<br><b>Website:</b> <br><b>Wikipedia:</b> <br><b>Telefon:</b> ", "timestamp": null, "begin": null, "end": null, "altitudeMode": null, "tessellate": -1, "extrude": 0, "visibility": -1, "drawOrder": null, "icon": null, "category_group": "Information"}, "geometry": {"type": "Point", "coordinates": [7.2175381, 51.2543597]}}, {"type": "Feature", "properties": {"Name": "Informationstafel", "description": "<b>Kategorie:</b> Information — Besucherinformation<br><b>Distanz:</b> 2076 m<br><b>Website:</b> <br><b>Wikipedia:</b> <br><b>Telefon:</b> ", "timestamp": null, "begin": null, "end": null, "altitudeMode": null, "tessellate": -1, "extrude": 0, "visibility": -1, "drawOrder": null, "icon": null, "category_group": "Information"}, "geometry": {"type": "Point", "coordinates": [7.2023427, 51.2444912]}}, {"type": "Feature", "properties": {"Name": "Informationstafel", "description": "<b>Kategorie:</b> Information — Besucherinformation<br><b>Distanz:</b> 1470 m<br><b>Website:</b> <br><b>Wikipedia:</b> <br><b>Telefon:</b> ", "timestamp": null, "begin": null, "end": null, "altitudeMode": null, "tessellate": -1, "extrude": 0, "visibility": -1, "drawOrder": null, "icon": null, "category_group": "Information"}, "geometry": {"type": "Point", "coordinates": [7.1994929, 51.2498823]}}, {"type": "Feature", "properties": {"Name": "Informationstafel", "description": "<b>Kategorie:</b> Information — Besucherinformation<br><b>Distanz:</b> 1343 m<br><b>Website:</b> <br><b>Wikipedia:</b> <br><b>Telefon:</b> ", "timestamp": null, "begin": null, "end": null, "altitudeMode": null, "tessellate": -1, "extrude": 0, "visibility": -1, "drawOrder": null, "icon": null, "category_group": "Information"}, "geometry": {"type": "Point", "coordinates": [7.2099647, 51.2528101]}}, {"type": "Feature", "properties": {"Name": "Informationstafel", "description": "<b>Kategorie:</b> Information — Besucherinformation<br><b>Distanz:</b> 1871 m<br><b>Website:</b> <br><b>Wikipedia:</b> <br><b>Telefon:</b> ", "timestamp": null, "begin": null, "end": null, "altitudeMode": null, "tessellate": -1, "extrude": 0, "visibility": -1, "drawOrder": null, "icon": null, "category_group": "Information"}, "geometry": {"type": "Point", "coordinates": [7.1983824, 51.2463012]}}, {"type": "Feature", "properties": {"Name": "Informationstafel", "description": "<b>Kategorie:</b> Information — Besucherinformation<br><b>Distanz:</b> 2170 m<br><b>Website:</b> <br><b>Wikipedia:</b> <br><b>Telefon:</b> ", "timestamp": null, "begin": null, "end": null, "altitudeMode": null, "tessellate": -1, "extrude": 0, "visibility": -1, "drawOrder": null, "icon": null, "category_group": "Information"}, "geometry": {"type": "Point", "coordinates": [7.1988282, 51.2435935]}}, {"type": "Feature", "properties": {"Name": "Wuppertal-Oberbarmen, Abfahrtsplan", "description": "<b>Kategorie:</b> Information — Besucherinformation<br><b>Distanz:</b> 1939 m<br><b>Website:</b> <br><b>Wikipedia:</b> <br><b>Telefon:</b> ", "timestamp": null, "begin": null, "end": null, "altitudeMode": null, "tessellate": -1, "extrude": 0, "visibility": -1, "drawOrder": null, "icon": null, "category_group": "Information"}, "geometry": {"type": "Point", "coordinates": [7.2218213, 51.2737997]}}, {"type": "Feature", "properties": {"Name": "Historisches Zentrum", "description": "<b>Kategorie:</b> Information — Besucherinformation<br><b>Distanz:</b>  767 m<br><b>Website:</b> <br><b>Wikipedia:</b> <br><b>Telefon:</b> ", "timestamp": null, "begin": null, "end": null, "altitudeMode": null, "tessellate": -1, "extrude": 0, "visibility": -1, "drawOrder": null, "icon": null, "category_group": "Information"}, "geometry": {"type": "Point", "coordinates": [7.1906245, 51.266802]}}, {"type": "Feature", "properties": {"Name": "Information", "description": "<b>Kategorie:</b> Information — Besucherinformation<br><b>Distanz:</b>  563 m<br><b>Website:</b> <br><b>Wikipedia:</b> <br><b>Telefon:</b> ", "timestamp": null, "begin": null, "end": null, "altitudeMode": null, "tessellate": -1, "extrude": 0, "visibility": -1, "drawOrder": null, "icon": null, "category_group": "Information"}, "geometry": {"type": "Point", "coordinates": [7.1946817, 51.2669545]}}, {"type": "Feature", "properties": {"Name": "Information", "description": "<b>Kategorie:</b> Information — Besucherinformation<br><b>Distanz:</b>  568 m<br><b>Website:</b> <br><b>Wikipedia:</b> <br><b>Telefon:</b> ", "timestamp": null, "begin": null, "end": null, "altitudeMode": null, "tessellate": -1, "extrude": 0, "visibility": -1, "drawOrder": null, "icon": null, "category_group": "Information"}, "geometry": {"type": "Point", "coordinates": [7.1946457, 51.2669983]}}, {"type": "Feature", "properties": {"Name": "Wuppertal-Oberbarmen, Gleis 6", "description": "<b>Kategorie:</b> Information — Besucherinformation<br><b>Distanz:</b> 1908 m<br><b>Website:</b> <br><b>Wikipedia:</b> <br><b>Telefon:</b> ", "timestamp": null, "begin": null, "end": null, "altitudeMode": null, "tessellate": -1, "extrude": 0, "visibility": -1, "drawOrder": null, "icon": null, "category_group": "Information"}, "geometry": {"type": "Point", "coordinates": [7.2213351, 51.2737366]}}, {"type": "Feature", "properties": {"Name": "Wuppertal-Oberbarmen, Gleis 5", "description": "<b>Kategorie:</b> Information — Besucherinformation<br><b>Distanz:</b> 1909 m<br><b>Website:</b> <br><b>Wikipedia:</b> <br><b>Telefon:</b> ", "timestamp": null, "begin": null, "end": null, "altitudeMode": null, "tessellate": -1, "extrude": 0, "visibility": -1, "drawOrder": null, "icon": null, "category_group": "Information"}, "geometry": {"type": "Point", "coordinates": [7.2213304, 51.2737533]}}, {"type": "Feature", "properties": {"Name": "Wuppertal-Oberbarmen, Gleis 6", "description": "<b>Kategorie:</b> Information — Besucherinformation<br><b>Distanz:</b> 1965 m<br><b>Website:</b> <br><b>Wikipedia:</b> <br><b>Telefon:</b> ", "timestamp": null, "begin": null, "end": null, "altitudeMode": null, "tessellate": -1, "extrude": 0, "visibility": -1, "drawOrder": null, "icon": null, "category_group": "Information"}, "geometry": {"type": "Point", "coordinates": [7.2222488, 51.2738372]}}, {"type": "Feature", "properties": {"Name": "Wuppertal-Oberbarmen, Gleis 5", "description": "<b>Kategorie:</b> Information — Besucherinformation<br><b>Distanz:</b> 1966 m<br><b>Website:</b> <br><b>Wikipedia:</b> <br><b>Telefon:</b> ", "timestamp": null, "begin": null, "end": null, "altitudeMode": null, "tessellate": -1, "extrude": 0, "visibility": -1, "drawOrder": null, "icon": null, "category_group": "Information"}, "geometry": {"type": "Point", "coordinates": [7.2222441, 51.273854]}}, {"type": "Feature", "properties": {"Name": "Zauberhafte Barmer Anlagen", "description": "<b>Kategorie:</b> Information — Besucherinformation<br><b>Distanz:</b>  626 m<br><b>Website:</b> <br><b>Wikipedia:</b> <br><b>Telefon:</b> ", "timestamp": null, "begin": null, "end": null, "altitudeMode": null, "tessellate": -1, "extrude": 0, "visibility": -1, "drawOrder": null, "icon": null, "category_group": "Information"}, "geometry": {"type": "Point", "coordinates": [7.2010392, 51.2686791]}}, {"type": "Feature", "properties": {"Name": "Zauberhafte Barmer Anlagen", "description": "<b>Kategorie:</b> Information — Besucherinformation<br><b>Distanz:</b>  634 m<br><b>Website:</b> <br><b>Wikipedia:</b> <br><b>Telefon:</b> ", "timestamp": null, "begin": null, "end": null, "altitudeMode": null, "tessellate": -1, "extrude": 0, "visibility": -1, "drawOrder": null, "icon": null, "category_group": "Information"}, "geometry": {"type": "Point", "coordinates": [7.2010304, 51.2687516]}}, {"type": "Feature", "properties": {"Name": "Zauberhafte Barmer Anlagen", "description": "<b>Kategorie:</b> Information — Besucherinformation<br><b>Distanz:</b>  593 m<br><b>Website:</b> <br><b>Wikipedia:</b> <br><b>Telefon:</b> ", "timestamp": null, "begin": null, "end": null, "altitudeMode": null, "tessellate": -1, "extrude": 0, "visibility": -1, "drawOrder": null, "icon": null, "category_group": "Information"}, "geometry": {"type": "Point", "coordinates": [7.2014157, 51.2683367]}}, {"type": "Feature", "properties": {"Name": "Zauberhafte Barmer Anlagen", "description": "<b>Kategorie:</b> Information — Besucherinformation<br><b>Distanz:</b>  629 m<br><b>Website:</b> <br><b>Wikipedia:</b> <br><b>Telefon:</b> ", "timestamp": null, "begin": null, "end": null, "altitudeMode": null, "tessellate": -1, "extrude": 0, "visibility": -1, "drawOrder": null, "icon": null, "category_group": "Information"}, "geometry": {"type": "Point", "coordinates": [7.2011325, 51.2686958]}}, {"type": "Feature", "properties": {"Name": "Paulinenruhe", "description": "<b>Kategorie:</b> Information — Besucherinformation<br><b>Distanz:</b>  670 m<br><b>Website:</b> <br><b>Wikipedia:</b> <br><b>Telefon:</b> ", "timestamp": null, "begin": null, "end": null, "altitudeMode": null, "tessellate": -1, "extrude": 0, "visibility": -1, "drawOrder": null, "icon": null, "category_group": "Information"}, "geometry": {"type": "Point", "coordinates": [7.2072103, 51.2591935]}}, {"type": "Feature", "properties": {"Name": "Kindertagesstätte St. Antonius", "description": "<b>Kategorie:</b> Kinder & Jugend — Kindergarten<br><b>Distanz:</b>  924 m<br><b>Website:</b> <br><b>Wikipedia:</b> <br><b>Telefon:</b> ", "timestamp": null, "begin": null, "end": null, "altitudeMode": null, "tessellate": -1, "extrude": 0, "visibility": -1, "drawOrder": null, "icon": null, "category_group": "Kinder & Jugend"}, "geometry": {"type": "Point", "coordinates": [7.1952739, 51.2708827]}}, {"type": "Feature", "properties": {"Name": "Anni's Wunderland", "description": "<b>Kategorie:</b> Kinder & Jugend — Kinderbetreuung<br><b>Distanz:</b> 1645 m<br><b>Website:</b> <br><b>Wikipedia:</b> <br><b>Telefon:</b> ", "timestamp": null, "begin": null, "end": null, "altitudeMode": null, "tessellate": -1, "extrude": 0, "visibility": -1, "drawOrder": null, "icon": null, "category_group": "Kinder & Jugend"}, "geometry": {"type": "Point", "coordinates": [7.1784063, 51.2691715]}}, {"type": "Feature", "properties": {"Name": "Die Löwenkinder", "description": "<b>Kategorie:</b> Kinder & Jugend — Kinderbetreuung<br><b>Distanz:</b>  690 m<br><b>Website:</b> <br><b>Wikipedia:</b> <br><b>Telefon:</b> ", "timestamp": null, "begin": null, "end": null, "altitudeMode": null, "tessellate": -1, "extrude": 0, "visibility": -1, "drawOrder": null, "icon": null, "category_group": "Kinder & Jugend"}, "geometry": {"type": "Point", "coordinates": [7.1964251, 51.2689024]}}, {"type": "Feature", "properties": {"Name": "Schulhof des GGJR", "description": "<b>Kategorie:</b> Kinder & Jugend — Spielplatz<br><b>Distanz:</b>  850 m<br><b>Website:</b> <br><b>Wikipedia:</b> <br><b>Telefon:</b> ", "timestamp": null, "begin": null, "end": null, "altitudeMode": null, "tessellate": -1, "extrude": 0, "visibility": -1, "drawOrder": null, "icon": null, "category_group": "Kinder & Jugend"}, "geometry": {"type": "Point", "coordinates": [7.1878473, 51.264237]}}, {"type": "Feature", "properties": {"Name": "Löwenherz", "description": "<b>Kategorie:</b> Kinder & Jugend — Kinderbetreuung<br><b>Distanz:</b> 1521 m<br><b>Website:</b> <br><b>Wikipedia:</b> <br><b>Telefon:</b> ", "timestamp": null, "begin": null, "end": null, "altitudeMode": null, "tessellate": -1, "extrude": 0, "visibility": -1, "drawOrder": null, "icon": null, "category_group": "Kinder & Jugend"}, "geometry": {"type": "Point", "coordinates": [7.1797315, 51.2682836]}}, {"type": "Feature", "properties": {"Name": "Zaubersterne", "description": "<b>Kategorie:</b> Kinder & Jugend — Kindergarten<br><b>Distanz:</b> 2232 m<br><b>Website:</b> <br><b>Wikipedia:</b> <br><b>Telefon:</b> ", "timestamp": null, "begin": null, "end": null, "altitudeMode": null, "tessellate": -1, "extrude": 0, "visibility": -1, "drawOrder": null, "icon": null, "category_group": "Kinder & Jugend"}, "geometry": {"type": "Point", "coordinates": [7.1773201, 51.2773159]}}, {"type": "Feature", "properties": {"Name": "Waldkindergarten Wuppertal", "description": "<b>Kategorie:</b> Kinder & Jugend — Kindergarten<br><b>Distanz:</b> 1225 m<br><b>Website:</b> <br><b>Wikipedia:</b> <br><b>Telefon:</b> ", "timestamp": null, "begin": null, "end": null, "altitudeMode": null, "tessellate": -1, "extrude": 0, "visibility": -1, "drawOrder": null, "icon": null, "category_group": "Kinder & Jugend"}, "geometry": {"type": "Point", "coordinates": [7.2174119, 51.2624245]}}, {"type": "Feature", "properties": {"Name": "Städt. Kita Oberdörnen", "description": "<b>Kategorie:</b> Kinder & Jugend — Kindergarten<br><b>Distanz:</b>  985 m<br><b>Website:</b> <br><b>Wikipedia:</b> <br><b>Telefon:</b> +49 202 25 47 413", "timestamp": null, "begin": null, "end": null, "altitudeMode": null, "tessellate": -1, "extrude": 0, "visibility": -1, "drawOrder": null, "icon": null, "category_group": "Kinder & Jugend"}, "geometry": {"type": "Point", "coordinates": [7.1938633, 51.2710994]}}, {"type": "Feature", "properties": {"Name": "Integrative Kindertagesstätte Hokus Pokus e.V.", "description": "<b>Kategorie:</b> Kinder & Jugend — Kinderbetreuung<br><b>Distanz:</b> 1970 m<br><b>Website:</b> https://www.hokuspokus-wuppertal.de<br><b>Wikipedia:</b> <br><b>Telefon:</b> +492027051055", "timestamp": null, "begin": null, "end": null, "altitudeMode": null, "tessellate": -1, "extrude": 0, "visibility": -1, "drawOrder": null, "icon": null, "category_group": "Kinder & Jugend"}, "geometry": {"type": "Point", "coordinates": [7.1921722, 51.2801263]}}, {"type": "Feature", "properties": {"Name": "Monas Kinderkörbchen", "description": "<b>Kategorie:</b> Kinder & Jugend — Kinderbetreuung<br><b>Distanz:</b> 1986 m<br><b>Website:</b> <br><b>Wikipedia:</b> <br><b>Telefon:</b> ", "timestamp": null, "begin": null, "end": null, "altitudeMode": null, "tessellate": -1, "extrude": 0, "visibility": -1, "drawOrder": null, "icon": null, "category_group": "Kinder & Jugend"}, "geometry": {"type": "Point", "coordinates": [7.1792186, 51.275366]}}, {"type": "Feature", "properties": {"Name": "Jenny's Pandabande", "description": "<b>Kategorie:</b> Kinder & Jugend — Kinderbetreuung<br><b>Distanz:</b> 2087 m<br><b>Website:</b> <br><b>Wikipedia:</b> <br><b>Telefon:</b> ", "timestamp": null, "begin": null, "end": null, "altitudeMode": null, "tessellate": -1, "extrude": 0, "visibility": -1, "drawOrder": null, "icon": null, "category_group": "Kinder & Jugend"}, "geometry": {"type": "Point", "coordinates": [7.2273989, 51.2704464]}}, {"type": "Feature", "properties": {"Name": "Kindertagesstätte CVJM Oberbarmen", "description": "<b>Kategorie:</b> Kinder & Jugend — Kinderbetreuung<br><b>Distanz:</b> 2145 m<br><b>Website:</b> https://cvjm-kita-oberbarmen.de/<br><b>Wikipedia:</b> <br><b>Telefon:</b> +4920226534195", "timestamp": null, "begin": null, "end": null, "altitudeMode": null, "tessellate": -1, "extrude": 0, "visibility": -1, "drawOrder": null, "icon": null, "category_group": "Kinder & Jugend"}, "geometry": {"type": "Point", "coordinates": [7.2188054, 51.278292]}}, {"type": "Feature", "properties": {"Name": "Kindertagesstätte 2 CVJM Oberbarmen", "description": "<b>Kategorie:</b> Kinder & Jugend — Kinderbetreuung<br><b>Distanz:</b> 2102 m<br><b>Website:</b> https://cvjm-kita-oberbarmen.de/<br><b>Wikipedia:</b> <br><b>Telefon:</b> +49202 69 75 88 57", "timestamp": null, "begin": null, "end": null, "altitudeMode": null, "tessellate": -1, "extrude": 0, "visibility": -1, "drawOrder": null, "icon": null, "category_group": "Kinder & Jugend"}, "geometry": {"type": "Point", "coordinates": [7.2197083, 51.277324]}}, {"type": "Feature", "properties": {"Name": "Großtagespflege Häschengrube", "description": "<b>Kategorie:</b> Kinder & Jugend — Kindergarten<br><b>Distanz:</b> 2002 m<br><b>Website:</b> <br><b>Wikipedia:</b> <br><b>Telefon:</b> ", "timestamp": null, "begin": null, "end": null, "altitudeMode": null, "tessellate": -1, "extrude": 0, "visibility": -1, "drawOrder": null, "icon": null, "category_group": "Kinder & Jugend"}, "geometry": {"type": "Point", "coordinates": [7.188172, 51.2795275]}}, {"type": "Feature", "properties": {"Name": "Seifenblase", "description": "<b>Kategorie:</b> Kinder & Jugend — Kindergarten<br><b>Distanz:</b> 1972 m<br><b>Website:</b> http://www.kita-seifenblase.de/<br><b>Wikipedia:</b> <br><b>Telefon:</b> +49202509755", "timestamp": null, "begin": null, "end": null, "altitudeMode": null, "tessellate": -1, "extrude": 0, "visibility": -1, "drawOrder": null, "icon": null, "category_group": "Kinder & Jugend"}, "geometry": {"type": "Point", "coordinates": [7.197981, 51.2807844]}}, {"type": "Feature", "properties": {"Name": "Koba", "description": "<b>Kategorie:</b> Kinder & Jugend — Kinderbetreuung<br><b>Distanz:</b>  425 m<br><b>Website:</b> <br><b>Wikipedia:</b> <br><b>Telefon:</b> ", "timestamp": null, "begin": null, "end": null, "altitudeMode": null, "tessellate": -1, "extrude": 0, "visibility": -1, "drawOrder": null, "icon": null, "category_group": "Kinder & Jugend"}, "geometry": {"type": "Point", "coordinates": [7.1939704, 51.2639815]}}, {"type": "Feature", "properties": {"Name": "Großtagespflege \"Sonnenschein\"", "description": "<b>Kategorie:</b> Kinder & Jugend — Kinderbetreuung<br><b>Distanz:</b>  700 m<br><b>Website:</b> <br><b>Wikipedia:</b> <br><b>Telefon:</b> +49 2157 3028 221", "timestamp": null, "begin": null, "end": null, "altitudeMode": null, "tessellate": -1, "extrude": 0, "visibility": -1, "drawOrder": null, "icon": null, "category_group": "Kinder & Jugend"}, "geometry": {"type": "Point", "coordinates": [7.1903159, 51.2649665]}}, {"type": "Feature", "properties": {"Name": "Raupe zum Schmetterling", "description": "<b>Kategorie:</b> Kinder & Jugend — Kinderbetreuung<br><b>Distanz:</b> 1372 m<br><b>Website:</b> <br><b>Wikipedia:</b> <br><b>Telefon:</b> ", "timestamp": null, "begin": null, "end": null, "altitudeMode": null, "tessellate": -1, "extrude": 0, "visibility": -1, "drawOrder": null, "icon": null, "category_group": "Kinder & Jugend"}, "geometry": {"type": "Point", "coordinates": [7.1803005, 51.2641283]}}, {"type": "Feature", "properties": {"Name": "Museum auf der Hardt", "description": "<b>Kategorie:</b> Kultur & Geschichte — Museum<br><b>Distanz:</b> 2063 m<br><b>Website:</b> https://www.vemission.org/museumarchive/museum-auf-der-hardt.html<br><b>Wikipedia:</b> <br><b>Telefon:</b> ", "timestamp": null, "begin": null, "end": null, "altitudeMode": null, "tessellate": -1, "extrude": 0, "visibility": -1, "drawOrder": null, "icon": null, "category_group": "Kultur & Geschichte"}, "geometry": {"type": "Point", "coordinates": [7.1704881, 51.2650035]}}, {"type": "Feature", "properties": {"Name": "Theater am Engelsgarten", "description": "<b>Kategorie:</b> Kultur & Geschichte — Theater<br><b>Distanz:</b>  756 m<br><b>Website:</b> <br><b>Wikipedia:</b> <br><b>Telefon:</b> ", "timestamp": null, "begin": null, "end": null, "altitudeMode": null, "tessellate": -1, "extrude": 0, "visibility": -1, "drawOrder": null, "icon": null, "category_group": "Kultur & Geschichte"}, "geometry": {"type": "Point", "coordinates": [7.1900881, 51.2659886]}}, {"type": "Feature", "properties": {"Name": "Historisches Zentrum im Kontor 91", "description": "<b>Kategorie:</b> Kultur & Geschichte — Museum<br><b>Distanz:</b> 1106 m<br><b>Website:</b> <br><b>Wikipedia:</b> <br><b>Telefon:</b> ", "timestamp": null, "begin": null, "end": null, "altitudeMode": null, "tessellate": -1, "extrude": 0, "visibility": -1, "drawOrder": null, "icon": null, "category_group": "Kultur & Geschichte"}, "geometry": {"type": "Point", "coordinates": [7.2050179, 51.2725004]}}, {"type": "Feature", "properties": {"Name": "Engels-Pavillon", "description": "<b>Kategorie:</b> Kultur & Geschichte — Museum<br><b>Distanz:</b>  773 m<br><b>Website:</b> <br><b>Wikipedia:</b> <br><b>Telefon:</b> ", "timestamp": null, "begin": null, "end": null, "altitudeMode": null, "tessellate": -1, "extrude": 0, "visibility": -1, "drawOrder": null, "icon": null, "category_group": "Kultur & Geschichte"}, "geometry": {"type": "Point", "coordinates": [7.190427, 51.2667115]}}, {"type": "Feature", "properties": {"Name": "Visiodrom", "description": "<b>Kategorie:</b> Kultur & Geschichte — Museum<br><b>Distanz:</b> 2034 m<br><b>Website:</b> https://visiodrom.de/<br><b>Wikipedia:</b> <br><b>Telefon:</b> ", "timestamp": null, "begin": null, "end": null, "altitudeMode": null, "tessellate": -1, "extrude": 0, "visibility": -1, "drawOrder": null, "icon": null, "category_group": "Kultur & Geschichte"}, "geometry": {"type": "Point", "coordinates": [7.2254593, 51.2718753]}}, {"type": "Feature", "properties": {"Name": "Skulpturenpark Waldfrieden", "description": "<b>Kategorie:</b> Kultur & Geschichte — Museum<br><b>Distanz:</b> 2487 m<br><b>Website:</b> https://skulpturenpark-waldfrieden.de/<br><b>Wikipedia:</b> de:Skulpturenpark Waldfrieden<br><b>Telefon:</b> +49 202 47898120", "timestamp": null, "begin": null, "end": null, "altitudeMode": null, "tessellate": -1, "extrude": 0, "visibility": -1, "drawOrder": null, "icon": null, "category_group": "Kultur & Geschichte"}, "geometry": {"type": "Point", "coordinates": [7.1683108, 51.2527404]}}, {"type": "Feature", "properties": {"Name": "Astropfad: Saturn", "description": "<b>Kategorie:</b> Kultur & Geschichte — Attraktion<br><b>Distanz:</b> 2002 m<br><b>Website:</b> <br><b>Wikipedia:</b> de:Astropfad Wuppertal<br><b>Telefon:</b> ", "timestamp": null, "begin": null, "end": null, "altitudeMode": null, "tessellate": -1, "extrude": 0, "visibility": -1, "drawOrder": null, "icon": null, "category_group": "Kultur & Geschichte"}, "geometry": {"type": "Point", "coordinates": [7.1712064, 51.2635581]}}, {"type": "Feature", "properties": {"Name": "Astropfad: Jupiter", "description": "<b>Kategorie:</b> Kultur & Geschichte — Attraktion<br><b>Distanz:</b>  910 m<br><b>Website:</b> <br><b>Wikipedia:</b> de:Astropfad Wuppertal<br><b>Telefon:</b> ", "timestamp": null, "begin": null, "end": null, "altitudeMode": null, "tessellate": -1, "extrude": 0, "visibility": -1, "drawOrder": null, "icon": null, "category_group": "Kultur & Geschichte"}, "geometry": {"type": "Point", "coordinates": [7.1880419, 51.2665021]}}, {"type": "Feature", "properties": {"Name": "Astropfad: Mars", "description": "<b>Kategorie:</b> Kultur & Geschichte — Attraktion<br><b>Distanz:</b>  923 m<br><b>Website:</b> <br><b>Wikipedia:</b> de:Astropfad Wuppertal<br><b>Telefon:</b> ", "timestamp": null, "begin": null, "end": null, "altitudeMode": null, "tessellate": -1, "extrude": 0, "visibility": -1, "drawOrder": null, "icon": null, "category_group": "Kultur & Geschichte"}, "geometry": {"type": "Point", "coordinates": [7.2001051, 51.271394]}}, {"type": "Feature", "properties": {"Name": "Astropfad: Erde", "description": "<b>Kategorie:</b> Kultur & Geschichte — Attraktion<br><b>Distanz:</b>  997 m<br><b>Website:</b> <br><b>Wikipedia:</b> de:Astropfad Wuppertal<br><b>Telefon:</b> ", "timestamp": null, "begin": null, "end": null, "altitudeMode": null, "tessellate": -1, "extrude": 0, "visibility": -1, "drawOrder": null, "icon": null, "category_group": "Kultur & Geschichte"}, "geometry": {"type": "Point", "coordinates": [7.2025265, 51.2719021]}}, {"type": "Feature", "properties": {"Name": "Astropfad: Venus", "description": "<b>Kategorie:</b> Kultur & Geschichte — Attraktion<br><b>Distanz:</b> 1017 m<br><b>Website:</b> <br><b>Wikipedia:</b> de:Astropfad Wuppertal<br><b>Telefon:</b> ", "timestamp": null, "begin": null, "end": null, "altitudeMode": null, "tessellate": -1, "extrude": 0, "visibility": -1, "drawOrder": null, "icon": null, "category_group": "Kultur & Geschichte"}, "geometry": {"type": "Point", "coordinates": [7.2031443, 51.2720048]}}, {"type": "Feature", "properties": {"Name": "Astropfad: Sonne", "description": "<b>Kategorie:</b> Kultur & Geschichte — Attraktion<br><b>Distanz:</b> 1147 m<br><b>Website:</b> <br><b>Wikipedia:</b> de:Astropfad Wuppertal<br><b>Telefon:</b> ", "timestamp": null, "begin": null, "end": null, "altitudeMode": null, "tessellate": -1, "extrude": 0, "visibility": -1, "drawOrder": null, "icon": null, "category_group": "Kultur & Geschichte"}, "geometry": {"type": "Point", "coordinates": [7.2061198, 51.2726323]}}, {"type": "Feature", "properties": {"Name": "Astropfad: Merkur", "description": "<b>Kategorie:</b> Kultur & Geschichte — Attraktion<br><b>Distanz:</b> 1086 m<br><b>Website:</b> <br><b>Wikipedia:</b> de:Astropfad Wuppertal<br><b>Telefon:</b> ", "timestamp": null, "begin": null, "end": null, "altitudeMode": null, "tessellate": -1, "extrude": 0, "visibility": -1, "drawOrder": null, "icon": null, "category_group": "Kultur & Geschichte"}, "geometry": {"type": "Point", "coordinates": [7.2047763, 51.2723675]}}, {"type": "Feature", "properties": {"Name": "Stromhistorische Arbeitsgemeinschaft der WSW", "description": "<b>Kategorie:</b> Kultur & Geschichte — Museum<br><b>Distanz:</b> 2042 m<br><b>Website:</b> <br><b>Wikipedia:</b> <br><b>Telefon:</b> ", "timestamp": null, "begin": null, "end": null, "altitudeMode": null, "tessellate": -1, "extrude": 0, "visibility": -1, "drawOrder": null, "icon": null, "category_group": "Kultur & Geschichte"}, "geometry": {"type": "Point", "coordinates": [7.2182171, 51.2774123]}}, {"type": "Feature", "properties": {"Name": "St. Art. Atelier", "description": "<b>Kategorie:</b> Kultur & Geschichte — Galerie<br><b>Distanz:</b> 1607 m<br><b>Website:</b> <br><b>Wikipedia:</b> <br><b>Telefon:</b> ", "timestamp": null, "begin": null, "end": null, "altitudeMode": null, "tessellate": -1, "extrude": 0, "visibility": -1, "drawOrder": null, "icon": null, "category_group": "Kultur & Geschichte"}, "geometry": {"type": "Point", "coordinates": [7.177069, 51.2650177]}}, {"type": "Feature", "properties": {"Name": "Schwebodrom", "description": "<b>Kategorie:</b> Kultur & Geschichte — Museum<br><b>Distanz:</b> 1115 m<br><b>Website:</b> https://schwebodrom.com/<br><b>Wikipedia:</b> <br><b>Telefon:</b> +49 202 94608830", "timestamp": null, "begin": null, "end": null, "altitudeMode": null, "tessellate": -1, "extrude": 0, "visibility": -1, "drawOrder": null, "icon": null, "category_group": "Kultur & Geschichte"}, "geometry": {"type": "Point", "coordinates": [7.2056532, 51.2724427]}}, {"type": "Feature", "properties": {"Name": "Schwarzbach-Galerie", "description": "<b>Kategorie:</b> Kultur & Geschichte — Galerie<br><b>Distanz:</b> 3215 m<br><b>Website:</b> <br><b>Wikipedia:</b> <br><b>Telefon:</b> ", "timestamp": null, "begin": null, "end": null, "altitudeMode": null, "tessellate": -1, "extrude": 0, "visibility": -1, "drawOrder": null, "icon": null, "category_group": "Kultur & Geschichte"}, "geometry": {"type": "Point", "coordinates": [7.2294927, 51.2852505]}}, {"type": "Feature", "properties": {"Name": "Vulkanisationspresse (1905)", "description": "<b>Kategorie:</b> Kultur & Geschichte — Attraktion<br><b>Distanz:</b> 1983 m<br><b>Website:</b> <br><b>Wikipedia:</b> <br><b>Telefon:</b> ", "timestamp": null, "begin": null, "end": null, "altitudeMode": null, "tessellate": -1, "extrude": 0, "visibility": -1, "drawOrder": null, "icon": null, "category_group": "Kultur & Geschichte"}, "geometry": {"type": "Point", "coordinates": [7.1914597, 51.2460687]}}, {"type": "Feature", "properties": {"Name": "Extruder (1932)", "description": "<b>Kategorie:</b> Kultur & Geschichte — Attraktion<br><b>Distanz:</b> 1982 m<br><b>Website:</b> <br><b>Wikipedia:</b> <br><b>Telefon:</b> ", "timestamp": null, "begin": null, "end": null, "altitudeMode": null, "tessellate": -1, "extrude": 0, "visibility": -1, "drawOrder": null, "icon": null, "category_group": "Kultur & Geschichte"}, "geometry": {"type": "Point", "coordinates": [7.1916535, 51.2460401]}}, {"type": "Feature", "properties": {"Name": "Historische Lokomotive", "description": "<b>Kategorie:</b> Kultur & Geschichte — Attraktion<br><b>Distanz:</b> 1659 m<br><b>Website:</b> <br><b>Wikipedia:</b> <br><b>Telefon:</b> ", "timestamp": null, "begin": null, "end": null, "altitudeMode": null, "tessellate": -1, "extrude": 0, "visibility": -1, "drawOrder": null, "icon": null, "category_group": "Kultur & Geschichte"}, "geometry": {"type": "Point", "coordinates": [7.1791827, 51.2704217]}}, {"type": "Feature", "properties": {"Name": "Sommerlinde", "description": "<b>Kategorie:</b> Natur & Landschaft — Natur-Feature (alle)<br><b>Distanz:</b> 2023 m<br><b>Website:</b> <br><b>Wikipedia:</b> <br><b>Telefon:</b> ", "timestamp": null, "begin": null, "end": null, "altitudeMode": null, "tessellate": -1, "extrude": 0, "visibility": -1, "drawOrder": null, "icon": null, "category_group": "Natur & Landschaft"}, "geometry": {"type": "Point", "coordinates": [7.1969102, 51.2811825]}}, {"type": "Feature", "properties": {"Name": "Stübchensberg", "description": "<b>Kategorie:</b> Natur & Landschaft — Natur-Feature (alle)<br><b>Distanz:</b> 2541 m<br><b>Website:</b> <br><b>Wikipedia:</b> <br><b>Telefon:</b> ", "timestamp": null, "begin": null, "end": null, "altitudeMode": null, "tessellate": -1, "extrude": 0, "visibility": -1, "drawOrder": null, "icon": null, "category_group": "Natur & Landschaft"}, "geometry": {"type": "Point", "coordinates": [7.1730258, 51.2785168]}}, {"type": "Feature", "properties": {"Name": "Kaiser-Wilhelm-Höhe", "description": "<b>Kategorie:</b> Natur & Landschaft — Natur-Feature (alle)<br><b>Distanz:</b> 1859 m<br><b>Website:</b> <br><b>Wikipedia:</b> de:Kaiser-Wilhelm-Höhe<br><b>Telefon:</b> ", "timestamp": null, "begin": null, "end": null, "altitudeMode": null, "tessellate": -1, "extrude": 0, "visibility": -1, "drawOrder": null, "icon": null, "category_group": "Natur & Landschaft"}, "geometry": {"type": "Point", "coordinates": [7.226518, 51.2635781]}}, {"type": "Feature", "properties": {"Name": "Skywalk", "description": "<b>Kategorie:</b> Natur & Landschaft — Aussichtspunkt<br><b>Distanz:</b> 2500 m<br><b>Website:</b> <br><b>Wikipedia:</b> <br><b>Telefon:</b> ", "timestamp": null, "begin": null, "end": null, "altitudeMode": null, "tessellate": -1, "extrude": 0, "visibility": -1, "drawOrder": null, "icon": null, "category_group": "Natur & Landschaft"}, "geometry": {"type": "Point", "coordinates": [7.204622, 51.2853695]}}, {"type": "Feature", "properties": {"Name": "Birke", "description": "<b>Kategorie:</b> Natur & Landschaft — Natur-Feature (alle)<br><b>Distanz:</b> 2435 m<br><b>Website:</b> <br><b>Wikipedia:</b> <br><b>Telefon:</b> ", "timestamp": null, "begin": null, "end": null, "altitudeMode": null, "tessellate": -1, "extrude": 0, "visibility": -1, "drawOrder": null, "icon": null, "category_group": "Natur & Landschaft"}, "geometry": {"type": "Point", "coordinates": [7.165905, 51.2680658]}}, {"type": "Feature", "properties": {"Name": "Walnuss", "description": "<b>Kategorie:</b> Natur & Landschaft — Natur-Feature (alle)<br><b>Distanz:</b> 2428 m<br><b>Website:</b> <br><b>Wikipedia:</b> <br><b>Telefon:</b> ", "timestamp": null, "begin": null, "end": null, "altitudeMode": null, "tessellate": -1, "extrude": 0, "visibility": -1, "drawOrder": null, "icon": null, "category_group": "Natur & Landschaft"}, "geometry": {"type": "Point", "coordinates": [7.1659804, 51.2680025]}}, {"type": "Feature", "properties": {"Name": "Skywalk", "description": "<b>Kategorie:</b> Natur & Landschaft — Aussichtspunkt<br><b>Distanz:</b> 2041 m<br><b>Website:</b> <br><b>Wikipedia:</b> <br><b>Telefon:</b> ", "timestamp": null, "begin": null, "end": null, "altitudeMode": null, "tessellate": -1, "extrude": 0, "visibility": -1, "drawOrder": null, "icon": null, "category_group": "Natur & Landschaft"}, "geometry": {"type": "Point", "coordinates": [7.2256414, 51.271787]}}, {"type": "Feature", "properties": {"Name": "Scharpenacker Berge", "description": "<b>Kategorie:</b> Natur & Landschaft — Natur-Feature (alle)<br><b>Distanz:</b> 1569 m<br><b>Website:</b> <br><b>Wikipedia:</b> de:Scharpenacker Berge<br><b>Telefon:</b> ", "timestamp": null, "begin": null, "end": null, "altitudeMode": null, "tessellate": -1, "extrude": 0, "visibility": -1, "drawOrder": null, "icon": null, "category_group": "Natur & Landschaft"}, "geometry": {"type": "Point", "coordinates": [7.215662, 51.2530485]}}, {"type": "Feature", "properties": {"Name": "Lichtscheid", "description": "<b>Kategorie:</b> Natur & Landschaft — Natur-Feature (alle)<br><b>Distanz:</b> 2116 m<br><b>Website:</b> <br><b>Wikipedia:</b> de:Lichtscheid<br><b>Telefon:</b> ", "timestamp": null, "begin": null, "end": null, "altitudeMode": null, "tessellate": -1, "extrude": 0, "visibility": -1, "drawOrder": null, "icon": null, "category_group": "Natur & Landschaft"}, "geometry": {"type": "Point", "coordinates": [7.1889109, 51.2453623]}}, {"type": "Feature", "properties": {"Name": "Hardtberg", "description": "<b>Kategorie:</b> Natur & Landschaft — Natur-Feature (alle)<br><b>Distanz:</b> 2209 m<br><b>Website:</b> <br><b>Wikipedia:</b> de:Hardtberg<br><b>Telefon:</b> ", "timestamp": null, "begin": null, "end": null, "altitudeMode": null, "tessellate": -1, "extrude": 0, "visibility": -1, "drawOrder": null, "icon": null, "category_group": "Natur & Landschaft"}, "geometry": {"type": "Point", "coordinates": [7.1683425, 51.2647591]}}, {"type": "Feature", "properties": {"Name": "Wollspinnersberg", "description": "<b>Kategorie:</b> Natur & Landschaft — Natur-Feature (alle)<br><b>Distanz:</b> 2488 m<br><b>Website:</b> <br><b>Wikipedia:</b> de:Wollspinnersberg<br><b>Telefon:</b> ", "timestamp": null, "begin": null, "end": null, "altitudeMode": null, "tessellate": -1, "extrude": 0, "visibility": -1, "drawOrder": null, "icon": null, "category_group": "Natur & Landschaft"}, "geometry": {"type": "Point", "coordinates": [7.1998394, 51.2854644]}}, {"type": "Feature", "properties": {"Name": "Blutbuche", "description": "<b>Kategorie:</b> Natur & Landschaft — Natur-Feature (alle)<br><b>Distanz:</b> 3070 m<br><b>Website:</b> <br><b>Wikipedia:</b> <br><b>Telefon:</b> ", "timestamp": null, "begin": null, "end": null, "altitudeMode": null, "tessellate": -1, "extrude": 0, "visibility": -1, "drawOrder": null, "icon": null, "category_group": "Natur & Landschaft"}, "geometry": {"type": "Point", "coordinates": [7.1640845, 51.2791397]}}, {"type": "Feature", "properties": {"Name": "Hohenstein", "description": "<b>Kategorie:</b> Natur & Landschaft — Natur-Feature (alle)<br><b>Distanz:</b> 1087 m<br><b>Website:</b> <br><b>Wikipedia:</b> de:Hohenstein (Wuppertal)<br><b>Telefon:</b> ", "timestamp": null, "begin": null, "end": null, "altitudeMode": null, "tessellate": -1, "extrude": 0, "visibility": -1, "drawOrder": null, "icon": null, "category_group": "Natur & Landschaft"}, "geometry": {"type": "Point", "coordinates": [7.1874797, 51.2690008]}}, {"type": "Feature", "properties": {"Name": "Stieleiche", "description": "<b>Kategorie:</b> Natur & Landschaft — Natur-Feature (alle)<br><b>Distanz:</b> 2175 m<br><b>Website:</b> <br><b>Wikipedia:</b> <br><b>Telefon:</b> ", "timestamp": null, "begin": null, "end": null, "altitudeMode": null, "tessellate": -1, "extrude": 0, "visibility": -1, "drawOrder": null, "icon": null, "category_group": "Natur & Landschaft"}, "geometry": {"type": "Point", "coordinates": [7.1687392, 51.2637856]}}, {"type": "Feature", "properties": {"Name": "Ahornblättrige Platane", "description": "<b>Kategorie:</b> Natur & Landschaft — Natur-Feature (alle)<br><b>Distanz:</b> 1726 m<br><b>Website:</b> <br><b>Wikipedia:</b> <br><b>Telefon:</b> ", "timestamp": null, "begin": null, "end": null, "altitudeMode": null, "tessellate": -1, "extrude": 0, "visibility": -1, "drawOrder": null, "icon": null, "category_group": "Natur & Landschaft"}, "geometry": {"type": "Point", "coordinates": [7.1948931, 51.2782871]}}, {"type": "Feature", "properties": {"Name": "Birnbaum", "description": "<b>Kategorie:</b> Natur & Landschaft — Natur-Feature (alle)<br><b>Distanz:</b> 1305 m<br><b>Website:</b> <br><b>Wikipedia:</b> <br><b>Telefon:</b> ", "timestamp": null, "begin": null, "end": null, "altitudeMode": null, "tessellate": -1, "extrude": 0, "visibility": -1, "drawOrder": null, "icon": null, "category_group": "Natur & Landschaft"}, "geometry": {"type": "Point", "coordinates": [7.184782, 51.270004]}}, {"type": "Feature", "properties": {"Name": "Hardthöhlen", "description": "<b>Kategorie:</b> Natur & Landschaft — Natur-Feature (alle)<br><b>Distanz:</b> 2169 m<br><b>Website:</b> https://akkh.de/<br><b>Wikipedia:</b> de:Hardthöhlen<br><b>Telefon:</b> ", "timestamp": null, "begin": null, "end": null, "altitudeMode": null, "tessellate": -1, "extrude": 0, "visibility": -1, "drawOrder": null, "icon": null, "category_group": "Natur & Landschaft"}, "geometry": {"type": "Point", "coordinates": [7.1688369, 51.2622298]}}]}