{"type": "FeatureCollection", "features": [{"type": "Feature", "properties": {"Name": "JH 324 — Jugendherberge Wolfsburg", "description": "<b>JH Nr:</b> 324<br><b>Name:</b> Jugendherberge Wolfsburg<br><b>Ort:</b> Wolfsburg", "timestamp": null, "begin": null, "end": null, "altitudeMode": null, "tessellate": -1, "extrude": 0, "visibility": -1, "drawOrder": null, "icon": null, "category_group": "JH"}, "geometry": {"type": "Point", "coordinates": [10.8053571, 52.4145464]}}, {"type": "Feature", "properties": {"Name": "Stadtbibliothek", "description": "<b>Kategorie:</b> Bildungsinfrastruktur — Bibliothek<br><b>Distanz:</b> 1428 m<br><b>Website:</b> https://www.wolfsburg.de/kultur/bibliotheken/stadtbibliothek<br><b>Wikipedia:</b> <br><b>Telefon:</b> +49 5361 28-2530", "timestamp": null, "begin": null, "end": null, "altitudeMode": null, "tessellate": -1, "extrude": 0, "visibility": -1, "drawOrder": null, "icon": null, "category_group": "Bildungsinfrastruktur"}, "geometry": {"type": "Point", "coordinates": [10.7862092, 52.4198076]}}, {"type": "Feature", "properties": {"Name": "BBS-2", "description": "<b>Kategorie:</b> Bildungsinfrastruktur — Schule<br><b>Distanz:</b> 2114 m<br><b>Website:</b> <br><b>Wikipedia:</b> <br><b>Telefon:</b> ", "timestamp": null, "begin": null, "end": null, "altitudeMode": null, "tessellate": -1, "extrude": 0, "visibility": -1, "drawOrder": null, "icon": null, "category_group": "Bildungsinfrastruktur"}, "geometry": {"type": "Point", "coordinates": [10.7799936, 52.4255255]}}, {"type": "Feature", "properties": {"Name": "Ostfalia Hochschule für angewandte Wissenschaften", "description": "<b>Kategorie:</b> Bildungsinfrastruktur — Universität<br><b>Distanz:</b> 1737 m<br><b>Website:</b> <br><b>Wikipedia:</b> <br><b>Telefon:</b> ", "timestamp": null, "begin": null, "end": null, "altitudeMode": null, "tessellate": -1, "extrude": 0, "visibility": -1, "drawOrder": null, "icon": null, "category_group": "Bildungsinfrastruktur"}, "geometry": {"type": "Point", "coordinates": [10.7876793, 52.4258086]}}, {"type": "Feature", "properties": {"Name": "Ostfalia Atelier Material + Technisches Design", "description": "<b>Kategorie:</b> Bildungsinfrastruktur — Hochschule<br><b>Distanz:</b> 1872 m<br><b>Website:</b> <br><b>Wikipedia:</b> <br><b>Telefon:</b> ", "timestamp": null, "begin": null, "end": null, "altitudeMode": null, "tessellate": -1, "extrude": 0, "visibility": -1, "drawOrder": null, "icon": null, "category_group": "Bildungsinfrastruktur"}, "geometry": {"type": "Point", "coordinates": [10.7864697, 52.4267821]}}, {"type": "Feature", "properties": {"Name": "Congress Park", "description": "<b>Kategorie:</b> Bildungsinfrastruktur — Gemeindezentrum<br><b>Distanz:</b> 1800 m<br><b>Website:</b> <br><b>Wikipedia:</b> <br><b>Telefon:</b> ", "timestamp": null, "begin": null, "end": null, "altitudeMode": null, "tessellate": -1, "extrude": 0, "visibility": -1, "drawOrder": null, "icon": null, "category_group": "Bildungsinfrastruktur"}, "geometry": {"type": "Point", "coordinates": [10.7793239, 52.4174281]}}, {"type": "Feature", "properties": {"Name": "Föhrenkrug", "description": "<b>Kategorie:</b> Bildungsinfrastruktur — Gemeindezentrum<br><b>Distanz:</b> 1318 m<br><b>Website:</b> <br><b>Wikipedia:</b> <br><b>Telefon:</b> ", "timestamp": null, "begin": null, "end": null, "altitudeMode": null, "tessellate": -1, "extrude": 0, "visibility": -1, "drawOrder": null, "icon": null, "category_group": "Bildungsinfrastruktur"}, "geometry": {"type": "Point", "coordinates": [10.7891911, 52.4210852]}}, {"type": "Feature", "properties": {"Name": "Bibliothek Ostfalia Hochschule", "description": "<b>Kategorie:</b> Bildungsinfrastruktur — Bibliothek<br><b>Distanz:</b> 1906 m<br><b>Website:</b> <br><b>Wikipedia:</b> <br><b>Telefon:</b> ", "timestamp": null, "begin": null, "end": null, "altitudeMode": null, "tessellate": -1, "extrude": 0, "visibility": -1, "drawOrder": null, "icon": null, "category_group": "Bildungsinfrastruktur"}, "geometry": {"type": "Point", "coordinates": [10.786595, 52.4272686]}}, {"type": "Feature", "properties": {"Name": "Studierenden-Servicebüro, Cafeteria, Hörsaalgebäude", "description": "<b>Kategorie:</b> Bildungsinfrastruktur — Hochschule<br><b>Distanz:</b> 1741 m<br><b>Website:</b> https://www.ostfalia.de<br><b>Wikipedia:</b> <br><b>Telefon:</b> ", "timestamp": null, "begin": null, "end": null, "altitudeMode": null, "tessellate": -1, "extrude": 0, "visibility": -1, "drawOrder": null, "icon": null, "category_group": "Bildungsinfrastruktur"}, "geometry": {"type": "Point", "coordinates": [10.7878045, 52.425938]}}, {"type": "Feature", "properties": {"Name": "Ostfalia Gebäude F", "description": "<b>Kategorie:</b> Bildungsinfrastruktur — Hochschule<br><b>Distanz:</b> 1988 m<br><b>Website:</b> <br><b>Wikipedia:</b> <br><b>Telefon:</b> ", "timestamp": null, "begin": null, "end": null, "altitudeMode": null, "tessellate": -1, "extrude": 0, "visibility": -1, "drawOrder": null, "icon": null, "category_group": "Bildungsinfrastruktur"}, "geometry": {"type": "Point", "coordinates": [10.7822545, 52.4254952]}}, {"type": "Feature", "properties": {"Name": "42 Wolfsburg", "description": "<b>Kategorie:</b> Bildungsinfrastruktur — Hochschule<br><b>Distanz:</b> 1721 m<br><b>Website:</b> https://42wolfsburg.de/<br><b>Wikipedia:</b> <br><b>Telefon:</b> ", "timestamp": null, "begin": null, "end": null, "altitudeMode": null, "tessellate": -1, "extrude": 0, "visibility": -1, "drawOrder": null, "icon": null, "category_group": "Bildungsinfrastruktur"}, "geometry": {"type": "Point", "coordinates": [10.7897581, 52.4267246]}}, {"type": "Feature", "properties": {"Name": "Wakepark", "description": "<b>Kategorie:</b> Freizeit & Sport — Sportzentrum<br><b>Distanz:</b> 2360 m<br><b>Website:</b> https://www.wake-park.de/<br><b>Wikipedia:</b> <br><b>Telefon:</b> ", "timestamp": null, "begin": null, "end": null, "altitudeMode": null, "tessellate": -1, "extrude": 0, "visibility": -1, "drawOrder": null, "icon": null, "category_group": "Freizeit & Sport"}, "geometry": {"type": "Point", "coordinates": [10.8009557, 52.4355903]}}, {"type": "Feature", "properties": {"Name": "Hoffmannstadt Fallersleben e.V.", "description": "<b>Kategorie:</b> Freizeit & Sport — Yachthafen<br><b>Distanz:</b> 2179 m<br><b>Website:</b> <br><b>Wikipedia:</b> <br><b>Telefon:</b> ", "timestamp": null, "begin": null, "end": null, "altitudeMode": null, "tessellate": -1, "extrude": 0, "visibility": -1, "drawOrder": null, "icon": null, "category_group": "Freizeit & Sport"}, "geometry": {"type": "Point", "coordinates": [10.8206984, 52.4317424]}}, {"type": "Feature", "properties": {"Name": "Wolfsburger Yacht Club Allertal", "description": "<b>Kategorie:</b> Freizeit & Sport — Yachthafen<br><b>Distanz:</b> 2168 m<br><b>Website:</b> https://www.wyca.de<br><b>Wikipedia:</b> <br><b>Telefon:</b> +49 5361 67222", "timestamp": null, "begin": null, "end": null, "altitudeMode": null, "tessellate": -1, "extrude": 0, "visibility": -1, "drawOrder": null, "icon": null, "category_group": "Freizeit & Sport"}, "geometry": {"type": "Point", "coordinates": [10.818943, 52.4321792]}}, {"type": "Feature", "properties": {"Name": "Body Balance", "description": "<b>Kategorie:</b> Freizeit & Sport — Sportzentrum<br><b>Distanz:</b> 1645 m<br><b>Website:</b> <br><b>Wikipedia:</b> <br><b>Telefon:</b> ", "timestamp": null, "begin": null, "end": null, "altitudeMode": null, "tessellate": -1, "extrude": 0, "visibility": -1, "drawOrder": null, "icon": null, "category_group": "Freizeit & Sport"}, "geometry": {"type": "Point", "coordinates": [10.789174, 52.4255325]}}, {"type": "Feature", "properties": {"Name": "monkeyman Hochseilgarten - No-Limit GmbH", "description": "<b>Kategorie:</b> Freizeit & Sport — Sportzentrum<br><b>Distanz:</b> 2067 m<br><b>Website:</b> https://www.monkeyman.eu/<br><b>Wikipedia:</b> <br><b>Telefon:</b> ", "timestamp": null, "begin": null, "end": null, "altitudeMode": null, "tessellate": -1, "extrude": 0, "visibility": -1, "drawOrder": null, "icon": null, "category_group": "Freizeit & Sport"}, "geometry": {"type": "Point", "coordinates": [10.8090288, 52.4329861]}}, {"type": "Feature", "properties": {"Name": "WVG-Info-Shop", "description": "<b>Kategorie:</b> Information — Besucherinformation<br><b>Distanz:</b> 1793 m<br><b>Website:</b> <br><b>Wikipedia:</b> <br><b>Telefon:</b> ", "timestamp": null, "begin": null, "end": null, "altitudeMode": null, "tessellate": -1, "extrude": 0, "visibility": -1, "drawOrder": null, "icon": null, "category_group": "Information"}, "geometry": {"type": "Point", "coordinates": [10.7900468, 52.4276669]}}, {"type": "Feature", "properties": {"Name": "Tourist-Information Wolfsburg im Wolfsburg Store", "description": "<b>Kategorie:</b> Information — Besucherinformation<br><b>Distanz:</b> 1981 m<br><b>Website:</b> <br><b>Wikipedia:</b> <br><b>Telefon:</b> ", "timestamp": null, "begin": null, "end": null, "altitudeMode": null, "tessellate": -1, "extrude": 0, "visibility": -1, "drawOrder": null, "icon": null, "category_group": "Information"}, "geometry": {"type": "Point", "coordinates": [10.7877053, 52.4287095]}}, {"type": "Feature", "properties": {"Name": "Autostadt Information & Kasse", "description": "<b>Kategorie:</b> Information — Besucherinformation<br><b>Distanz:</b> 2043 m<br><b>Website:</b> https://www.autostadt.de/<br><b>Wikipedia:</b> <br><b>Telefon:</b> ", "timestamp": null, "begin": null, "end": null, "altitudeMode": null, "tessellate": -1, "extrude": 0, "visibility": -1, "drawOrder": null, "icon": null, "category_group": "Information"}, "geometry": {"type": "Point", "coordinates": [10.7933405, 52.4313739]}}, {"type": "Feature", "properties": {"Name": "Jahreskarten", "description": "<b>Kategorie:</b> Information — Besucherinformation<br><b>Distanz:</b> 2006 m<br><b>Website:</b> <br><b>Wikipedia:</b> <br><b>Telefon:</b> ", "timestamp": null, "begin": null, "end": null, "altitudeMode": null, "tessellate": -1, "extrude": 0, "visibility": -1, "drawOrder": null, "icon": null, "category_group": "Information"}, "geometry": {"type": "Point", "coordinates": [10.7947869, 52.4313765]}}, {"type": "Feature", "properties": {"Name": "I-Tafel Quellenwanderung", "description": "<b>Kategorie:</b> Information — Besucherinformation<br><b>Distanz:</b> 1936 m<br><b>Website:</b> <br><b>Wikipedia:</b> <br><b>Telefon:</b> ", "timestamp": null, "begin": null, "end": null, "altitudeMode": null, "tessellate": -1, "extrude": 0, "visibility": -1, "drawOrder": null, "icon": null, "category_group": "Information"}, "geometry": {"type": "Point", "coordinates": [10.7839418, 52.4030893]}}, {"type": "Feature", "properties": {"Name": "Quellenwanderung", "description": "<b>Kategorie:</b> Information — Besucherinformation<br><b>Distanz:</b>  685 m<br><b>Website:</b> <br><b>Wikipedia:</b> <br><b>Telefon:</b> ", "timestamp": null, "begin": null, "end": null, "altitudeMode": null, "tessellate": -1, "extrude": 0, "visibility": -1, "drawOrder": null, "icon": null, "category_group": "Information"}, "geometry": {"type": "Point", "coordinates": [10.7953087, 52.4141053]}}, {"type": "Feature", "properties": {"Name": "I-Tafel Quellenwanderung", "description": "<b>Kategorie:</b> Information — Besucherinformation<br><b>Distanz:</b> 1298 m<br><b>Website:</b> <br><b>Wikipedia:</b> <br><b>Telefon:</b> ", "timestamp": null, "begin": null, "end": null, "altitudeMode": null, "tessellate": -1, "extrude": 0, "visibility": -1, "drawOrder": null, "icon": null, "category_group": "Information"}, "geometry": {"type": "Point", "coordinates": [10.8014614, 52.4031289]}}, {"type": "Feature", "properties": {"Name": "Welcome AutoStadt", "description": "<b>Kategorie:</b> Information — Besucherinformation<br><b>Distanz:</b> 2000 m<br><b>Website:</b> <br><b>Wikipedia:</b> <br><b>Telefon:</b> ", "timestamp": null, "begin": null, "end": null, "altitudeMode": null, "tessellate": -1, "extrude": 0, "visibility": -1, "drawOrder": null, "icon": null, "category_group": "Information"}, "geometry": {"type": "Point", "coordinates": [10.7881541, 52.4291301]}}, {"type": "Feature", "properties": {"Name": "Gate A", "description": "<b>Kategorie:</b> Information — Besucherinformation<br><b>Distanz:</b> 2190 m<br><b>Website:</b> <br><b>Wikipedia:</b> <br><b>Telefon:</b> ", "timestamp": null, "begin": null, "end": null, "altitudeMode": null, "tessellate": -1, "extrude": 0, "visibility": -1, "drawOrder": null, "icon": null, "category_group": "Information"}, "geometry": {"type": "Point", "coordinates": [10.7956164, 52.4333078]}}, {"type": "Feature", "properties": {"Name": "Gate B", "description": "<b>Kategorie:</b> Information — Besucherinformation<br><b>Distanz:</b> 2150 m<br><b>Website:</b> <br><b>Wikipedia:</b> <br><b>Telefon:</b> ", "timestamp": null, "begin": null, "end": null, "altitudeMode": null, "tessellate": -1, "extrude": 0, "visibility": -1, "drawOrder": null, "icon": null, "category_group": "Information"}, "geometry": {"type": "Point", "coordinates": [10.7959941, 52.4330045]}}, {"type": "Feature", "properties": {"Name": "Gate C", "description": "<b>Kategorie:</b> Information — Besucherinformation<br><b>Distanz:</b> 2167 m<br><b>Website:</b> <br><b>Wikipedia:</b> <br><b>Telefon:</b> ", "timestamp": null, "begin": null, "end": null, "altitudeMode": null, "tessellate": -1, "extrude": 0, "visibility": -1, "drawOrder": null, "icon": null, "category_group": "Information"}, "geometry": {"type": "Point", "coordinates": [10.7965316, 52.4332669]}}, {"type": "Feature", "properties": {"Name": "VW Autostadt Abholerservice", "description": "<b>Kategorie:</b> Information — Besucherinformation<br><b>Distanz:</b> 2160 m<br><b>Website:</b> <br><b>Wikipedia:</b> <br><b>Telefon:</b> ", "timestamp": null, "begin": null, "end": null, "altitudeMode": null, "tessellate": -1, "extrude": 0, "visibility": -1, "drawOrder": null, "icon": null, "category_group": "Information"}, "geometry": {"type": "Point", "coordinates": [10.7959332, 52.4330877]}}, {"type": "Feature", "properties": {"Name": "Fundbüro", "description": "<b>Kategorie:</b> Information — Besucherinformation<br><b>Distanz:</b> 2047 m<br><b>Website:</b> <br><b>Wikipedia:</b> <br><b>Telefon:</b> ", "timestamp": null, "begin": null, "end": null, "altitudeMode": null, "tessellate": -1, "extrude": 0, "visibility": -1, "drawOrder": null, "icon": null, "category_group": "Information"}, "geometry": {"type": "Point", "coordinates": [10.7948254, 52.4317842]}}, {"type": "Feature", "properties": {"Name": "Treffpunkt 66", "description": "<b>Kategorie:</b> Information — Besucherinformation<br><b>Distanz:</b> 2539 m<br><b>Website:</b> <br><b>Wikipedia:</b> <br><b>Telefon:</b> ", "timestamp": null, "begin": null, "end": null, "altitudeMode": null, "tessellate": -1, "extrude": 0, "visibility": -1, "drawOrder": null, "icon": null, "category_group": "Information"}, "geometry": {"type": "Point", "coordinates": [10.778577, 52.4304485]}}, {"type": "Feature", "properties": {"Name": "Volkswagen Arena", "description": "<b>Kategorie:</b> Information — Besucherinformation<br><b>Distanz:</b> 2117 m<br><b>Website:</b> <br><b>Wikipedia:</b> <br><b>Telefon:</b> ", "timestamp": null, "begin": null, "end": null, "altitudeMode": null, "tessellate": -1, "extrude": 0, "visibility": -1, "drawOrder": null, "icon": null, "category_group": "Information"}, "geometry": {"type": "Point", "coordinates": [10.8001523, 52.4333091]}}, {"type": "Feature", "properties": {"Name": "Allerpark", "description": "<b>Kategorie:</b> Information — Besucherinformation<br><b>Distanz:</b> 2261 m<br><b>Website:</b> <br><b>Wikipedia:</b> <br><b>Telefon:</b> ", "timestamp": null, "begin": null, "end": null, "altitudeMode": null, "tessellate": -1, "extrude": 0, "visibility": -1, "drawOrder": null, "icon": null, "category_group": "Information"}, "geometry": {"type": "Point", "coordinates": [10.8058412, 52.4348712]}}, {"type": "Feature", "properties": {"Name": "DB-Information", "description": "<b>Kategorie:</b> Information — Besucherinformation<br><b>Distanz:</b> 2055 m<br><b>Website:</b> <br><b>Wikipedia:</b> <br><b>Telefon:</b> ", "timestamp": null, "begin": null, "end": null, "altitudeMode": null, "tessellate": -1, "extrude": 0, "visibility": -1, "drawOrder": null, "icon": null, "category_group": "Information"}, "geometry": {"type": "Point", "coordinates": [10.7874328, 52.4294184]}}, {"type": "Feature", "properties": {"Name": "Der Geopfad am Klieversberg", "description": "<b>Kategorie:</b> Information — Besucherinformation<br><b>Distanz:</b> 1639 m<br><b>Website:</b> <br><b>Wikipedia:</b> <br><b>Telefon:</b> ", "timestamp": null, "begin": null, "end": null, "altitudeMode": null, "tessellate": -1, "extrude": 0, "visibility": -1, "drawOrder": null, "icon": null, "category_group": "Information"}, "geometry": {"type": "Point", "coordinates": [10.7812742, 52.4148573]}}, {"type": "Feature", "properties": {"Name": "Renaturierung der Aller", "description": "<b>Kategorie:</b> Information — Besucherinformation<br><b>Distanz:</b> 2731 m<br><b>Website:</b> <br><b>Wikipedia:</b> <br><b>Telefon:</b> ", "timestamp": null, "begin": null, "end": null, "altitudeMode": null, "tessellate": -1, "extrude": 0, "visibility": -1, "drawOrder": null, "icon": null, "category_group": "Information"}, "geometry": {"type": "Point", "coordinates": [10.8251407, 52.4359049]}}, {"type": "Feature", "properties": {"Name": "Spielplatz Gladiolenweg", "description": "<b>Kategorie:</b> Information — Besucherinformation<br><b>Distanz:</b>  649 m<br><b>Website:</b> <br><b>Wikipedia:</b> <br><b>Telefon:</b> ", "timestamp": null, "begin": null, "end": null, "altitudeMode": null, "tessellate": -1, "extrude": 0, "visibility": -1, "drawOrder": null, "icon": null, "category_group": "Information"}, "geometry": {"type": "Point", "coordinates": [10.8045463, 52.4203583]}}, {"type": "Feature", "properties": {"Name": "Kinderspielplatz am Reislinger Markt", "description": "<b>Kategorie:</b> Information — Besucherinformation<br><b>Distanz:</b>  847 m<br><b>Website:</b> <br><b>Wikipedia:</b> <br><b>Telefon:</b> ", "timestamp": null, "begin": null, "end": null, "altitudeMode": null, "tessellate": -1, "extrude": 0, "visibility": -1, "drawOrder": null, "icon": null, "category_group": "Information"}, "geometry": {"type": "Point", "coordinates": [10.8040667, 52.4221181]}}, {"type": "Feature", "properties": {"Name": "Gemeindehaus", "description": "<b>Kategorie:</b> Information — Besucherinformation<br><b>Distanz:</b>  819 m<br><b>Website:</b> <br><b>Wikipedia:</b> <br><b>Telefon:</b> ", "timestamp": null, "begin": null, "end": null, "altitudeMode": null, "tessellate": -1, "extrude": 0, "visibility": -1, "drawOrder": null, "icon": null, "category_group": "Information"}, "geometry": {"type": "Point", "coordinates": [10.8038296, 52.4218454]}}, {"type": "Feature", "properties": {"Name": "Sidney A. Benson", "description": "<b>Kategorie:</b> Information — Besucherinformation<br><b>Distanz:</b>  852 m<br><b>Website:</b> <br><b>Wikipedia:</b> <br><b>Telefon:</b> ", "timestamp": null, "begin": null, "end": null, "altitudeMode": null, "tessellate": -1, "extrude": 0, "visibility": -1, "drawOrder": null, "icon": null, "category_group": "Information"}, "geometry": {"type": "Point", "coordinates": [10.80372, 52.4221431]}}, {"type": "Feature", "properties": {"Name": "Streetworkout-Anlage 4739", "description": "<b>Kategorie:</b> Information — Besucherinformation<br><b>Distanz:</b> 2331 m<br><b>Website:</b> <br><b>Wikipedia:</b> <br><b>Telefon:</b> ", "timestamp": null, "begin": null, "end": null, "altitudeMode": null, "tessellate": -1, "extrude": 0, "visibility": -1, "drawOrder": null, "icon": null, "category_group": "Information"}, "geometry": {"type": "Point", "coordinates": [10.8119979, 52.4351002]}}, {"type": "Feature", "properties": {"Name": "Streetworkout-Anlage 4739", "description": "<b>Kategorie:</b> Information — Besucherinformation<br><b>Distanz:</b> 2360 m<br><b>Website:</b> <br><b>Wikipedia:</b> <br><b>Telefon:</b> ", "timestamp": null, "begin": null, "end": null, "altitudeMode": null, "tessellate": -1, "extrude": 0, "visibility": -1, "drawOrder": null, "icon": null, "category_group": "Information"}, "geometry": {"type": "Point", "coordinates": [10.8118393, 52.4353891]}}, {"type": "Feature", "properties": {"Name": "Allerpark", "description": "<b>Kategorie:</b> Information — Besucherinformation<br><b>Distanz:</b> 2459 m<br><b>Website:</b> <br><b>Wikipedia:</b> <br><b>Telefon:</b> ", "timestamp": null, "begin": null, "end": null, "altitudeMode": null, "tessellate": -1, "extrude": 0, "visibility": -1, "drawOrder": null, "icon": null, "category_group": "Information"}, "geometry": {"type": "Point", "coordinates": [10.8120346, 52.436269]}}, {"type": "Feature", "properties": {"Name": "Allerpark", "description": "<b>Kategorie:</b> Information — Besucherinformation<br><b>Distanz:</b> 2529 m<br><b>Website:</b> <br><b>Wikipedia:</b> <br><b>Telefon:</b> ", "timestamp": null, "begin": null, "end": null, "altitudeMode": null, "tessellate": -1, "extrude": 0, "visibility": -1, "drawOrder": null, "icon": null, "category_group": "Information"}, "geometry": {"type": "Point", "coordinates": [10.8153976, 52.4364366]}}, {"type": "Feature", "properties": {"Name": "Bewachter Strand", "description": "<b>Kategorie:</b> Information — Besucherinformation<br><b>Distanz:</b> 2450 m<br><b>Website:</b> <br><b>Wikipedia:</b> <br><b>Telefon:</b> ", "timestamp": null, "begin": null, "end": null, "altitudeMode": null, "tessellate": -1, "extrude": 0, "visibility": -1, "drawOrder": null, "icon": null, "category_group": "Information"}, "geometry": {"type": "Point", "coordinates": [10.8177235, 52.4352292]}}, {"type": "Feature", "properties": {"Name": "Allerpark", "description": "<b>Kategorie:</b> Information — Besucherinformation<br><b>Distanz:</b> 2456 m<br><b>Website:</b> <br><b>Wikipedia:</b> <br><b>Telefon:</b> ", "timestamp": null, "begin": null, "end": null, "altitudeMode": null, "tessellate": -1, "extrude": 0, "visibility": -1, "drawOrder": null, "icon": null, "category_group": "Information"}, "geometry": {"type": "Point", "coordinates": [10.8194639, 52.4348716]}}, {"type": "Feature", "properties": {"Name": "Renaturierung der Aller", "description": "<b>Kategorie:</b> Information — Besucherinformation<br><b>Distanz:</b> 2558 m<br><b>Website:</b> <br><b>Wikipedia:</b> <br><b>Telefon:</b> ", "timestamp": null, "begin": null, "end": null, "altitudeMode": null, "tessellate": -1, "extrude": 0, "visibility": -1, "drawOrder": null, "icon": null, "category_group": "Information"}, "geometry": {"type": "Point", "coordinates": [10.820474, 52.4355992]}}, {"type": "Feature", "properties": {"Name": "Renaturierung der Aller", "description": "<b>Kategorie:</b> Information — Besucherinformation<br><b>Distanz:</b> 2570 m<br><b>Website:</b> <br><b>Wikipedia:</b> <br><b>Telefon:</b> ", "timestamp": null, "begin": null, "end": null, "altitudeMode": null, "tessellate": -1, "extrude": 0, "visibility": -1, "drawOrder": null, "icon": null, "category_group": "Information"}, "geometry": {"type": "Point", "coordinates": [10.8204966, 52.4357097]}}, {"type": "Feature", "properties": {"Name": "Renaturierung der Aller", "description": "<b>Kategorie:</b> Information — Besucherinformation<br><b>Distanz:</b> 2568 m<br><b>Website:</b> <br><b>Wikipedia:</b> <br><b>Telefon:</b> ", "timestamp": null, "begin": null, "end": null, "altitudeMode": null, "tessellate": -1, "extrude": 0, "visibility": -1, "drawOrder": null, "icon": null, "category_group": "Information"}, "geometry": {"type": "Point", "coordinates": [10.8204921, 52.4356931]}}, {"type": "Feature", "properties": {"Name": "Rasen in Wiesen verwandeln", "description": "<b>Kategorie:</b> Information — Besucherinformation<br><b>Distanz:</b> 2131 m<br><b>Website:</b> <br><b>Wikipedia:</b> <br><b>Telefon:</b> ", "timestamp": null, "begin": null, "end": null, "altitudeMode": null, "tessellate": -1, "extrude": 0, "visibility": -1, "drawOrder": null, "icon": null, "category_group": "Information"}, "geometry": {"type": "Point", "coordinates": [10.7765833, 52.4069761]}}, {"type": "Feature", "properties": {"Name": "Spielplatz Nahestraße", "description": "<b>Kategorie:</b> Information — Besucherinformation<br><b>Distanz:</b> 1260 m<br><b>Website:</b> <br><b>Wikipedia:</b> <br><b>Telefon:</b> ", "timestamp": null, "begin": null, "end": null, "altitudeMode": null, "tessellate": -1, "extrude": 0, "visibility": -1, "drawOrder": null, "icon": null, "category_group": "Information"}, "geometry": {"type": "Point", "coordinates": [10.8221723, 52.4192927]}}, {"type": "Feature", "properties": {"Name": "Kinderspieplatz Lahnstraße II", "description": "<b>Kategorie:</b> Information — Besucherinformation<br><b>Distanz:</b> 1239 m<br><b>Website:</b> <br><b>Wikipedia:</b> <br><b>Telefon:</b> ", "timestamp": null, "begin": null, "end": null, "altitudeMode": null, "tessellate": -1, "extrude": 0, "visibility": -1, "drawOrder": null, "icon": null, "category_group": "Information"}, "geometry": {"type": "Point", "coordinates": [10.8221745, 52.4188326]}}, {"type": "Feature", "properties": {"Name": "Spielplatz Kiebitzweg", "description": "<b>Kategorie:</b> Information — Besucherinformation<br><b>Distanz:</b> 1038 m<br><b>Website:</b> <br><b>Wikipedia:</b> <br><b>Telefon:</b> ", "timestamp": null, "begin": null, "end": null, "altitudeMode": null, "tessellate": -1, "extrude": 0, "visibility": -1, "drawOrder": null, "icon": null, "category_group": "Information"}, "geometry": {"type": "Point", "coordinates": [10.8009573, 52.4234777]}}, {"type": "Feature", "properties": {"Name": "Kinderspielplatz bei Dahlienweg 9", "description": "<b>Kategorie:</b> Information — Besucherinformation<br><b>Distanz:</b>  753 m<br><b>Website:</b> <br><b>Wikipedia:</b> <br><b>Telefon:</b> ", "timestamp": null, "begin": null, "end": null, "altitudeMode": null, "tessellate": -1, "extrude": 0, "visibility": -1, "drawOrder": null, "icon": null, "category_group": "Information"}, "geometry": {"type": "Point", "coordinates": [10.8030886, 52.4211678]}}, {"type": "Feature", "properties": {"Name": "Spielplatz Dahlienweg 5", "description": "<b>Kategorie:</b> Information — Besucherinformation<br><b>Distanz:</b>  783 m<br><b>Website:</b> <br><b>Wikipedia:</b> <br><b>Telefon:</b> ", "timestamp": null, "begin": null, "end": null, "altitudeMode": null, "tessellate": -1, "extrude": 0, "visibility": -1, "drawOrder": null, "icon": null, "category_group": "Information"}, "geometry": {"type": "Point", "coordinates": [10.8016549, 52.4212083]}}, {"type": "Feature", "properties": {"Name": "Eintrittspreise", "description": "<b>Kategorie:</b> Information — Besucherinformation<br><b>Distanz:</b> 1628 m<br><b>Website:</b> <br><b>Wikipedia:</b> <br><b>Telefon:</b> ", "timestamp": null, "begin": null, "end": null, "altitudeMode": null, "tessellate": -1, "extrude": 0, "visibility": -1, "drawOrder": null, "icon": null, "category_group": "Information"}, "geometry": {"type": "Point", "coordinates": [10.7817815, 52.4170469]}}, {"type": "Feature", "properties": {"Name": "Giraffe", "description": "<b>Kategorie:</b> Information — Besucherinformation<br><b>Distanz:</b> 1548 m<br><b>Website:</b> <br><b>Wikipedia:</b> <br><b>Telefon:</b> ", "timestamp": null, "begin": null, "end": null, "altitudeMode": null, "tessellate": -1, "extrude": 0, "visibility": -1, "drawOrder": null, "icon": null, "category_group": "Information"}, "geometry": {"type": "Point", "coordinates": [10.7830819, 52.4173829]}}, {"type": "Feature", "properties": {"Name": "Hermes", "description": "<b>Kategorie:</b> Information — Besucherinformation<br><b>Distanz:</b> 1578 m<br><b>Website:</b> <br><b>Wikipedia:</b> <br><b>Telefon:</b> ", "timestamp": null, "begin": null, "end": null, "altitudeMode": null, "tessellate": -1, "extrude": 0, "visibility": -1, "drawOrder": null, "icon": null, "category_group": "Information"}, "geometry": {"type": "Point", "coordinates": [10.7822077, 52.4154064]}}, {"type": "Feature", "properties": {"Name": "Laden am Lichtmast", "description": "<b>Kategorie:</b> Information — Besucherinformation<br><b>Distanz:</b> 1545 m<br><b>Website:</b> <br><b>Wikipedia:</b> <br><b>Telefon:</b> ", "timestamp": null, "begin": null, "end": null, "altitudeMode": null, "tessellate": -1, "extrude": 0, "visibility": -1, "drawOrder": null, "icon": null, "category_group": "Information"}, "geometry": {"type": "Point", "coordinates": [10.7829552, 52.4168205]}}, {"type": "Feature", "properties": {"Name": "Spielplatz an der alten Schule Reislingen", "description": "<b>Kategorie:</b> Information — Besucherinformation<br><b>Distanz:</b> 2533 m<br><b>Website:</b> <br><b>Wikipedia:</b> <br><b>Telefon:</b> ", "timestamp": null, "begin": null, "end": null, "altitudeMode": null, "tessellate": -1, "extrude": 0, "visibility": -1, "drawOrder": null, "icon": null, "category_group": "Information"}, "geometry": {"type": "Point", "coordinates": [10.8411794, 52.4207488]}}, {"type": "Feature", "properties": {"Name": "Spielplatz Nahestraße I", "description": "<b>Kategorie:</b> Information — Besucherinformation<br><b>Distanz:</b> 1262 m<br><b>Website:</b> <br><b>Wikipedia:</b> <br><b>Telefon:</b> ", "timestamp": null, "begin": null, "end": null, "altitudeMode": null, "tessellate": -1, "extrude": 0, "visibility": -1, "drawOrder": null, "icon": null, "category_group": "Information"}, "geometry": {"type": "Point", "coordinates": [10.822001, 52.4195608]}}, {"type": "Feature", "properties": {"Name": "Spielplatz Selma-Lagerlöf-Ring", "description": "<b>Kategorie:</b> Information — Besucherinformation<br><b>Distanz:</b> 1867 m<br><b>Website:</b> <br><b>Wikipedia:</b> <br><b>Telefon:</b> ", "timestamp": null, "begin": null, "end": null, "altitudeMode": null, "tessellate": -1, "extrude": 0, "visibility": -1, "drawOrder": null, "icon": null, "category_group": "Information"}, "geometry": {"type": "Point", "coordinates": [10.8316311, 52.4194104]}}, {"type": "Feature", "properties": {"Name": "Spielplatz Am Krokusplan Ost", "description": "<b>Kategorie:</b> Information — Besucherinformation<br><b>Distanz:</b>  742 m<br><b>Website:</b> <br><b>Wikipedia:</b> <br><b>Telefon:</b> ", "timestamp": null, "begin": null, "end": null, "altitudeMode": null, "tessellate": -1, "extrude": 0, "visibility": -1, "drawOrder": null, "icon": null, "category_group": "Information"}, "geometry": {"type": "Point", "coordinates": [10.8114318, 52.4200853]}}, {"type": "Feature", "properties": {"Name": "Spielplatz Von-Droste-Hülshoft-Straße 18", "description": "<b>Kategorie:</b> Information — Besucherinformation<br><b>Distanz:</b> 1761 m<br><b>Website:</b> <br><b>Wikipedia:</b> <br><b>Telefon:</b> ", "timestamp": null, "begin": null, "end": null, "altitudeMode": null, "tessellate": -1, "extrude": 0, "visibility": -1, "drawOrder": null, "icon": null, "category_group": "Information"}, "geometry": {"type": "Point", "coordinates": [10.8311967, 52.4155698]}}, {"type": "Feature", "properties": {"Name": "5542 Von-Ebner-Eschenbach-Ring", "description": "<b>Kategorie:</b> Information — Besucherinformation<br><b>Distanz:</b> 1682 m<br><b>Website:</b> <br><b>Wikipedia:</b> <br><b>Telefon:</b> ", "timestamp": null, "begin": null, "end": null, "altitudeMode": null, "tessellate": -1, "extrude": 0, "visibility": -1, "drawOrder": null, "icon": null, "category_group": "Information"}, "geometry": {"type": "Point", "coordinates": [10.8295377, 52.4177051]}}, {"type": "Feature", "properties": {"Name": "5542 Von-Ebner-Eschenbach-Ring", "description": "<b>Kategorie:</b> Information — Besucherinformation<br><b>Distanz:</b> 1730 m<br><b>Website:</b> <br><b>Wikipedia:</b> <br><b>Telefon:</b> ", "timestamp": null, "begin": null, "end": null, "altitudeMode": null, "tessellate": -1, "extrude": 0, "visibility": -1, "drawOrder": null, "icon": null, "category_group": "Information"}, "geometry": {"type": "Point", "coordinates": [10.8303096, 52.4175297]}}, {"type": "Feature", "properties": {"Name": "Spielplatz 10707 Teichgarten 5", "description": "<b>Kategorie:</b> Information — Besucherinformation<br><b>Distanz:</b> 1149 m<br><b>Website:</b> <br><b>Wikipedia:</b> <br><b>Telefon:</b> ", "timestamp": null, "begin": null, "end": null, "altitudeMode": null, "tessellate": -1, "extrude": 0, "visibility": -1, "drawOrder": null, "icon": null, "category_group": "Information"}, "geometry": {"type": "Point", "coordinates": [10.7944778, 52.4224429]}}, {"type": "Feature", "properties": {"Name": "Spielplastik am Schillerteich", "description": "<b>Kategorie:</b> Information — Besucherinformation<br><b>Distanz:</b>  922 m<br><b>Website:</b> <br><b>Wikipedia:</b> <br><b>Telefon:</b> ", "timestamp": null, "begin": null, "end": null, "altitudeMode": null, "tessellate": -1, "extrude": 0, "visibility": -1, "drawOrder": null, "icon": null, "category_group": "Information"}, "geometry": {"type": "Point", "coordinates": [10.7927849, 52.4176501]}}, {"type": "Feature", "properties": {"Name": "Bolzplatz Am Zehnten Weg", "description": "<b>Kategorie:</b> Information — Besucherinformation<br><b>Distanz:</b> 1171 m<br><b>Website:</b> <br><b>Wikipedia:</b> <br><b>Telefon:</b> ", "timestamp": null, "begin": null, "end": null, "altitudeMode": null, "tessellate": -1, "extrude": 0, "visibility": -1, "drawOrder": null, "icon": null, "category_group": "Information"}, "geometry": {"type": "Point", "coordinates": [10.7988777, 52.4243026]}}, {"type": "Feature", "properties": {"Name": "Phaeno Service-Center", "description": "<b>Kategorie:</b> Information — Besucherinformation<br><b>Distanz:</b> 1895 m<br><b>Website:</b> <br><b>Wikipedia:</b> <br><b>Telefon:</b> ", "timestamp": null, "begin": null, "end": null, "altitudeMode": null, "tessellate": -1, "extrude": 0, "visibility": -1, "drawOrder": null, "icon": null, "category_group": "Information"}, "geometry": {"type": "Point", "coordinates": [10.7905507, 52.4289732]}}, {"type": "Feature", "properties": {"Name": "Rasen in Wiesen verwandeln", "description": "<b>Kategorie:</b> Information — Besucherinformation<br><b>Distanz:</b> 2492 m<br><b>Website:</b> <br><b>Wikipedia:</b> <br><b>Telefon:</b> ", "timestamp": null, "begin": null, "end": null, "altitudeMode": null, "tessellate": -1, "extrude": 0, "visibility": -1, "drawOrder": null, "icon": null, "category_group": "Information"}, "geometry": {"type": "Point", "coordinates": [10.7703473, 52.4079613]}}, {"type": "Feature", "properties": {"Name": "Bolzplatz", "description": "<b>Kategorie:</b> Kinder & Jugend — Spielplatz<br><b>Distanz:</b> 2519 m<br><b>Website:</b> <br><b>Wikipedia:</b> <br><b>Telefon:</b> ", "timestamp": null, "begin": null, "end": null, "altitudeMode": null, "tessellate": -1, "extrude": 0, "visibility": -1, "drawOrder": null, "icon": null, "category_group": "Kinder & Jugend"}, "geometry": {"type": "Point", "coordinates": [10.7728663, 52.4254116]}}, {"type": "Feature", "properties": {"Name": "Spielplatz an der Goetheschule", "description": "<b>Kategorie:</b> Kinder & Jugend — Spielplatz<br><b>Distanz:</b> 2041 m<br><b>Website:</b> <br><b>Wikipedia:</b> <br><b>Telefon:</b> ", "timestamp": null, "begin": null, "end": null, "altitudeMode": null, "tessellate": -1, "extrude": 0, "visibility": -1, "drawOrder": null, "icon": null, "category_group": "Kinder & Jugend"}, "geometry": {"type": "Point", "coordinates": [10.7773517, 52.4211379]}}, {"type": "Feature", "properties": {"Name": "Doki Kinderbetreuung", "description": "<b>Kategorie:</b> Kinder & Jugend — Kindergarten<br><b>Distanz:</b> 1679 m<br><b>Website:</b> <br><b>Wikipedia:</b> <br><b>Telefon:</b> ", "timestamp": null, "begin": null, "end": null, "altitudeMode": null, "tessellate": -1, "extrude": 0, "visibility": -1, "drawOrder": null, "icon": null, "category_group": "Kinder & Jugend"}, "geometry": {"type": "Point", "coordinates": [10.7968144, 52.4287074]}}, {"type": "Feature", "properties": {"Name": "Die kleinen Raben", "description": "<b>Kategorie:</b> Kinder & Jugend — Kindergarten<br><b>Distanz:</b> 1809 m<br><b>Website:</b> <br><b>Wikipedia:</b> <br><b>Telefon:</b> ", "timestamp": null, "begin": null, "end": null, "altitudeMode": null, "tessellate": -1, "extrude": 0, "visibility": -1, "drawOrder": null, "icon": null, "category_group": "Kinder & Jugend"}, "geometry": {"type": "Point", "coordinates": [10.7829724, 52.4057751]}}, {"type": "Feature", "properties": {"Name": "Spielplatz 1", "description": "<b>Kategorie:</b> Kinder & Jugend — Spielplatz<br><b>Distanz:</b> 1476 m<br><b>Website:</b> <br><b>Wikipedia:</b> <br><b>Telefon:</b> ", "timestamp": null, "begin": null, "end": null, "altitudeMode": null, "tessellate": -1, "extrude": 0, "visibility": -1, "drawOrder": null, "icon": null, "category_group": "Kinder & Jugend"}, "geometry": {"type": "Point", "coordinates": [10.7855956, 52.420035]}}, {"type": "Feature", "properties": {"Name": "Kita Steimker Gärten", "description": "<b>Kategorie:</b> Kinder & Jugend — Kindergarten<br><b>Distanz:</b>  972 m<br><b>Website:</b> <br><b>Wikipedia:</b> <br><b>Telefon:</b> ", "timestamp": null, "begin": null, "end": null, "altitudeMode": null, "tessellate": -1, "extrude": 0, "visibility": -1, "drawOrder": null, "icon": null, "category_group": "Kinder & Jugend"}, "geometry": {"type": "Point", "coordinates": [10.8195162, 52.4133981]}}, {"type": "Feature", "properties": {"Name": "33301 Von-Droste-Hülshoff-Straße 18", "description": "<b>Kategorie:</b> Kinder & Jugend — Spielplatz<br><b>Distanz:</b> 1765 m<br><b>Website:</b> <br><b>Wikipedia:</b> <br><b>Telefon:</b> ", "timestamp": null, "begin": null, "end": null, "altitudeMode": null, "tessellate": -1, "extrude": 0, "visibility": -1, "drawOrder": null, "icon": null, "category_group": "Kinder & Jugend"}, "geometry": {"type": "Point", "coordinates": [10.8312458, 52.4155458]}}, {"type": "Feature", "properties": {"Name": "5549 Ellenrieder Straße", "description": "<b>Kategorie:</b> Kinder & Jugend — Spielplatz<br><b>Distanz:</b> 2017 m<br><b>Website:</b> <br><b>Wikipedia:</b> <br><b>Telefon:</b> ", "timestamp": null, "begin": null, "end": null, "altitudeMode": null, "tessellate": -1, "extrude": 0, "visibility": -1, "drawOrder": null, "icon": null, "category_group": "Kinder & Jugend"}, "geometry": {"type": "Point", "coordinates": [10.8349042, 52.4130406]}}, {"type": "Feature", "properties": {"Name": "Scheffelhof 3", "description": "<b>Kategorie:</b> Kinder & Jugend — Spielplatz<br><b>Distanz:</b> 1946 m<br><b>Website:</b> <br><b>Wikipedia:</b> <br><b>Telefon:</b> ", "timestamp": null, "begin": null, "end": null, "altitudeMode": null, "tessellate": -1, "extrude": 0, "visibility": -1, "drawOrder": null, "icon": null, "category_group": "Kinder & Jugend"}, "geometry": {"type": "Point", "coordinates": [10.7783892, 52.4203739]}}, {"type": "Feature", "properties": {"Name": "Delphin-Palast", "description": "<b>Kategorie:</b> Kultur & Geschichte — Kino<br><b>Distanz:</b> 1491 m<br><b>Website:</b> https://delphin-palast.de<br><b>Wikipedia:</b> <br><b>Telefon:</b> +4953613070507", "timestamp": null, "begin": null, "end": null, "altitudeMode": null, "tessellate": -1, "extrude": 0, "visibility": -1, "drawOrder": null, "icon": null, "category_group": "Kultur & Geschichte"}, "geometry": {"type": "Point", "coordinates": [10.7884021, 52.4230454]}}, {"type": "Feature", "properties": {"Name": "Brezelfenster-Denkmal", "description": "<b>Kategorie:</b> Kultur & Geschichte — Attraktion<br><b>Distanz:</b> 1794 m<br><b>Website:</b> <br><b>Wikipedia:</b> <br><b>Telefon:</b> ", "timestamp": null, "begin": null, "end": null, "altitudeMode": null, "tessellate": -1, "extrude": 0, "visibility": -1, "drawOrder": null, "icon": null, "category_group": "Kultur & Geschichte"}, "geometry": {"type": "Point", "coordinates": [10.7862533, 52.4256614]}}, {"type": "Feature", "properties": {"Name": "Drei Steine", "description": "<b>Kategorie:</b> Kultur & Geschichte — Attraktion<br><b>Distanz:</b>  667 m<br><b>Website:</b> <br><b>Wikipedia:</b> <br><b>Telefon:</b> ", "timestamp": null, "begin": null, "end": null, "altitudeMode": null, "tessellate": -1, "extrude": 0, "visibility": -1, "drawOrder": null, "icon": null, "category_group": "Kultur & Geschichte"}, "geometry": {"type": "Point", "coordinates": [10.796363, 52.4121646]}}, {"type": "Feature", "properties": {"Name": "Hallenbad", "description": "<b>Kategorie:</b> Kultur & Geschichte — Kino<br><b>Distanz:</b> 1859 m<br><b>Website:</b> <br><b>Wikipedia:</b> <br><b>Telefon:</b> ", "timestamp": null, "begin": null, "end": null, "altitudeMode": null, "tessellate": -1, "extrude": 0, "visibility": -1, "drawOrder": null, "icon": null, "category_group": "Kultur & Geschichte"}, "geometry": {"type": "Point", "coordinates": [10.7826871, 52.423885]}}, {"type": "Feature", "properties": {"Name": "Maritime PanoramaTour", "description": "<b>Kategorie:</b> Kultur & Geschichte — Attraktion<br><b>Distanz:</b> 2003 m<br><b>Website:</b> <br><b>Wikipedia:</b> <br><b>Telefon:</b> ", "timestamp": null, "begin": null, "end": null, "altitudeMode": null, "tessellate": -1, "extrude": 0, "visibility": -1, "drawOrder": null, "icon": null, "category_group": "Kultur & Geschichte"}, "geometry": {"type": "Point", "coordinates": [10.793487, 52.4310242]}}, {"type": "Feature", "properties": {"Name": "WerkTour", "description": "<b>Kategorie:</b> Kultur & Geschichte — Attraktion<br><b>Distanz:</b> 2010 m<br><b>Website:</b> <br><b>Wikipedia:</b> <br><b>Telefon:</b> ", "timestamp": null, "begin": null, "end": null, "altitudeMode": null, "tessellate": -1, "extrude": 0, "visibility": -1, "drawOrder": null, "icon": null, "category_group": "Kultur & Geschichte"}, "geometry": {"type": "Point", "coordinates": [10.7931323, 52.4309951]}}, {"type": "Feature", "properties": {"Name": "Zwangsarbeiter-Denkmal", "description": "<b>Kategorie:</b> Kultur & Geschichte — Attraktion<br><b>Distanz:</b> 1693 m<br><b>Website:</b> <br><b>Wikipedia:</b> <br><b>Telefon:</b> ", "timestamp": null, "begin": null, "end": null, "altitudeMode": null, "tessellate": -1, "extrude": 0, "visibility": -1, "drawOrder": null, "icon": null, "category_group": "Kultur & Geschichte"}, "geometry": {"type": "Point", "coordinates": [10.7897402, 52.4264013]}}, {"type": "Feature", "properties": {"Name": "phaeno Wissenschaftstheater", "description": "<b>Kategorie:</b> Kultur & Geschichte — Theater<br><b>Distanz:</b> 1861 m<br><b>Website:</b> https://www.phaeno.de/<br><b>Wikipedia:</b> <br><b>Telefon:</b> +49 5361 890-100", "timestamp": null, "begin": null, "end": null, "altitudeMode": null, "tessellate": -1, "extrude": 0, "visibility": -1, "drawOrder": null, "icon": null, "category_group": "Kultur & Geschichte"}, "geometry": {"type": "Point", "coordinates": [10.791001, 52.4287846]}}, {"type": "Feature", "properties": {"Name": "Galerie-Theater", "description": "<b>Kategorie:</b> Kultur & Geschichte — Theater<br><b>Distanz:</b> 1494 m<br><b>Website:</b> <br><b>Wikipedia:</b> <br><b>Telefon:</b> ", "timestamp": null, "begin": null, "end": null, "altitudeMode": null, "tessellate": -1, "extrude": 0, "visibility": -1, "drawOrder": null, "icon": null, "category_group": "Kultur & Geschichte"}, "geometry": {"type": "Point", "coordinates": [10.7966233, 52.4268654]}}, {"type": "Feature", "properties": {"Name": "Wolfsburger Figurentheater Compagnie", "description": "<b>Kategorie:</b> Kultur & Geschichte — Theater<br><b>Distanz:</b> 1454 m<br><b>Website:</b> <br><b>Wikipedia:</b> <br><b>Telefon:</b> ", "timestamp": null, "begin": null, "end": null, "altitudeMode": null, "tessellate": -1, "extrude": 0, "visibility": -1, "drawOrder": null, "icon": null, "category_group": "Kultur & Geschichte"}, "geometry": {"type": "Point", "coordinates": [10.7954512, 52.4261278]}}, {"type": "Feature", "properties": {"Name": "HolzBank Theater Wolfsburg - Costin Theater Compagnie", "description": "<b>Kategorie:</b> Kultur & Geschichte — Theater<br><b>Distanz:</b> 2425 m<br><b>Website:</b> <br><b>Wikipedia:</b> <br><b>Telefon:</b> ", "timestamp": null, "begin": null, "end": null, "altitudeMode": null, "tessellate": -1, "extrude": 0, "visibility": -1, "drawOrder": null, "icon": null, "category_group": "Kultur & Geschichte"}, "geometry": {"type": "Point", "coordinates": [10.8391659, 52.4214593]}}, {"type": "Feature", "properties": {"Name": "Turmfahrt in der Autostadt", "description": "<b>Kategorie:</b> Kultur & Geschichte — Attraktion<br><b>Distanz:</b> 2259 m<br><b>Website:</b> <br><b>Wikipedia:</b> <br><b>Telefon:</b> ", "timestamp": null, "begin": null, "end": null, "altitudeMode": null, "tessellate": -1, "extrude": 0, "visibility": -1, "drawOrder": null, "icon": null, "category_group": "Kultur & Geschichte"}, "geometry": {"type": "Point", "coordinates": [10.7950175, 52.4338448]}}, {"type": "Feature", "properties": {"Name": "Planetarium Wolfsburg", "description": "<b>Kategorie:</b> Kultur & Geschichte — Attraktion<br><b>Distanz:</b> 1636 m<br><b>Website:</b> <br><b>Wikipedia:</b> <br><b>Telefon:</b> ", "timestamp": null, "begin": null, "end": null, "altitudeMode": null, "tessellate": -1, "extrude": 0, "visibility": -1, "drawOrder": null, "icon": null, "category_group": "Kultur & Geschichte"}, "geometry": {"type": "Point", "coordinates": [10.781642, 52.4169763]}}, {"type": "Feature", "properties": {"Name": "Stadionblick", "description": "<b>Kategorie:</b> Natur & Landschaft — Aussichtspunkt<br><b>Distanz:</b> 2205 m<br><b>Website:</b> <br><b>Wikipedia:</b> <br><b>Telefon:</b> ", "timestamp": null, "begin": null, "end": null, "altitudeMode": null, "tessellate": -1, "extrude": 0, "visibility": -1, "drawOrder": null, "icon": null, "category_group": "Natur & Landschaft"}, "geometry": {"type": "Point", "coordinates": [10.8021495, 52.4342691]}}, {"type": "Feature", "properties": {"Name": "Kugelsitze", "description": "<b>Kategorie:</b> Natur & Landschaft — Aussichtspunkt<br><b>Distanz:</b> 2459 m<br><b>Website:</b> <br><b>Wikipedia:</b> <br><b>Telefon:</b> ", "timestamp": null, "begin": null, "end": null, "altitudeMode": null, "tessellate": -1, "extrude": 0, "visibility": -1, "drawOrder": null, "icon": null, "category_group": "Natur & Landschaft"}, "geometry": {"type": "Point", "coordinates": [10.8007405, 52.4364694]}}, {"type": "Feature", "properties": {"Name": "Rotheburg-Quelle", "description": "<b>Kategorie:</b> Natur & Landschaft — Natur-Feature (alle)<br><b>Distanz:</b> 1770 m<br><b>Website:</b> <br><b>Wikipedia:</b> <br><b>Telefon:</b> ", "timestamp": null, "begin": null, "end": null, "altitudeMode": null, "tessellate": -1, "extrude": 0, "visibility": -1, "drawOrder": null, "icon": null, "category_group": "Natur & Landschaft"}, "geometry": {"type": "Point", "coordinates": [10.782348, 52.4071143]}}, {"type": "Feature", "properties": {"Name": "Klieversberg", "description": "<b>Kategorie:</b> Natur & Landschaft — Natur-Feature (alle)<br><b>Distanz:</b> 2339 m<br><b>Website:</b> <br><b>Wikipedia:</b> <br><b>Telefon:</b> ", "timestamp": null, "begin": null, "end": null, "altitudeMode": null, "tessellate": -1, "extrude": 0, "visibility": -1, "drawOrder": null, "icon": null, "category_group": "Natur & Landschaft"}, "geometry": {"type": "Point", "coordinates": [10.7710123, 52.4156314]}}, {"type": "Feature", "properties": {"Name": "Schäferquelle", "description": "<b>Kategorie:</b> Natur & Landschaft — Natur-Feature (alle)<br><b>Distanz:</b> 1815 m<br><b>Website:</b> <br><b>Wikipedia:</b> <br><b>Telefon:</b> ", "timestamp": null, "begin": null, "end": null, "altitudeMode": null, "tessellate": -1, "extrude": 0, "visibility": -1, "drawOrder": null, "icon": null, "category_group": "Natur & Landschaft"}, "geometry": {"type": "Point", "coordinates": [10.7799035, 52.4096685]}}, {"type": "Feature", "properties": {"Name": "Herrenwiesenquelle", "description": "<b>Kategorie:</b> Natur & Landschaft — Natur-Feature (alle)<br><b>Distanz:</b> 3208 m<br><b>Website:</b> <br><b>Wikipedia:</b> <br><b>Telefon:</b> ", "timestamp": null, "begin": null, "end": null, "altitudeMode": null, "tessellate": -1, "extrude": 0, "visibility": -1, "drawOrder": null, "icon": null, "category_group": "Natur & Landschaft"}, "geometry": {"type": "Point", "coordinates": [10.7710633, 52.3947583]}}, {"type": "Feature", "properties": {"Name": "Tommyquelle", "description": "<b>Kategorie:</b> Natur & Landschaft — Natur-Feature (alle)<br><b>Distanz:</b> 2772 m<br><b>Website:</b> <br><b>Wikipedia:</b> <br><b>Telefon:</b> ", "timestamp": null, "begin": null, "end": null, "altitudeMode": null, "tessellate": -1, "extrude": 0, "visibility": -1, "drawOrder": null, "icon": null, "category_group": "Natur & Landschaft"}, "geometry": {"type": "Point", "coordinates": [10.7737832, 52.398802]}}, {"type": "Feature", "properties": {"Name": "Liebeseiche", "description": "<b>Kategorie:</b> Natur & Landschaft — Natur-Feature (alle)<br><b>Distanz:</b> 2544 m<br><b>Website:</b> <br><b>Wikipedia:</b> <br><b>Telefon:</b> ", "timestamp": null, "begin": null, "end": null, "altitudeMode": null, "tessellate": -1, "extrude": 0, "visibility": -1, "drawOrder": null, "icon": null, "category_group": "Natur & Landschaft"}, "geometry": {"type": "Point", "coordinates": [10.7887666, 52.3940585]}}, {"type": "Feature", "properties": {"Name": "Allerpark", "description": "<b>Kategorie:</b> Natur & Landschaft — Park<br><b>Distanz:</b> 2497 m<br><b>Website:</b> <br><b>Wikipedia:</b> <br><b>Telefon:</b> ", "timestamp": null, "begin": null, "end": null, "altitudeMode": null, "tessellate": -1, "extrude": 0, "visibility": -1, "drawOrder": null, "icon": null, "category_group": "Natur & Landschaft"}, "geometry": {"type": "Point", "coordinates": [10.8184092, 52.4355256]}}, {"type": "Feature", "properties": {"Name": "Henkerseiche", "description": "<b>Kategorie:</b> Natur & Landschaft — Natur-Feature (alle)<br><b>Distanz:</b> 2282 m<br><b>Website:</b> <br><b>Wikipedia:</b> <br><b>Telefon:</b> ", "timestamp": null, "begin": null, "end": null, "altitudeMode": null, "tessellate": -1, "extrude": 0, "visibility": -1, "drawOrder": null, "icon": null, "category_group": "Natur & Landschaft"}, "geometry": {"type": "Point", "coordinates": [10.7832742, 52.3991131]}}]}