{
"type": "FeatureCollection",
"name": "merged",
"features": [
{ "type": "Feature", "properties": { "Name": "JH 306 — Jugendherberge Lüneburg", "description": "<b>JH Nr:</b> 306<br><b>Name:</b> Jugendherberge Lüneburg<br><b>Ort:</b> Lüneburg", "tessellate": -1, "extrude": 0, "visibility": -1 }, "geometry": { "type": "Point", "coordinates": [ 10.3955574, 53.229295 ] } },
{ "type": "Feature", "properties": { "Name": "Volkshochschule", "description": "<b>Kategorie:<\/b> Bildungsinfrastruktur — Hochschule<br><b>Distanz:<\/b> 2099 m<br><b>Website:<\/b> <br><b>Wikipedia:<\/b> <br><b>Telefon:<\/b> ", "tessellate": -1, "extrude": 0, "visibility": -1 }, "geometry": { "type": "Point", "coordinates": [ 10.4097407, 53.2461357 ] } },
{ "type": "Feature", "properties": { "Name": "SCHUBZ", "description": "<b>Kategorie:<\/b> Bildungsinfrastruktur — Hochschule<br><b>Distanz:<\/b>  498 m<br><b>Website:<\/b> <br><b>Wikipedia:<\/b> <br><b>Telefon:<\/b> ", "tessellate": -1, "extrude": 0, "visibility": -1 }, "geometry": { "type": "Point", "coordinates": [ 10.3969077, 53.2248911 ] } },
{ "type": "Feature", "properties": { "Name": "St. Nicolai - Gemeindehaus", "description": "<b>Kategorie:<\/b> Bildungsinfrastruktur — Gemeindezentrum<br><b>Distanz:<\/b> 2696 m<br><b>Website:<\/b> https:\/\/www.st-nicolai.eu\/<br><b>Wikipedia:<\/b> <br><b>Telefon:<\/b> ", "tessellate": -1, "extrude": 0, "visibility": -1 }, "geometry": { "type": "Point", "coordinates": [ 10.4107597, 53.2517453 ] } },
{ "type": "Feature", "properties": { "Name": "Ratsbücherei", "description": "<b>Kategorie:<\/b> Bildungsinfrastruktur — Bibliothek<br><b>Distanz:<\/b> 2481 m<br><b>Website:<\/b> http:\/\/www.hansestadtlueneburg.de\/Home-Hansestadt-Lueneburg\/Gesellschaft-Soziales-und-Bildung\/Bildung-hansestadt-lueneburg\/Ratsbuecherei-hansestadt-lueneburg.aspx<br><b>Wikipedia:<\/b> <br><b>Telefon:<\/b> +49 4131 3093609", "tessellate": -1, "extrude": 0, "visibility": -1 }, "geometry": { "type": "Point", "coordinates": [ 10.4056318, 53.2507586 ] } },
{ "type": "Feature", "properties": { "Name": "Stadtteilzentrum Haus Lossiusstraße (HaLo)", "description": "<b>Kategorie:<\/b> Bildungsinfrastruktur — Gemeindezentrum<br><b>Distanz:<\/b> 3307 m<br><b>Website:<\/b> <br><b>Wikipedia:<\/b> <br><b>Telefon:<\/b> ", "tessellate": -1, "extrude": 0, "visibility": -1 }, "geometry": { "type": "Point", "coordinates": [ 10.4317208, 53.2496161 ] } },
{ "type": "Feature", "properties": { "Name": "Bibliothek OVG", "description": "<b>Kategorie:<\/b> Bildungsinfrastruktur — Bibliothek<br><b>Distanz:<\/b> 1113 m<br><b>Website:<\/b> <br><b>Wikipedia:<\/b> <br><b>Telefon:<\/b> ", "tessellate": -1, "extrude": 0, "visibility": -1 }, "geometry": { "type": "Point", "coordinates": [ 10.4060072, 53.2370919 ] } },
{ "type": "Feature", "properties": { "Name": "Kinder- und Jugendbücherei", "description": "<b>Kategorie:<\/b> Bildungsinfrastruktur — Bibliothek<br><b>Distanz:<\/b> 2544 m<br><b>Website:<\/b> <br><b>Wikipedia:<\/b> <br><b>Telefon:<\/b> ", "tessellate": -1, "extrude": 0, "visibility": -1 }, "geometry": { "type": "Point", "coordinates": [ 10.4055764, 53.2513596 ] } },
{ "type": "Feature", "properties": { "Name": "Universitätsbibliothek", "description": "<b>Kategorie:<\/b> Bildungsinfrastruktur — Bibliothek<br><b>Distanz:<\/b>  379 m<br><b>Website:<\/b> <br><b>Wikipedia:<\/b> <br><b>Telefon:<\/b> ", "tessellate": -1, "extrude": 0, "visibility": -1 }, "geometry": { "type": "Point", "coordinates": [ 10.4007373, 53.2278925 ] } },
{ "type": "Feature", "properties": { "Name": "Volkshochschule", "description": "<b>Kategorie:<\/b> Bildungsinfrastruktur — Hochschule<br><b>Distanz:<\/b> 2142 m<br><b>Website:<\/b> <br><b>Wikipedia:<\/b> <br><b>Telefon:<\/b> ", "tessellate": -1, "extrude": 0, "visibility": -1 }, "geometry": { "type": "Point", "coordinates": [ 10.4103147, 53.2463906 ] } },
{ "type": "Feature", "properties": { "Name": "Volkshochschule", "description": "<b>Kategorie:<\/b> Bildungsinfrastruktur — Hochschule<br><b>Distanz:<\/b> 2162 m<br><b>Website:<\/b> <br><b>Wikipedia:<\/b> <br><b>Telefon:<\/b> ", "tessellate": -1, "extrude": 0, "visibility": -1 }, "geometry": { "type": "Point", "coordinates": [ 10.4101213, 53.2466547 ] } },
{ "type": "Feature", "properties": { "Name": "Gemeindehaus St. Johannis", "description": "<b>Kategorie:<\/b> Bildungsinfrastruktur — Gemeindezentrum<br><b>Distanz:<\/b> 2307 m<br><b>Website:<\/b> <br><b>Wikipedia:<\/b> <br><b>Telefon:<\/b> ", "tessellate": -1, "extrude": 0, "visibility": -1 }, "geometry": { "type": "Point", "coordinates": [ 10.4120417, 53.2475191 ] } },
{ "type": "Feature", "properties": { "Name": "Kunstverein Lüneburg", "description": "<b>Kategorie:<\/b> Bildungsinfrastruktur — Kunstzentrum<br><b>Distanz:<\/b> 2706 m<br><b>Website:<\/b> https:\/\/www.kunstvereinlueneburg.de\/<br><b>Wikipedia:<\/b> <br><b>Telefon:<\/b> ", "tessellate": -1, "extrude": 0, "visibility": -1 }, "geometry": { "type": "Point", "coordinates": [ 10.4115944, 53.251634 ] } },
{ "type": "Feature", "properties": { "Name": "Verwaltungs- und Wirtschaftsakademie (VWA) Berufsakademie (BA) Lüneburg e.V.", "description": "<b>Kategorie:<\/b> Bildungsinfrastruktur — Hochschule<br><b>Distanz:<\/b>  486 m<br><b>Website:<\/b> https:\/\/vwa-lueneburg.de<br><b>Wikipedia:<\/b> <br><b>Telefon:<\/b> +49413134696", "tessellate": -1, "extrude": 0, "visibility": -1 }, "geometry": { "type": "Point", "coordinates": [ 10.3970684, 53.2250236 ] } },
{ "type": "Feature", "properties": { "Name": "Utopia", "description": "<b>Kategorie:<\/b> Bildungsinfrastruktur — Gemeindezentrum<br><b>Distanz:<\/b> 2316 m<br><b>Website:<\/b> https:\/\/www.utopia-lueneburg.de<br><b>Wikipedia:<\/b> <br><b>Telefon:<\/b> ", "tessellate": -1, "extrude": 0, "visibility": -1 }, "geometry": { "type": "Point", "coordinates": [ 10.4060899, 53.2491271 ] } },
{ "type": "Feature", "properties": { "Name": "Außenstelle Wilhelm-Raabe-Schule", "description": "<b>Kategorie:<\/b> Bildungsinfrastruktur — Schule<br><b>Distanz:<\/b> 1646 m<br><b>Website:<\/b> <br><b>Wikipedia:<\/b> <br><b>Telefon:<\/b> ", "tessellate": -1, "extrude": 0, "visibility": -1 }, "geometry": { "type": "Point", "coordinates": [ 10.4118901, 53.2403736 ] } },
{ "type": "Feature", "properties": { "Name": "Studio 21", "description": "<b>Kategorie:<\/b> Freizeit & Sport — Sportzentrum<br><b>Distanz:<\/b>  299 m<br><b>Website:<\/b> https:\/\/www.leuphana.de\/hochschulsport<br><b>Wikipedia:<\/b> <br><b>Telefon:<\/b> +49 4131 6771106", "tessellate": -1, "extrude": 0, "visibility": -1 }, "geometry": { "type": "Point", "coordinates": [ 10.3994181, 53.2279407 ] } },
{ "type": "Feature", "properties": { "Name": "Tanzschule", "description": "<b>Kategorie:<\/b> Freizeit & Sport — Sportzentrum<br><b>Distanz:<\/b> 2724 m<br><b>Website:<\/b> <br><b>Wikipedia:<\/b> <br><b>Telefon:<\/b> ", "tessellate": -1, "extrude": 0, "visibility": -1 }, "geometry": { "type": "Point", "coordinates": [ 10.4139624, 53.2511462 ] } },
{ "type": "Feature", "properties": { "Name": "urban apes", "description": "<b>Kategorie:<\/b> Freizeit & Sport — Sportzentrum<br><b>Distanz:<\/b> 2925 m<br><b>Website:<\/b> <br><b>Wikipedia:<\/b> <br><b>Telefon:<\/b> ", "tessellate": -1, "extrude": 0, "visibility": -1 }, "geometry": { "type": "Point", "coordinates": [ 10.4224786, 53.2500372 ] } },
{ "type": "Feature", "properties": { "Name": "INFINITY", "description": "<b>Kategorie:<\/b> Freizeit & Sport — Sportzentrum<br><b>Distanz:<\/b> 2764 m<br><b>Website:<\/b> <br><b>Wikipedia:<\/b> <br><b>Telefon:<\/b> +49 4131 855997", "tessellate": -1, "extrude": 0, "visibility": -1 }, "geometry": { "type": "Point", "coordinates": [ 10.4212826, 53.2487595 ] } },
{ "type": "Feature", "properties": { "Name": "Tourist Information Lüneburg", "description": "<b>Kategorie:<\/b> Information — Besucherinformation<br><b>Distanz:<\/b> 2449 m<br><b>Website:<\/b> <br><b>Wikipedia:<\/b> <br><b>Telefon:<\/b> ", "tessellate": -1, "extrude": 0, "visibility": -1 }, "geometry": { "type": "Point", "coordinates": [ 10.4074812, 53.2501113 ] } },
{ "type": "Feature", "properties": { "Name": "Lüneburg", "description": "<b>Kategorie:<\/b> Information — Besucherinformation<br><b>Distanz:<\/b> 2763 m<br><b>Website:<\/b> <br><b>Wikipedia:<\/b> <br><b>Telefon:<\/b> ", "tessellate": -1, "extrude": 0, "visibility": -1 }, "geometry": { "type": "Point", "coordinates": [ 10.419225, 53.2496751 ] } },
{ "type": "Feature", "properties": { "Name": "Busnetz", "description": "<b>Kategorie:<\/b> Information — Besucherinformation<br><b>Distanz:<\/b> 2743 m<br><b>Website:<\/b> <br><b>Wikipedia:<\/b> <br><b>Telefon:<\/b> ", "tessellate": -1, "extrude": 0, "visibility": -1 }, "geometry": { "type": "Point", "coordinates": [ 10.4193139, 53.249413 ] } },
{ "type": "Feature", "properties": { "Name": "Geest", "description": "<b>Kategorie:<\/b> Information — Besucherinformation<br><b>Distanz:<\/b>  885 m<br><b>Website:<\/b> <br><b>Wikipedia:<\/b> <br><b>Telefon:<\/b> ", "tessellate": -1, "extrude": 0, "visibility": -1 }, "geometry": { "type": "Point", "coordinates": [ 10.4086874, 53.228189 ] } },
{ "type": "Feature", "properties": { "Name": "Stadtmodell Lüneburg", "description": "<b>Kategorie:<\/b> Information — Besucherinformation<br><b>Distanz:<\/b> 2444 m<br><b>Website:<\/b> <br><b>Wikipedia:<\/b> <br><b>Telefon:<\/b> ", "tessellate": -1, "extrude": 0, "visibility": -1 }, "geometry": { "type": "Point", "coordinates": [ 10.4074993, 53.250065 ] } },
{ "type": "Feature", "properties": { "Name": "Friedenskirche", "description": "<b>Kategorie:<\/b> Information — Besucherinformation<br><b>Distanz:<\/b>  427 m<br><b>Website:<\/b> <br><b>Wikipedia:<\/b> <br><b>Telefon:<\/b> ", "tessellate": -1, "extrude": 0, "visibility": -1 }, "geometry": { "type": "Point", "coordinates": [ 10.3981614, 53.225792 ] } },
{ "type": "Feature", "properties": { "Name": "Entfernungen zu Landmarken", "description": "<b>Kategorie:<\/b> Information — Besucherinformation<br><b>Distanz:<\/b> 2252 m<br><b>Website:<\/b> <br><b>Wikipedia:<\/b> <br><b>Telefon:<\/b> ", "tessellate": -1, "extrude": 0, "visibility": -1 }, "geometry": { "type": "Point", "coordinates": [ 10.3969315, 53.249521 ] } },
{ "type": "Feature", "properties": { "Name": "Der Eisvogel", "description": "<b>Kategorie:<\/b> Information — Besucherinformation<br><b>Distanz:<\/b>  875 m<br><b>Website:<\/b> <br><b>Wikipedia:<\/b> <br><b>Telefon:<\/b> ", "tessellate": -1, "extrude": 0, "visibility": -1 }, "geometry": { "type": "Point", "coordinates": [ 10.4084431, 53.2307544 ] } },
{ "type": "Feature", "properties": { "Name": "Lüneburg", "description": "<b>Kategorie:<\/b> Information — Besucherinformation<br><b>Distanz:<\/b> 1156 m<br><b>Website:<\/b> <br><b>Wikipedia:<\/b> <br><b>Telefon:<\/b> ", "tessellate": -1, "extrude": 0, "visibility": -1 }, "geometry": { "type": "Point", "coordinates": [ 10.4040663, 53.2383496 ] } },
{ "type": "Feature", "properties": { "Name": "St. Lamberti", "description": "<b>Kategorie:<\/b> Information — Besucherinformation<br><b>Distanz:<\/b> 1914 m<br><b>Website:<\/b> <br><b>Wikipedia:<\/b> <br><b>Telefon:<\/b> ", "tessellate": -1, "extrude": 0, "visibility": -1 }, "geometry": { "type": "Point", "coordinates": [ 10.4029844, 53.2459127 ] } },
{ "type": "Feature", "properties": { "Name": "Hinweisschild Naturschutzgebiet Hasenburger Bachtal", "description": "<b>Kategorie:<\/b> Information — Besucherinformation<br><b>Distanz:<\/b>  832 m<br><b>Website:<\/b> <br><b>Wikipedia:<\/b> <br><b>Telefon:<\/b> ", "tessellate": -1, "extrude": 0, "visibility": -1 }, "geometry": { "type": "Point", "coordinates": [ 10.3970536, 53.2218666 ] } },
{ "type": "Feature", "properties": { "Name": "Steinkiste", "description": "<b>Kategorie:<\/b> Information — Besucherinformation<br><b>Distanz:<\/b> 2289 m<br><b>Website:<\/b> <br><b>Wikipedia:<\/b> <br><b>Telefon:<\/b> ", "tessellate": -1, "extrude": 0, "visibility": -1 }, "geometry": { "type": "Point", "coordinates": [ 10.4159946, 53.2458198 ] } },
{ "type": "Feature", "properties": { "Name": "Information", "description": "<b>Kategorie:<\/b> Information — Besucherinformation<br><b>Distanz:<\/b> 2757 m<br><b>Website:<\/b> <br><b>Wikipedia:<\/b> <br><b>Telefon:<\/b> ", "tessellate": -1, "extrude": 0, "visibility": -1 }, "geometry": { "type": "Point", "coordinates": [ 10.4183659, 53.2499583 ] } },
{ "type": "Feature", "properties": { "Name": "Friedenspfad", "description": "<b>Kategorie:<\/b> Information — Besucherinformation<br><b>Distanz:<\/b> 2591 m<br><b>Website:<\/b> <br><b>Wikipedia:<\/b> <br><b>Telefon:<\/b> ", "tessellate": -1, "extrude": 0, "visibility": -1 }, "geometry": { "type": "Point", "coordinates": [ 10.4186504, 53.2480158 ] } },
{ "type": "Feature", "properties": { "Name": "Bürgerinformation", "description": "<b>Kategorie:<\/b> Information — Besucherinformation<br><b>Distanz:<\/b> 2136 m<br><b>Website:<\/b> <br><b>Wikipedia:<\/b> <br><b>Telefon:<\/b> ", "tessellate": -1, "extrude": 0, "visibility": -1 }, "geometry": { "type": "Point", "coordinates": [ 10.3728951, 53.2157386 ] } },
{ "type": "Feature", "properties": { "Name": "Bürgerinformation", "description": "<b>Kategorie:<\/b> Information — Besucherinformation<br><b>Distanz:<\/b> 1119 m<br><b>Website:<\/b> <br><b>Wikipedia:<\/b> <br><b>Telefon:<\/b> ", "tessellate": -1, "extrude": 0, "visibility": -1 }, "geometry": { "type": "Point", "coordinates": [ 10.3855106, 53.2212392 ] } },
{ "type": "Feature", "properties": { "Name": "Bürgerinformation", "description": "<b>Kategorie:<\/b> Information — Besucherinformation<br><b>Distanz:<\/b> 2476 m<br><b>Website:<\/b> <br><b>Wikipedia:<\/b> <br><b>Telefon:<\/b> ", "tessellate": -1, "extrude": 0, "visibility": -1 }, "geometry": { "type": "Point", "coordinates": [ 10.3715181, 53.2123505 ] } },
{ "type": "Feature", "properties": { "Name": "Bürgerinformation", "description": "<b>Kategorie:<\/b> Information — Besucherinformation<br><b>Distanz:<\/b> 2504 m<br><b>Website:<\/b> <br><b>Wikipedia:<\/b> <br><b>Telefon:<\/b> ", "tessellate": -1, "extrude": 0, "visibility": -1 }, "geometry": { "type": "Point", "coordinates": [ 10.3720229, 53.2117684 ] } },
{ "type": "Feature", "properties": { "Name": "Bürgerinformation", "description": "<b>Kategorie:<\/b> Information — Besucherinformation<br><b>Distanz:<\/b> 1466 m<br><b>Website:<\/b> <br><b>Wikipedia:<\/b> <br><b>Telefon:<\/b> ", "tessellate": -1, "extrude": 0, "visibility": -1 }, "geometry": { "type": "Point", "coordinates": [ 10.388766, 53.2167688 ] } },
{ "type": "Feature", "properties": { "Name": "Bürgerinformation", "description": "<b>Kategorie:<\/b> Information — Besucherinformation<br><b>Distanz:<\/b> 1636 m<br><b>Website:<\/b> <br><b>Wikipedia:<\/b> <br><b>Telefon:<\/b> ", "tessellate": -1, "extrude": 0, "visibility": -1 }, "geometry": { "type": "Point", "coordinates": [ 10.3954039, 53.2145943 ] } },
{ "type": "Feature", "properties": { "Name": "Bürgerinformation", "description": "<b>Kategorie:<\/b> Information — Besucherinformation<br><b>Distanz:<\/b> 2210 m<br><b>Website:<\/b> <br><b>Wikipedia:<\/b> <br><b>Telefon:<\/b> ", "tessellate": -1, "extrude": 0, "visibility": -1 }, "geometry": { "type": "Point", "coordinates": [ 10.3974595, 53.2094666 ] } },
{ "type": "Feature", "properties": { "Name": "Bürgerinformation", "description": "<b>Kategorie:<\/b> Information — Besucherinformation<br><b>Distanz:<\/b> 2274 m<br><b>Website:<\/b> <br><b>Wikipedia:<\/b> <br><b>Telefon:<\/b> ", "tessellate": -1, "extrude": 0, "visibility": -1 }, "geometry": { "type": "Point", "coordinates": [ 10.3954701, 53.2088603 ] } },
{ "type": "Feature", "properties": { "Name": "Bürgerinformation", "description": "<b>Kategorie:<\/b> Information — Besucherinformation<br><b>Distanz:<\/b> 2123 m<br><b>Website:<\/b> <br><b>Wikipedia:<\/b> <br><b>Telefon:<\/b> ", "tessellate": -1, "extrude": 0, "visibility": -1 }, "geometry": { "type": "Point", "coordinates": [ 10.3930019, 53.2102745 ] } },
{ "type": "Feature", "properties": { "Name": "Bürgerinformation", "description": "<b>Kategorie:<\/b> Information — Besucherinformation<br><b>Distanz:<\/b> 2070 m<br><b>Website:<\/b> <br><b>Wikipedia:<\/b> <br><b>Telefon:<\/b> ", "tessellate": -1, "extrude": 0, "visibility": -1 }, "geometry": { "type": "Point", "coordinates": [ 10.3883034, 53.2112028 ] } },
{ "type": "Feature", "properties": { "Name": "Bürgerinformation", "description": "<b>Kategorie:<\/b> Information — Besucherinformation<br><b>Distanz:<\/b> 1910 m<br><b>Website:<\/b> <br><b>Wikipedia:<\/b> <br><b>Telefon:<\/b> ", "tessellate": -1, "extrude": 0, "visibility": -1 }, "geometry": { "type": "Point", "coordinates": [ 10.3881466, 53.2127098 ] } },
{ "type": "Feature", "properties": { "Name": "Bürgerinformation", "description": "<b>Kategorie:<\/b> Information — Besucherinformation<br><b>Distanz:<\/b> 2226 m<br><b>Website:<\/b> <br><b>Wikipedia:<\/b> <br><b>Telefon:<\/b> ", "tessellate": -1, "extrude": 0, "visibility": -1 }, "geometry": { "type": "Point", "coordinates": [ 10.3863171, 53.210069 ] } },
{ "type": "Feature", "properties": { "Name": "Raeume Infotafel", "description": "<b>Kategorie:<\/b> Information — Besucherinformation<br><b>Distanz:<\/b> 2586 m<br><b>Website:<\/b> https:\/\/raeume.org<br><b>Wikipedia:<\/b> <br><b>Telefon:<\/b> ", "tessellate": -1, "extrude": 0, "visibility": -1 }, "geometry": { "type": "Point", "coordinates": [ 10.3682358, 53.2128227 ] } },
{ "type": "Feature", "properties": { "Name": "Bonhoeffer-Haus Programm", "description": "<b>Kategorie:<\/b> Information — Besucherinformation<br><b>Distanz:<\/b> 2457 m<br><b>Website:<\/b> <br><b>Wikipedia:<\/b> <br><b>Telefon:<\/b> ", "tessellate": -1, "extrude": 0, "visibility": -1 }, "geometry": { "type": "Point", "coordinates": [ 10.3791388, 53.2095305 ] } },
{ "type": "Feature", "properties": { "Name": "Kita Oedeme", "description": "<b>Kategorie:<\/b> Kinder & Jugend — Kindergarten<br><b>Distanz:<\/b> 1278 m<br><b>Website:<\/b> <br><b>Wikipedia:<\/b> <br><b>Telefon:<\/b> ", "tessellate": -1, "extrude": 0, "visibility": -1 }, "geometry": { "type": "Point", "coordinates": [ 10.3764083, 53.2293425 ] } },
{ "type": "Feature", "properties": { "Name": "Kita Dahlenburger Landstraße", "description": "<b>Kategorie:<\/b> Kinder & Jugend — Kindergarten<br><b>Distanz:<\/b> 2960 m<br><b>Website:<\/b> <br><b>Wikipedia:<\/b> <br><b>Telefon:<\/b> ", "tessellate": -1, "extrude": 0, "visibility": -1 }, "geometry": { "type": "Point", "coordinates": [ 10.4279692, 53.2474486 ] } },
{ "type": "Feature", "properties": { "Name": "Kita Fantasio", "description": "<b>Kategorie:<\/b> Kinder & Jugend — Kindergarten<br><b>Distanz:<\/b> 2282 m<br><b>Website:<\/b> <br><b>Wikipedia:<\/b> <br><b>Telefon:<\/b> ", "tessellate": -1, "extrude": 0, "visibility": -1 }, "geometry": { "type": "Point", "coordinates": [ 10.3983132, 53.2497388 ] } },
{ "type": "Feature", "properties": { "Name": "Krippe Farbklexe", "description": "<b>Kategorie:<\/b> Kinder & Jugend — Kindergarten<br><b>Distanz:<\/b> 2249 m<br><b>Website:<\/b> <br><b>Wikipedia:<\/b> <br><b>Telefon:<\/b> ", "tessellate": -1, "extrude": 0, "visibility": -1 }, "geometry": { "type": "Point", "coordinates": [ 10.3985596, 53.2494248 ] } },
{ "type": "Feature", "properties": { "Name": "Heilpädagogischer Kindergarten am Kalkberg", "description": "<b>Kategorie:<\/b> Kinder & Jugend — Kindergarten<br><b>Distanz:<\/b> 2239 m<br><b>Website:<\/b> <br><b>Wikipedia:<\/b> <br><b>Telefon:<\/b> ", "tessellate": -1, "extrude": 0, "visibility": -1 }, "geometry": { "type": "Point", "coordinates": [ 10.3988347, 53.2493189 ] } },
{ "type": "Feature", "properties": { "Name": "Großtagespflege \"Villa Milchzahn\"", "description": "<b>Kategorie:<\/b> Kinder & Jugend — Kindergarten<br><b>Distanz:<\/b>  341 m<br><b>Website:<\/b> <br><b>Wikipedia:<\/b> <br><b>Telefon:<\/b> ", "tessellate": -1, "extrude": 0, "visibility": -1 }, "geometry": { "type": "Point", "coordinates": [ 10.3982454, 53.2266939 ] } },
{ "type": "Feature", "properties": { "Name": "Kindertagesstätte Campus", "description": "<b>Kategorie:<\/b> Kinder & Jugend — Kindergarten<br><b>Distanz:<\/b>  268 m<br><b>Website:<\/b> <br><b>Wikipedia:<\/b> <br><b>Telefon:<\/b> ", "tessellate": -1, "extrude": 0, "visibility": -1 }, "geometry": { "type": "Point", "coordinates": [ 10.3979374, 53.2273509 ] } },
{ "type": "Feature", "properties": { "Name": "Kita Alte Schule Oedeme", "description": "<b>Kategorie:<\/b> Kinder & Jugend — Kindergarten<br><b>Distanz:<\/b> 1314 m<br><b>Website:<\/b> <br><b>Wikipedia:<\/b> <br><b>Telefon:<\/b> ", "tessellate": -1, "extrude": 0, "visibility": -1 }, "geometry": { "type": "Point", "coordinates": [ 10.3758752, 53.2290912 ] } },
{ "type": "Feature", "properties": { "Name": "Kindergarten in der Friedenskirche", "description": "<b>Kategorie:<\/b> Kinder & Jugend — Kindergarten<br><b>Distanz:<\/b>  402 m<br><b>Website:<\/b> <br><b>Wikipedia:<\/b> <br><b>Telefon:<\/b> ", "tessellate": -1, "extrude": 0, "visibility": -1 }, "geometry": { "type": "Point", "coordinates": [ 10.3980348, 53.2260002 ] } },
{ "type": "Feature", "properties": { "Name": "Die Rassel-Rübe", "description": "<b>Kategorie:<\/b> Kinder & Jugend — Kindergarten<br><b>Distanz:<\/b> 1379 m<br><b>Website:<\/b> <br><b>Wikipedia:<\/b> <br><b>Telefon:<\/b> ", "tessellate": -1, "extrude": 0, "visibility": -1 }, "geometry": { "type": "Point", "coordinates": [ 10.3760888, 53.2251676 ] } },
{ "type": "Feature", "properties": { "Name": "Krippe Die Rübe Häcklingen", "description": "<b>Kategorie:<\/b> Kinder & Jugend — Kindergarten<br><b>Distanz:<\/b> 1459 m<br><b>Website:<\/b> <br><b>Wikipedia:<\/b> <br><b>Telefon:<\/b> ", "tessellate": -1, "extrude": 0, "visibility": -1 }, "geometry": { "type": "Point", "coordinates": [ 10.3900928, 53.216602 ] } },
{ "type": "Feature", "properties": { "Name": "Waldkindergarten Waldrüben", "description": "<b>Kategorie:<\/b> Kinder & Jugend — Kindergarten<br><b>Distanz:<\/b>  126 m<br><b>Website:<\/b> <br><b>Wikipedia:<\/b> <br><b>Telefon:<\/b> ", "tessellate": -1, "extrude": 0, "visibility": -1 }, "geometry": { "type": "Point", "coordinates": [ 10.3959563, 53.2281866 ] } },
{ "type": "Feature", "properties": { "Name": "Ev. Kita St. Johannis", "description": "<b>Kategorie:<\/b> Kinder & Jugend — Kindergarten<br><b>Distanz:<\/b> 1902 m<br><b>Website:<\/b> <br><b>Wikipedia:<\/b> <br><b>Telefon:<\/b> ", "tessellate": -1, "extrude": 0, "visibility": -1 }, "geometry": { "type": "Point", "coordinates": [ 10.406994, 53.2449558 ] } },
{ "type": "Feature", "properties": { "Name": "Kindergarten Die Strolche", "description": "<b>Kategorie:<\/b> Kinder & Jugend — Kindergarten<br><b>Distanz:<\/b> 1933 m<br><b>Website:<\/b> <br><b>Wikipedia:<\/b> <br><b>Telefon:<\/b> ", "tessellate": -1, "extrude": 0, "visibility": -1 }, "geometry": { "type": "Point", "coordinates": [ 10.4017353, 53.2462652 ] } },
{ "type": "Feature", "properties": { "Name": "Kinderstube Bullerbü", "description": "<b>Kategorie:<\/b> Kinder & Jugend — Kindergarten<br><b>Distanz:<\/b> 1297 m<br><b>Website:<\/b> <br><b>Wikipedia:<\/b> <br><b>Telefon:<\/b> ", "tessellate": -1, "extrude": 0, "visibility": -1 }, "geometry": { "type": "Point", "coordinates": [ 10.40126, 53.2404405 ] } },
{ "type": "Feature", "properties": { "Name": "Kindergarten Die Kirchenmäuse", "description": "<b>Kategorie:<\/b> Kinder & Jugend — Kindergarten<br><b>Distanz:<\/b>  893 m<br><b>Website:<\/b> <br><b>Wikipedia:<\/b> <br><b>Telefon:<\/b> ", "tessellate": -1, "extrude": 0, "visibility": -1 }, "geometry": { "type": "Point", "coordinates": [ 10.4023806, 53.2223873 ] } },
{ "type": "Feature", "properties": { "Name": "Kita Marienplatz", "description": "<b>Kategorie:<\/b> Kinder & Jugend — Kindergarten<br><b>Distanz:<\/b> 2476 m<br><b>Website:<\/b> <br><b>Wikipedia:<\/b> <br><b>Telefon:<\/b> ", "tessellate": -1, "extrude": 0, "visibility": -1 }, "geometry": { "type": "Point", "coordinates": [ 10.4049888, 53.2508176 ] } },
{ "type": "Feature", "properties": { "Name": "Waldkindergarten", "description": "<b>Kategorie:<\/b> Kinder & Jugend — Kindergarten<br><b>Distanz:<\/b>  549 m<br><b>Website:<\/b> <br><b>Wikipedia:<\/b> <br><b>Telefon:<\/b> ", "tessellate": -1, "extrude": 0, "visibility": -1 }, "geometry": { "type": "Point", "coordinates": [ 10.3957927, 53.2243637 ] } },
{ "type": "Feature", "properties": { "Name": "Waldriesen", "description": "<b>Kategorie:<\/b> Kinder & Jugend — Kindergarten<br><b>Distanz:<\/b>  813 m<br><b>Website:<\/b> <br><b>Wikipedia:<\/b> <br><b>Telefon:<\/b> ", "tessellate": -1, "extrude": 0, "visibility": -1 }, "geometry": { "type": "Point", "coordinates": [ 10.4077261, 53.2294297 ] } },
{ "type": "Feature", "properties": { "Name": "Montessori Kinderhaus", "description": "<b>Kategorie:<\/b> Kinder & Jugend — Kindergarten<br><b>Distanz:<\/b> 2482 m<br><b>Website:<\/b> https:\/\/www.montessori-lueneburg.de\/kinderhaus\/<br><b>Wikipedia:<\/b> <br><b>Telefon:<\/b> +49 4131 2205156", "tessellate": -1, "extrude": 0, "visibility": -1 }, "geometry": { "type": "Point", "coordinates": [ 10.3774503, 53.2098127 ] } },
{ "type": "Feature", "properties": { "Name": "Ev. Kindergarten St. Michaelis", "description": "<b>Kategorie:<\/b> Kinder & Jugend — Kindergarten<br><b>Distanz:<\/b> 1583 m<br><b>Website:<\/b> <br><b>Wikipedia:<\/b> <br><b>Telefon:<\/b> ", "tessellate": -1, "extrude": 0, "visibility": -1 }, "geometry": { "type": "Point", "coordinates": [ 10.3967474, 53.2435056 ] } },
{ "type": "Feature", "properties": { "Name": "Spielerei", "description": "<b>Kategorie:<\/b> Kinder & Jugend — Spielplatz<br><b>Distanz:<\/b> 2319 m<br><b>Website:<\/b> <br><b>Wikipedia:<\/b> <br><b>Telefon:<\/b> ", "tessellate": -1, "extrude": 0, "visibility": -1 }, "geometry": { "type": "Point", "coordinates": [ 10.4095245, 53.2483779 ] } },
{ "type": "Feature", "properties": { "Name": "Scala Programmkino", "description": "<b>Kategorie:<\/b> Kultur & Geschichte — Kino<br><b>Distanz:<\/b> 2321 m<br><b>Website:<\/b> https:\/\/www.scala-kino.net\/<br><b>Wikipedia:<\/b> <br><b>Telefon:<\/b> +49 4131 2243224", "tessellate": -1, "extrude": 0, "visibility": -1 }, "geometry": { "type": "Point", "coordinates": [ 10.4072304, 53.2489426 ] } },
{ "type": "Feature", "properties": { "Name": "TamTam", "description": "<b>Kategorie:<\/b> Kultur & Geschichte — Theater<br><b>Distanz:<\/b> 2519 m<br><b>Website:<\/b> <br><b>Wikipedia:<\/b> <br><b>Telefon:<\/b> ", "tessellate": -1, "extrude": 0, "visibility": -1 }, "geometry": { "type": "Point", "coordinates": [ 10.409022, 53.2504444 ] } },
{ "type": "Feature", "properties": { "Name": "Brauereimuseum", "description": "<b>Kategorie:<\/b> Kultur & Geschichte — Museum<br><b>Distanz:<\/b> 2095 m<br><b>Website:<\/b> <br><b>Wikipedia:<\/b> <br><b>Telefon:<\/b> ", "tessellate": -1, "extrude": 0, "visibility": -1 }, "geometry": { "type": "Point", "coordinates": [ 10.4072382, 53.2467743 ] } },
{ "type": "Feature", "properties": { "Name": "Altes Rathaus", "description": "<b>Kategorie:<\/b> Kultur & Geschichte — Museum<br><b>Distanz:<\/b> 2472 m<br><b>Website:<\/b> <br><b>Wikipedia:<\/b> de:Lüneburger Rathaus<br><b>Telefon:<\/b> ", "tessellate": -1, "extrude": 0, "visibility": -1 }, "geometry": { "type": "Point", "coordinates": [ 10.4074048, 53.2503453 ] } },
{ "type": "Feature", "properties": { "Name": "theater im enovum", "description": "<b>Kategorie:<\/b> Kultur & Geschichte — Theater<br><b>Distanz:<\/b>  585 m<br><b>Website:<\/b> <br><b>Wikipedia:<\/b> <br><b>Telefon:<\/b> ", "tessellate": -1, "extrude": 0, "visibility": -1 }, "geometry": { "type": "Point", "coordinates": [ 10.4038123, 53.2310623 ] } },
{ "type": "Feature", "properties": { "Name": "Art Pfefferle", "description": "<b>Kategorie:<\/b> Kultur & Geschichte — Galerie<br><b>Distanz:<\/b> 2343 m<br><b>Website:<\/b> <br><b>Wikipedia:<\/b> <br><b>Telefon:<\/b> ", "tessellate": -1, "extrude": 0, "visibility": -1 }, "geometry": { "type": "Point", "coordinates": [ 10.4079875, 53.2489899 ] } },
{ "type": "Feature", "properties": { "Name": "Ostpreußisches Landesmuseum Lüneburg", "description": "<b>Kategorie:<\/b> Kultur & Geschichte — Museum<br><b>Distanz:<\/b> 2089 m<br><b>Website:<\/b> <br><b>Wikipedia:<\/b> <br><b>Telefon:<\/b> ", "tessellate": -1, "extrude": 0, "visibility": -1 }, "geometry": { "type": "Point", "coordinates": [ 10.4071009, 53.2467461 ] } },
{ "type": "Feature", "properties": { "Name": "Pluto - Raum für Kunst und Transformation", "description": "<b>Kategorie:<\/b> Kultur & Geschichte — Galerie<br><b>Distanz:<\/b> 2109 m<br><b>Website:<\/b> <br><b>Wikipedia:<\/b> <br><b>Telefon:<\/b> ", "tessellate": -1, "extrude": 0, "visibility": -1 }, "geometry": { "type": "Point", "coordinates": [ 10.4044191, 53.2474943 ] } },
{ "type": "Feature", "properties": { "Name": "Altes Kaufhaus", "description": "<b>Kategorie:<\/b> Kultur & Geschichte — Attraktion<br><b>Distanz:<\/b> 2740 m<br><b>Website:<\/b> <br><b>Wikipedia:<\/b> <br><b>Telefon:<\/b> ", "tessellate": -1, "extrude": 0, "visibility": -1 }, "geometry": { "type": "Point", "coordinates": [ 10.4135246, 53.251436 ] } },
{ "type": "Feature", "properties": { "Name": "Orgeln von St. Johannis", "description": "<b>Kategorie:<\/b> Kultur & Geschichte — Attraktion<br><b>Distanz:<\/b> 2349 m<br><b>Website:<\/b> <br><b>Wikipedia:<\/b> de:Orgeln von St. Johannis (Lüneburg)<br><b>Telefon:<\/b> ", "tessellate": -1, "extrude": 0, "visibility": -1 }, "geometry": { "type": "Point", "coordinates": [ 10.4126798, 53.2477447 ] } },
{ "type": "Feature", "properties": { "Name": "Das schwangere Haus", "description": "<b>Kategorie:<\/b> Kultur & Geschichte — Attraktion<br><b>Distanz:<\/b> 2425 m<br><b>Website:<\/b> <br><b>Wikipedia:<\/b> <br><b>Telefon:<\/b> ", "tessellate": -1, "extrude": 0, "visibility": -1 }, "geometry": { "type": "Point", "coordinates": [ 10.4068264, 53.2500173 ] } },
{ "type": "Feature", "properties": { "Name": "Galerie Goos", "description": "<b>Kategorie:<\/b> Kultur & Geschichte — Galerie<br><b>Distanz:<\/b> 2733 m<br><b>Website:<\/b> <br><b>Wikipedia:<\/b> <br><b>Telefon:<\/b> ", "tessellate": -1, "extrude": 0, "visibility": -1 }, "geometry": { "type": "Point", "coordinates": [ 10.4148242, 53.2509746 ] } },
{ "type": "Feature", "properties": { "Name": "Loreley", "description": "<b>Kategorie:<\/b> Natur & Landschaft — Aussichtspunkt<br><b>Distanz:<\/b> 1839 m<br><b>Website:<\/b> <br><b>Wikipedia:<\/b> <br><b>Telefon:<\/b> ", "tessellate": -1, "extrude": 0, "visibility": -1 }, "geometry": { "type": "Point", "coordinates": [ 10.4220284, 53.2247227 ] } },
{ "type": "Feature", "properties": { "Name": "Kalkberg", "description": "<b>Kategorie:<\/b> Natur & Landschaft — Natur-Feature (alle)<br><b>Distanz:<\/b> 2239 m<br><b>Website:<\/b> <br><b>Wikipedia:<\/b> de:Lüneburger Kalkberg<br><b>Telefon:<\/b> ", "tessellate": -1, "extrude": 0, "visibility": -1 }, "geometry": { "type": "Point", "coordinates": [ 10.3968665, 53.2494081 ] } }
]
}
