{"type": "FeatureCollection", "features": [{"type": "Feature", "properties": {"Name": "JH 300 — Jugendherberge Hann. Münden", "description": "<b>JH Nr:</b> 300<br><b>Name:</b> Jugendherberge Hann. Münden<br><b>Ort:</b> Hann. Münden", "timestamp": null, "begin": null, "end": null, "altitudeMode": null, "tessellate": -1, "extrude": 0, "visibility": -1, "drawOrder": null, "icon": null, "category_group": "JH"}, "geometry": {"type": "Point", "coordinates": [9.6368905, 51.4294516]}}, {"type": "Feature", "properties": {"Name": "Stadtbücherei", "description": "<b>Kategorie:</b> Bildungsinfrastruktur — Bibliothek<br><b>Distanz:</b> 1743 m<br><b>Website:</b> <br><b>Wikipedia:</b> <br><b>Telefon:</b> ", "timestamp": null, "begin": null, "end": null, "altitudeMode": null, "tessellate": -1, "extrude": 0, "visibility": -1, "drawOrder": null, "icon": null, "category_group": "Bildungsinfrastruktur"}, "geometry": {"type": "Point", "coordinates": [9.6543724, 51.4182208]}}, {"type": "Feature", "properties": {"Name": "Touristik Naturpark Münden e.V.;Tourist-Info Hann. Münden", "description": "<b>Kategorie:</b> Information — Besucherinformation<br><b>Distanz:</b> 1682 m<br><b>Website:</b> https://hann.muenden-erlebnisregion.de/<br><b>Wikipedia:</b> <br><b>Telefon:</b> ", "timestamp": null, "begin": null, "end": null, "altitudeMode": null, "tessellate": -1, "extrude": 0, "visibility": -1, "drawOrder": null, "icon": null, "category_group": "Information"}, "geometry": {"type": "Point", "coordinates": [9.6513551, 51.4173344]}}, {"type": "Feature", "properties": {"Name": "Hochwassermarke", "description": "<b>Kategorie:</b> Information — Besucherinformation<br><b>Distanz:</b> 1549 m<br><b>Website:</b> <br><b>Wikipedia:</b> <br><b>Telefon:</b> ", "timestamp": null, "begin": null, "end": null, "altitudeMode": null, "tessellate": -1, "extrude": 0, "visibility": -1, "drawOrder": null, "icon": null, "category_group": "Information"}, "geometry": {"type": "Point", "coordinates": [9.6511925, 51.4187746]}}, {"type": "Feature", "properties": {"Name": "Blume und Blumer Mühle", "description": "<b>Kategorie:</b> Information — Besucherinformation<br><b>Distanz:</b> 1589 m<br><b>Website:</b> <br><b>Wikipedia:</b> <br><b>Telefon:</b> ", "timestamp": null, "begin": null, "end": null, "altitudeMode": null, "tessellate": -1, "extrude": 0, "visibility": -1, "drawOrder": null, "icon": null, "category_group": "Information"}, "geometry": {"type": "Point", "coordinates": [9.652701, 51.4191306]}}, {"type": "Feature", "properties": {"Name": "Hann. Mündener Wasserpfad", "description": "<b>Kategorie:</b> Information — Besucherinformation<br><b>Distanz:</b> 1593 m<br><b>Website:</b> <br><b>Wikipedia:</b> <br><b>Telefon:</b> ", "timestamp": null, "begin": null, "end": null, "altitudeMode": null, "tessellate": -1, "extrude": 0, "visibility": -1, "drawOrder": null, "icon": null, "category_group": "Information"}, "geometry": {"type": "Point", "coordinates": [9.6525464, 51.418991]}}, {"type": "Feature", "properties": {"Name": "Hann. Mündener Wasserpfad", "description": "<b>Kategorie:</b> Information — Besucherinformation<br><b>Distanz:</b> 1576 m<br><b>Website:</b> <br><b>Wikipedia:</b> <br><b>Telefon:</b> ", "timestamp": null, "begin": null, "end": null, "altitudeMode": null, "tessellate": -1, "extrude": 0, "visibility": -1, "drawOrder": null, "icon": null, "category_group": "Information"}, "geometry": {"type": "Point", "coordinates": [9.6523188, 51.4190664]}}, {"type": "Feature", "properties": {"Name": "Trinkwasserversorgung", "description": "<b>Kategorie:</b> Information — Besucherinformation<br><b>Distanz:</b> 1546 m<br><b>Website:</b> <br><b>Wikipedia:</b> <br><b>Telefon:</b> ", "timestamp": null, "begin": null, "end": null, "altitudeMode": null, "tessellate": -1, "extrude": 0, "visibility": -1, "drawOrder": null, "icon": null, "category_group": "Information"}, "geometry": {"type": "Point", "coordinates": [9.6519686, 51.4192351]}}, {"type": "Feature", "properties": {"Name": "Deutsche Ferienroute Alpen-Ostsee", "description": "<b>Kategorie:</b> Information — Besucherinformation<br><b>Distanz:</b> 1762 m<br><b>Website:</b> <br><b>Wikipedia:</b> <br><b>Telefon:</b> ", "timestamp": null, "begin": null, "end": null, "altitudeMode": null, "tessellate": -1, "extrude": 0, "visibility": -1, "drawOrder": null, "icon": null, "category_group": "Information"}, "geometry": {"type": "Point", "coordinates": [9.6549781, 51.418356]}}, {"type": "Feature", "properties": {"Name": "Hessischer Radfernweg R1", "description": "<b>Kategorie:</b> Information — Besucherinformation<br><b>Distanz:</b> 1278 m<br><b>Website:</b> <br><b>Wikipedia:</b> <br><b>Telefon:</b> ", "timestamp": null, "begin": null, "end": null, "altitudeMode": null, "tessellate": -1, "extrude": 0, "visibility": -1, "drawOrder": null, "icon": null, "category_group": "Information"}, "geometry": {"type": "Point", "coordinates": [9.6468844, 51.4198087]}}, {"type": "Feature", "properties": {"Name": "Der enttäuschte Fluss", "description": "<b>Kategorie:</b> Information — Besucherinformation<br><b>Distanz:</b> 1239 m<br><b>Website:</b> <br><b>Wikipedia:</b> <br><b>Telefon:</b> ", "timestamp": null, "begin": null, "end": null, "altitudeMode": null, "tessellate": -1, "extrude": 0, "visibility": -1, "drawOrder": null, "icon": null, "category_group": "Information"}, "geometry": {"type": "Point", "coordinates": [9.648295, 51.4208856]}}, {"type": "Feature", "properties": {"Name": "Salzbelastung von Werra und Weser", "description": "<b>Kategorie:</b> Information — Besucherinformation<br><b>Distanz:</b> 1265 m<br><b>Website:</b> <br><b>Wikipedia:</b> <br><b>Telefon:</b> ", "timestamp": null, "begin": null, "end": null, "altitudeMode": null, "tessellate": -1, "extrude": 0, "visibility": -1, "drawOrder": null, "icon": null, "category_group": "Information"}, "geometry": {"type": "Point", "coordinates": [9.6487035, 51.4207966]}}, {"type": "Feature", "properties": {"Name": "Stammansweg", "description": "<b>Kategorie:</b> Information — Besucherinformation<br><b>Distanz:</b> 2305 m<br><b>Website:</b> <br><b>Wikipedia:</b> <br><b>Telefon:</b> ", "timestamp": null, "begin": null, "end": null, "altitudeMode": null, "tessellate": -1, "extrude": 0, "visibility": -1, "drawOrder": null, "icon": null, "category_group": "Information"}, "geometry": {"type": "Point", "coordinates": [9.6340417, 51.4088048]}}, {"type": "Feature", "properties": {"Name": "Knickweg", "description": "<b>Kategorie:</b> Information — Besucherinformation<br><b>Distanz:</b> 2155 m<br><b>Website:</b> <br><b>Wikipedia:</b> <br><b>Telefon:</b> ", "timestamp": null, "begin": null, "end": null, "altitudeMode": null, "tessellate": -1, "extrude": 0, "visibility": -1, "drawOrder": null, "icon": null, "category_group": "Information"}, "geometry": {"type": "Point", "coordinates": [9.6350246, 51.4101053]}}, {"type": "Feature", "properties": {"Name": "Lebensraum Totholz", "description": "<b>Kategorie:</b> Information — Besucherinformation<br><b>Distanz:</b> 1676 m<br><b>Website:</b> <br><b>Wikipedia:</b> <br><b>Telefon:</b> ", "timestamp": null, "begin": null, "end": null, "altitudeMode": null, "tessellate": -1, "extrude": 0, "visibility": -1, "drawOrder": null, "icon": null, "category_group": "Information"}, "geometry": {"type": "Point", "coordinates": [9.6536801, 51.4186442]}}, {"type": "Feature", "properties": {"Name": "Mutationen", "description": "<b>Kategorie:</b> Information — Besucherinformation<br><b>Distanz:</b> 2160 m<br><b>Website:</b> <br><b>Wikipedia:</b> <br><b>Telefon:</b> ", "timestamp": null, "begin": null, "end": null, "altitudeMode": null, "tessellate": -1, "extrude": 0, "visibility": -1, "drawOrder": null, "icon": null, "category_group": "Information"}, "geometry": {"type": "Point", "coordinates": [9.658868, 51.4157296]}}, {"type": "Feature", "properties": {"Name": "Von Bienen und Blumen", "description": "<b>Kategorie:</b> Information — Besucherinformation<br><b>Distanz:</b> 2262 m<br><b>Website:</b> <br><b>Wikipedia:</b> <br><b>Telefon:</b> ", "timestamp": null, "begin": null, "end": null, "altitudeMode": null, "tessellate": -1, "extrude": 0, "visibility": -1, "drawOrder": null, "icon": null, "category_group": "Information"}, "geometry": {"type": "Point", "coordinates": [9.6599114, 51.4150768]}}, {"type": "Feature", "properties": {"Name": "Rotauge,Rotfeder", "description": "<b>Kategorie:</b> Information — Besucherinformation<br><b>Distanz:</b> 1374 m<br><b>Website:</b> <br><b>Wikipedia:</b> <br><b>Telefon:</b> ", "timestamp": null, "begin": null, "end": null, "altitudeMode": null, "tessellate": -1, "extrude": 0, "visibility": -1, "drawOrder": null, "icon": null, "category_group": "Information"}, "geometry": {"type": "Point", "coordinates": [9.6492349, 51.4198096]}}, {"type": "Feature", "properties": {"Name": "Barsche", "description": "<b>Kategorie:</b> Information — Besucherinformation<br><b>Distanz:</b> 1355 m<br><b>Website:</b> <br><b>Wikipedia:</b> <br><b>Telefon:</b> ", "timestamp": null, "begin": null, "end": null, "altitudeMode": null, "tessellate": -1, "extrude": 0, "visibility": -1, "drawOrder": null, "icon": null, "category_group": "Information"}, "geometry": {"type": "Point", "coordinates": [9.6491883, 51.4199982]}}, {"type": "Feature", "properties": {"Name": "Forellen", "description": "<b>Kategorie:</b> Information — Besucherinformation<br><b>Distanz:</b> 1331 m<br><b>Website:</b> <br><b>Wikipedia:</b> <br><b>Telefon:</b> ", "timestamp": null, "begin": null, "end": null, "altitudeMode": null, "tessellate": -1, "extrude": 0, "visibility": -1, "drawOrder": null, "icon": null, "category_group": "Information"}, "geometry": {"type": "Point", "coordinates": [9.6491229, 51.4202499]}}, {"type": "Feature", "properties": {"Name": "Aal,Hasel", "description": "<b>Kategorie:</b> Information — Besucherinformation<br><b>Distanz:</b> 1300 m<br><b>Website:</b> <br><b>Wikipedia:</b> <br><b>Telefon:</b> ", "timestamp": null, "begin": null, "end": null, "altitudeMode": null, "tessellate": -1, "extrude": 0, "visibility": -1, "drawOrder": null, "icon": null, "category_group": "Information"}, "geometry": {"type": "Point", "coordinates": [9.6489687, 51.4205253]}}, {"type": "Feature", "properties": {"Name": "Wasser-Kleintiere", "description": "<b>Kategorie:</b> Information — Besucherinformation<br><b>Distanz:</b> 1268 m<br><b>Website:</b> <br><b>Wikipedia:</b> <br><b>Telefon:</b> ", "timestamp": null, "begin": null, "end": null, "altitudeMode": null, "tessellate": -1, "extrude": 0, "visibility": -1, "drawOrder": null, "icon": null, "category_group": "Information"}, "geometry": {"type": "Point", "coordinates": [9.6481697, 51.4204914]}}, {"type": "Feature", "properties": {"Name": "Döbel,Rapfen", "description": "<b>Kategorie:</b> Information — Besucherinformation<br><b>Distanz:</b> 1282 m<br><b>Website:</b> <br><b>Wikipedia:</b> <br><b>Telefon:</b> ", "timestamp": null, "begin": null, "end": null, "altitudeMode": null, "tessellate": -1, "extrude": 0, "visibility": -1, "drawOrder": null, "icon": null, "category_group": "Information"}, "geometry": {"type": "Point", "coordinates": [9.6480389, 51.4202644]}}, {"type": "Feature", "properties": {"Name": "Hecht,Zander", "description": "<b>Kategorie:</b> Information — Besucherinformation<br><b>Distanz:</b> 1299 m<br><b>Website:</b> <br><b>Wikipedia:</b> <br><b>Telefon:</b> ", "timestamp": null, "begin": null, "end": null, "altitudeMode": null, "tessellate": -1, "extrude": 0, "visibility": -1, "drawOrder": null, "icon": null, "category_group": "Information"}, "geometry": {"type": "Point", "coordinates": [9.6479464, 51.4200352]}}, {"type": "Feature", "properties": {"Name": "Blei(Brachsen),Güster", "description": "<b>Kategorie:</b> Information — Besucherinformation<br><b>Distanz:</b> 1321 m<br><b>Website:</b> <br><b>Wikipedia:</b> <br><b>Telefon:</b> ", "timestamp": null, "begin": null, "end": null, "altitudeMode": null, "tessellate": -1, "extrude": 0, "visibility": -1, "drawOrder": null, "icon": null, "category_group": "Information"}, "geometry": {"type": "Point", "coordinates": [9.6479172, 51.4197839]}}, {"type": "Feature", "properties": {"Name": "Gründling,Ukelei,Groppe", "description": "<b>Kategorie:</b> Information — Besucherinformation<br><b>Distanz:</b> 1341 m<br><b>Website:</b> <br><b>Wikipedia:</b> <br><b>Telefon:</b> ", "timestamp": null, "begin": null, "end": null, "altitudeMode": null, "tessellate": -1, "extrude": 0, "visibility": -1, "drawOrder": null, "icon": null, "category_group": "Information"}, "geometry": {"type": "Point", "coordinates": [9.6478767, 51.4195391]}}, {"type": "Feature", "properties": {"Name": "Schleie/Karausche", "description": "<b>Kategorie:</b> Information — Besucherinformation<br><b>Distanz:</b> 1369 m<br><b>Website:</b> <br><b>Wikipedia:</b> <br><b>Telefon:</b> ", "timestamp": null, "begin": null, "end": null, "altitudeMode": null, "tessellate": -1, "extrude": 0, "visibility": -1, "drawOrder": null, "icon": null, "category_group": "Information"}, "geometry": {"type": "Point", "coordinates": [9.6480004, 51.4192938]}}, {"type": "Feature", "properties": {"Name": "Karpfen", "description": "<b>Kategorie:</b> Information — Besucherinformation<br><b>Distanz:</b> 1418 m<br><b>Website:</b> <br><b>Wikipedia:</b> <br><b>Telefon:</b> ", "timestamp": null, "begin": null, "end": null, "altitudeMode": null, "tessellate": -1, "extrude": 0, "visibility": -1, "drawOrder": null, "icon": null, "category_group": "Information"}, "geometry": {"type": "Point", "coordinates": [9.6482451, 51.4188623]}}, {"type": "Feature", "properties": {"Name": "Fischlehrpfad", "description": "<b>Kategorie:</b> Information — Besucherinformation<br><b>Distanz:</b> 1444 m<br><b>Website:</b> <br><b>Wikipedia:</b> <br><b>Telefon:</b> ", "timestamp": null, "begin": null, "end": null, "altitudeMode": null, "tessellate": -1, "extrude": 0, "visibility": -1, "drawOrder": null, "icon": null, "category_group": "Information"}, "geometry": {"type": "Point", "coordinates": [9.6482961, 51.4186001]}}, {"type": "Feature", "properties": {"Name": "Essen und Gehen", "description": "<b>Kategorie:</b> Information — Besucherinformation<br><b>Distanz:</b> 1497 m<br><b>Website:</b> <br><b>Wikipedia:</b> <br><b>Telefon:</b> ", "timestamp": null, "begin": null, "end": null, "altitudeMode": null, "tessellate": -1, "extrude": 0, "visibility": -1, "drawOrder": null, "icon": null, "category_group": "Information"}, "geometry": {"type": "Point", "coordinates": [9.6485968, 51.4181589]}}, {"type": "Feature", "properties": {"Name": "Lebensraum Totholz", "description": "<b>Kategorie:</b> Information — Besucherinformation<br><b>Distanz:</b> 1429 m<br><b>Website:</b> <br><b>Wikipedia:</b> <br><b>Telefon:</b> ", "timestamp": null, "begin": null, "end": null, "altitudeMode": null, "tessellate": -1, "extrude": 0, "visibility": -1, "drawOrder": null, "icon": null, "category_group": "Information"}, "geometry": {"type": "Point", "coordinates": [9.6494903, 51.4192997]}}, {"type": "Feature", "properties": {"Name": "Der Weserstein", "description": "<b>Kategorie:</b> Information — Besucherinformation<br><b>Distanz:</b> 1247 m<br><b>Website:</b> <br><b>Wikipedia:</b> <br><b>Telefon:</b> ", "timestamp": null, "begin": null, "end": null, "altitudeMode": null, "tessellate": -1, "extrude": 0, "visibility": -1, "drawOrder": null, "icon": null, "category_group": "Information"}, "geometry": {"type": "Point", "coordinates": [9.6482964, 51.4207971]}}, {"type": "Feature", "properties": {"Name": "Strom aus erneuerbarer Energie", "description": "<b>Kategorie:</b> Information — Besucherinformation<br><b>Distanz:</b> 1494 m<br><b>Website:</b> <br><b>Wikipedia:</b> <br><b>Telefon:</b> ", "timestamp": null, "begin": null, "end": null, "altitudeMode": null, "tessellate": -1, "extrude": 0, "visibility": -1, "drawOrder": null, "icon": null, "category_group": "Information"}, "geometry": {"type": "Point", "coordinates": [9.6521561, 51.4199953]}}, {"type": "Feature", "properties": {"Name": "Vorwerk Eichhof / Harster Heerweg", "description": "<b>Kategorie:</b> Information — Besucherinformation<br><b>Distanz:</b> 2435 m<br><b>Website:</b> <br><b>Wikipedia:</b> <br><b>Telefon:</b> ", "timestamp": null, "begin": null, "end": null, "altitudeMode": null, "tessellate": -1, "extrude": 0, "visibility": -1, "drawOrder": null, "icon": null, "category_group": "Information"}, "geometry": {"type": "Point", "coordinates": [9.6448436, 51.4507734]}}, {"type": "Feature", "properties": {"Name": "TG 1860 Münden e. V.", "description": "<b>Kategorie:</b> Information — Besucherinformation<br><b>Distanz:</b> 1717 m<br><b>Website:</b> <br><b>Wikipedia:</b> <br><b>Telefon:</b> ", "timestamp": null, "begin": null, "end": null, "altitudeMode": null, "tessellate": -1, "extrude": 0, "visibility": -1, "drawOrder": null, "icon": null, "category_group": "Information"}, "geometry": {"type": "Point", "coordinates": [9.6518832, 51.4171803]}}, {"type": "Feature", "properties": {"Name": "Verein der Fischfreunde", "description": "<b>Kategorie:</b> Information — Besucherinformation<br><b>Distanz:</b> 1557 m<br><b>Website:</b> <br><b>Wikipedia:</b> <br><b>Telefon:</b> ", "timestamp": null, "begin": null, "end": null, "altitudeMode": null, "tessellate": -1, "extrude": 0, "visibility": -1, "drawOrder": null, "icon": null, "category_group": "Information"}, "geometry": {"type": "Point", "coordinates": [9.6513463, 51.4187609]}}, {"type": "Feature", "properties": {"Name": "Schega", "description": "<b>Kategorie:</b> Information — Besucherinformation<br><b>Distanz:</b> 1927 m<br><b>Website:</b> <br><b>Wikipedia:</b> <br><b>Telefon:</b> ", "timestamp": null, "begin": null, "end": null, "altitudeMode": null, "tessellate": -1, "extrude": 0, "visibility": -1, "drawOrder": null, "icon": null, "category_group": "Information"}, "geometry": {"type": "Point", "coordinates": [9.653579, 51.4156167]}}, {"type": "Feature", "properties": {"Name": "Ein neues Kapitel in Hann. Münden", "description": "<b>Kategorie:</b> Information — Besucherinformation<br><b>Distanz:</b> 2402 m<br><b>Website:</b> <br><b>Wikipedia:</b> <br><b>Telefon:</b> ", "timestamp": null, "begin": null, "end": null, "altitudeMode": null, "tessellate": -1, "extrude": 0, "visibility": -1, "drawOrder": null, "icon": null, "category_group": "Information"}, "geometry": {"type": "Point", "coordinates": [9.664907, 51.4168094]}}, {"type": "Feature", "properties": {"Name": "Kneipp-Verein", "description": "<b>Kategorie:</b> Information — Besucherinformation<br><b>Distanz:</b> 2106 m<br><b>Website:</b> <br><b>Wikipedia:</b> <br><b>Telefon:</b> ", "timestamp": null, "begin": null, "end": null, "altitudeMode": null, "tessellate": -1, "extrude": 0, "visibility": -1, "drawOrder": null, "icon": null, "category_group": "Information"}, "geometry": {"type": "Point", "coordinates": [9.6572912, 51.4154507]}}, {"type": "Feature", "properties": {"Name": "Weserstein", "description": "<b>Kategorie:</b> Kultur & Geschichte — Attraktion<br><b>Distanz:</b> 1231 m<br><b>Website:</b> <br><b>Wikipedia:</b> de:Weserstein<br><b>Telefon:</b> ", "timestamp": null, "begin": null, "end": null, "altitudeMode": null, "tessellate": -1, "extrude": 0, "visibility": -1, "drawOrder": null, "icon": null, "category_group": "Kultur & Geschichte"}, "geometry": {"type": "Point", "coordinates": [9.6483677, 51.4210186]}}, {"type": "Feature", "properties": {"Name": "Kilometer 0 der Weser", "description": "<b>Kategorie:</b> Kultur & Geschichte — Attraktion<br><b>Distanz:</b> 1139 m<br><b>Website:</b> <br><b>Wikipedia:</b> <br><b>Telefon:</b> ", "timestamp": null, "begin": null, "end": null, "altitudeMode": null, "tessellate": -1, "extrude": 0, "visibility": -1, "drawOrder": null, "icon": null, "category_group": "Kultur & Geschichte"}, "geometry": {"type": "Point", "coordinates": [9.6481464, 51.4220097]}}, {"type": "Feature", "properties": {"Name": "Städtisches Museum", "description": "<b>Kategorie:</b> Kultur & Geschichte — Museum<br><b>Distanz:</b> 1781 m<br><b>Website:</b> <br><b>Wikipedia:</b> <br><b>Telefon:</b> ", "timestamp": null, "begin": null, "end": null, "altitudeMode": null, "tessellate": -1, "extrude": 0, "visibility": -1, "drawOrder": null, "icon": null, "category_group": "Kultur & Geschichte"}, "geometry": {"type": "Point", "coordinates": [9.6549489, 51.4180931]}}, {"type": "Feature", "properties": {"Name": "Tillyschanze", "description": "<b>Kategorie:</b> Kultur & Geschichte — Attraktion<br><b>Distanz:</b> 1473 m<br><b>Website:</b> <br><b>Wikipedia:</b> de:Tillyschanze (Münden)<br><b>Telefon:</b> ", "timestamp": null, "begin": null, "end": null, "altitudeMode": null, "tessellate": -1, "extrude": 0, "visibility": -1, "drawOrder": null, "icon": null, "category_group": "Kultur & Geschichte"}, "geometry": {"type": "Point", "coordinates": [9.6434331, 51.4168535]}}, {"type": "Feature", "properties": {"Name": "Hydrometer", "description": "<b>Kategorie:</b> Kultur & Geschichte — Attraktion<br><b>Distanz:</b> 1692 m<br><b>Website:</b> <br><b>Wikipedia:</b> <br><b>Telefon:</b> ", "timestamp": null, "begin": null, "end": null, "altitudeMode": null, "tessellate": -1, "extrude": 0, "visibility": -1, "drawOrder": null, "icon": null, "category_group": "Kultur & Geschichte"}, "geometry": {"type": "Point", "coordinates": [9.6513401, 51.4172052]}}, {"type": "Feature", "properties": {"Name": "Bohrkopf", "description": "<b>Kategorie:</b> Kultur & Geschichte — Attraktion<br><b>Distanz:</b> 1544 m<br><b>Website:</b> <br><b>Wikipedia:</b> <br><b>Telefon:</b> ", "timestamp": null, "begin": null, "end": null, "altitudeMode": null, "tessellate": -1, "extrude": 0, "visibility": -1, "drawOrder": null, "icon": null, "category_group": "Kultur & Geschichte"}, "geometry": {"type": "Point", "coordinates": [9.6519425, 51.4192451]}}, {"type": "Feature", "properties": {"Name": "Offene Kunstwerkstatt Mündener Kunstnetz e. V.", "description": "<b>Kategorie:</b> Kultur & Geschichte — Galerie<br><b>Distanz:</b> 1579 m<br><b>Website:</b> <br><b>Wikipedia:</b> <br><b>Telefon:</b> ", "timestamp": null, "begin": null, "end": null, "altitudeMode": null, "tessellate": -1, "extrude": 0, "visibility": -1, "drawOrder": null, "icon": null, "category_group": "Kultur & Geschichte"}, "geometry": {"type": "Point", "coordinates": [9.6516336, 51.4186527]}}, {"type": "Feature", "properties": {"Name": "Glockenspiel Doktor Eisenbart", "description": "<b>Kategorie:</b> Kultur & Geschichte — Attraktion<br><b>Distanz:</b> 1662 m<br><b>Website:</b> <br><b>Wikipedia:</b> <br><b>Telefon:</b> ", "timestamp": null, "begin": null, "end": null, "altitudeMode": null, "tessellate": -1, "extrude": 0, "visibility": -1, "drawOrder": null, "icon": null, "category_group": "Kultur & Geschichte"}, "geometry": {"type": "Point", "coordinates": [9.6512393, 51.4175013]}}, {"type": "Feature", "properties": {"Name": "Drei Flüsse Theater", "description": "<b>Kategorie:</b> Kultur & Geschichte — Theater<br><b>Distanz:</b> 1759 m<br><b>Website:</b> <br><b>Wikipedia:</b> <br><b>Telefon:</b> ", "timestamp": null, "begin": null, "end": null, "altitudeMode": null, "tessellate": -1, "extrude": 0, "visibility": -1, "drawOrder": null, "icon": null, "category_group": "Kultur & Geschichte"}, "geometry": {"type": "Point", "coordinates": [9.6511076, 51.4163655]}}, {"type": "Feature", "properties": {"Name": "Dr. Eisenbart Haus", "description": "<b>Kategorie:</b> Kultur & Geschichte — Attraktion<br><b>Distanz:</b> 1840 m<br><b>Website:</b> <br><b>Wikipedia:</b> <br><b>Telefon:</b> ", "timestamp": null, "begin": null, "end": null, "altitudeMode": null, "tessellate": -1, "extrude": 0, "visibility": -1, "drawOrder": null, "icon": null, "category_group": "Kultur & Geschichte"}, "geometry": {"type": "Point", "coordinates": [9.6514428, 51.4156373]}}, {"type": "Feature", "properties": {"Name": "Dr. Wolfs Wunderkammer", "description": "<b>Kategorie:</b> Kultur & Geschichte — Museum<br><b>Distanz:</b> 1856 m<br><b>Website:</b> https://www.dr-wolfs-wunderkammer.de/<br><b>Wikipedia:</b> <br><b>Telefon:</b> +4915908306366", "timestamp": null, "begin": null, "end": null, "altitudeMode": null, "tessellate": -1, "extrude": 0, "visibility": -1, "drawOrder": null, "icon": null, "category_group": "Kultur & Geschichte"}, "geometry": {"type": "Point", "coordinates": [9.6499837, 51.4149091]}}, {"type": "Feature", "properties": {"Name": "Forgotten Creatures", "description": "<b>Kategorie:</b> Kultur & Geschichte — Museum<br><b>Distanz:</b> 1854 m<br><b>Website:</b> https://forgottencreatures.de/<br><b>Wikipedia:</b> <br><b>Telefon:</b> ", "timestamp": null, "begin": null, "end": null, "altitudeMode": null, "tessellate": -1, "extrude": 0, "visibility": -1, "drawOrder": null, "icon": null, "category_group": "Kultur & Geschichte"}, "geometry": {"type": "Point", "coordinates": [9.649953, 51.4149215]}}, {"type": "Feature", "properties": {"Name": "Narwalhaus", "description": "<b>Kategorie:</b> Kultur & Geschichte — Attraktion<br><b>Distanz:</b> 1667 m<br><b>Website:</b> https://narwalhaus.de<br><b>Wikipedia:</b> <br><b>Telefon:</b> ", "timestamp": null, "begin": null, "end": null, "altitudeMode": null, "tessellate": -1, "extrude": 0, "visibility": -1, "drawOrder": null, "icon": null, "category_group": "Kultur & Geschichte"}, "geometry": {"type": "Point", "coordinates": [9.6496159, 51.4167516]}}, {"type": "Feature", "properties": {"Name": "Atlier Kusntgalerie", "description": "<b>Kategorie:</b> Kultur & Geschichte — Galerie<br><b>Distanz:</b> 1818 m<br><b>Website:</b> <br><b>Wikipedia:</b> <br><b>Telefon:</b> ", "timestamp": null, "begin": null, "end": null, "altitudeMode": null, "tessellate": -1, "extrude": 0, "visibility": -1, "drawOrder": null, "icon": null, "category_group": "Kultur & Geschichte"}, "geometry": {"type": "Point", "coordinates": [9.6528981, 51.4165261]}}, {"type": "Feature", "properties": {"Name": "Hedwigseiche", "description": "<b>Kategorie:</b> Natur & Landschaft — Natur-Feature (alle)<br><b>Distanz:</b> 2943 m<br><b>Website:</b> <br><b>Wikipedia:</b> <br><b>Telefon:</b> ", "timestamp": null, "begin": null, "end": null, "altitudeMode": null, "tessellate": -1, "extrude": 0, "visibility": -1, "drawOrder": null, "icon": null, "category_group": "Natur & Landschaft"}, "geometry": {"type": "Point", "coordinates": [9.6612431, 51.4510981]}}, {"type": "Feature", "properties": {"Name": "Alter Steinbruch", "description": "<b>Kategorie:</b> Natur & Landschaft — Aussichtspunkt<br><b>Distanz:</b> 2514 m<br><b>Website:</b> <br><b>Wikipedia:</b> <br><b>Telefon:</b> ", "timestamp": null, "begin": null, "end": null, "altitudeMode": null, "tessellate": -1, "extrude": 0, "visibility": -1, "drawOrder": null, "icon": null, "category_group": "Natur & Landschaft"}, "geometry": {"type": "Point", "coordinates": [9.6710658, 51.4368565]}}, {"type": "Feature", "properties": {"Name": "Katerquelle", "description": "<b>Kategorie:</b> Natur & Landschaft — Natur-Feature (alle)<br><b>Distanz:</b> 1657 m<br><b>Website:</b> <br><b>Wikipedia:</b> <br><b>Telefon:</b> ", "timestamp": null, "begin": null, "end": null, "altitudeMode": null, "tessellate": -1, "extrude": 0, "visibility": -1, "drawOrder": null, "icon": null, "category_group": "Natur & Landschaft"}, "geometry": {"type": "Point", "coordinates": [9.6397219, 51.4146613]}}, {"type": "Feature", "properties": {"Name": "Nasensteins Born", "description": "<b>Kategorie:</b> Natur & Landschaft — Natur-Feature (alle)<br><b>Distanz:</b> 2452 m<br><b>Website:</b> <br><b>Wikipedia:</b> <br><b>Telefon:</b> ", "timestamp": null, "begin": null, "end": null, "altitudeMode": null, "tessellate": -1, "extrude": 0, "visibility": -1, "drawOrder": null, "icon": null, "category_group": "Natur & Landschaft"}, "geometry": {"type": "Point", "coordinates": [9.6110455, 51.4444515]}}, {"type": "Feature", "properties": {"Name": "Questenberg", "description": "<b>Kategorie:</b> Natur & Landschaft — Natur-Feature (alle)<br><b>Distanz:</b> 1141 m<br><b>Website:</b> <br><b>Wikipedia:</b> <br><b>Telefon:</b> ", "timestamp": null, "begin": null, "end": null, "altitudeMode": null, "tessellate": -1, "extrude": 0, "visibility": -1, "drawOrder": null, "icon": null, "category_group": "Natur & Landschaft"}, "geometry": {"type": "Point", "coordinates": [9.6509913, 51.4242025]}}, {"type": "Feature", "properties": {"Name": "Jungfernbrunnen", "description": "<b>Kategorie:</b> Natur & Landschaft — Natur-Feature (alle)<br><b>Distanz:</b> 2091 m<br><b>Website:</b> <br><b>Wikipedia:</b> <br><b>Telefon:</b> ", "timestamp": null, "begin": null, "end": null, "altitudeMode": null, "tessellate": -1, "extrude": 0, "visibility": -1, "drawOrder": null, "icon": null, "category_group": "Natur & Landschaft"}, "geometry": {"type": "Point", "coordinates": [9.6655379, 51.4351719]}}, {"type": "Feature", "properties": {"Name": "Schwedenschanze", "description": "<b>Kategorie:</b> Natur & Landschaft — Natur-Feature (alle)<br><b>Distanz:</b> 2528 m<br><b>Website:</b> <br><b>Wikipedia:</b> <br><b>Telefon:</b> ", "timestamp": null, "begin": null, "end": null, "altitudeMode": null, "tessellate": -1, "extrude": 0, "visibility": -1, "drawOrder": null, "icon": null, "category_group": "Natur & Landschaft"}, "geometry": {"type": "Point", "coordinates": [9.6503594, 51.4505615]}}, {"type": "Feature", "properties": {"Name": "Steinkopf", "description": "<b>Kategorie:</b> Natur & Landschaft — Natur-Feature (alle)<br><b>Distanz:</b> 2499 m<br><b>Website:</b> <br><b>Wikipedia:</b> <br><b>Telefon:</b> ", "timestamp": null, "begin": null, "end": null, "altitudeMode": null, "tessellate": -1, "extrude": 0, "visibility": -1, "drawOrder": null, "icon": null, "category_group": "Natur & Landschaft"}, "geometry": {"type": "Point", "coordinates": [9.6171355, 51.4482302]}}, {"type": "Feature", "properties": {"Name": "Rattberg", "description": "<b>Kategorie:</b> Natur & Landschaft — Natur-Feature (alle)<br><b>Distanz:</b> 2315 m<br><b>Website:</b> <br><b>Wikipedia:</b> <br><b>Telefon:</b> ", "timestamp": null, "begin": null, "end": null, "altitudeMode": null, "tessellate": -1, "extrude": 0, "visibility": -1, "drawOrder": null, "icon": null, "category_group": "Natur & Landschaft"}, "geometry": {"type": "Point", "coordinates": [9.6204185, 51.4113597]}}, {"type": "Feature", "properties": {"Name": "Staufenküppel", "description": "<b>Kategorie:</b> Natur & Landschaft — Natur-Feature (alle)<br><b>Distanz:</b> 1467 m<br><b>Website:</b> <br><b>Wikipedia:</b> <br><b>Telefon:</b> ", "timestamp": null, "begin": null, "end": null, "altitudeMode": null, "tessellate": -1, "extrude": 0, "visibility": -1, "drawOrder": null, "icon": null, "category_group": "Natur & Landschaft"}, "geometry": {"type": "Point", "coordinates": [9.6277356, 51.4175693]}}]}