{"type": "FeatureCollection", "features": [{"type": "Feature", "properties": {"Name": "JH 340 — Jugendherberge Haltern", "description": "<b>JH Nr:</b> 340<br><b>Name:</b> Jugendherberge Haltern<br><b>Ort:</b> Haltern am See", "timestamp": null, "begin": null, "end": null, "altitudeMode": null, "tessellate": -1, "extrude": 0, "visibility": -1, "drawOrder": null, "icon": null, "category_group": "JH"}, "geometry": {"type": "Point", "coordinates": [7.2293596, 51.7690324]}}, {"type": "Feature", "properties": {"Name": "Katholische öffentliche Bücherei St. Joseph", "description": "<b>Kategorie:</b> Bildungsinfrastruktur — Bibliothek<br><b>Distanz:</b>  703 m<br><b>Website:</b> https://www.st-sixtus.de/einrichtungen/buechereien/<br><b>Telefon:</b> ", "timestamp": null, "begin": null, "end": null, "altitudeMode": null, "tessellate": -1, "extrude": 0, "visibility": -1, "drawOrder": null, "icon": null, "category_group": "Bildungsinfrastruktur"}, "geometry": {"type": "Point", "coordinates": [7.2232538, 51.7740856]}}, {"type": "Feature", "properties": {"Name": "Segelclub Prinzensteg", "description": "<b>Kategorie:</b> Freizeit & Sport — Yachthafen<br><b>Distanz:</b> 2250 m<br><b>Website:</b> https://www.segelclub-prinzensteg.de/<br><b>Telefon:</b> +49 2364 7158", "timestamp": null, "begin": null, "end": null, "altitudeMode": null, "tessellate": -1, "extrude": 0, "visibility": -1, "drawOrder": null, "icon": null, "category_group": "Freizeit & Sport"}, "geometry": {"type": "Point", "coordinates": [7.2098753, 51.7528181]}}, {"type": "Feature", "properties": {"Name": "Segelclub Mühlbachtal Haltern - SCMH", "description": "<b>Kategorie:</b> Freizeit & Sport — Yachthafen<br><b>Distanz:</b> 2455 m<br><b>Website:</b> https://www.scmh.de/<br><b>Telefon:</b> +49 1578 5247460", "timestamp": null, "begin": null, "end": null, "altitudeMode": null, "tessellate": -1, "extrude": 0, "visibility": -1, "drawOrder": null, "icon": null, "category_group": "Freizeit & Sport"}, "geometry": {"type": "Point", "coordinates": [7.2069763, 51.7518801]}}, {"type": "Feature", "properties": {"Name": "Sewgelclub Westfalen e.V. SCW", "description": "<b>Kategorie:</b> Freizeit & Sport — Yachthafen<br><b>Distanz:</b> 2403 m<br><b>Website:</b> <br><b>Telefon:</b> ", "timestamp": null, "begin": null, "end": null, "altitudeMode": null, "tessellate": -1, "extrude": 0, "visibility": -1, "drawOrder": null, "icon": null, "category_group": "Freizeit & Sport"}, "geometry": {"type": "Point", "coordinates": [7.2073258, 51.752307]}}, {"type": "Feature", "properties": {"Name": "Wasserspuren Haltern am See", "description": "<b>Kategorie:</b> Information — Besucherinformation<br><b>Distanz:</b> 1604 m<br><b>Website:</b> <br><b>Telefon:</b> ", "timestamp": null, "begin": null, "end": null, "altitudeMode": null, "tessellate": -1, "extrude": 0, "visibility": -1, "drawOrder": null, "icon": null, "category_group": "Information"}, "geometry": {"type": "Point", "coordinates": [7.2316626, 51.7546846]}}, {"type": "Feature", "properties": {"Name": "Liebespunkt Haltern am See", "description": "<b>Kategorie:</b> Kultur & Geschichte — Attraktion<br><b>Distanz:</b> 2052 m<br><b>Website:</b> <br><b>Telefon:</b> ", "timestamp": null, "begin": null, "end": null, "altitudeMode": null, "tessellate": -1, "extrude": 0, "visibility": -1, "drawOrder": null, "icon": null, "category_group": "Kultur & Geschichte"}, "geometry": {"type": "Point", "coordinates": [7.2134851, 51.7534377]}}, {"type": "Feature", "properties": {"Name": "Fischberg", "description": "<b>Kategorie:</b> Natur & Landschaft — Natur-Feature (alle)<br><b>Distanz:</b> 2689 m<br><b>Website:</b> <br><b>Telefon:</b> ", "timestamp": null, "begin": null, "end": null, "altitudeMode": null, "tessellate": -1, "extrude": 0, "visibility": -1, "drawOrder": null, "icon": null, "category_group": "Natur & Landschaft"}, "geometry": {"type": "Point", "coordinates": [7.264229, 51.7582561]}}]}