{
"type": "FeatureCollection",
"name": "merged",
"features": [
{ "type": "Feature", "properties": { "Name": "JH 333 — Jugendherberge Detmold", "description": "<b>JH Nr:</b> 333<br><b>Name:</b> Jugendherberge Detmold<br><b>Ort:</b> Detmold", "tessellate": -1, "extrude": 0, "visibility": -1 }, "geometry": { "type": "Point", "coordinates": [ 8.8631304, 51.9271906 ] } },
{ "type": "Feature", "properties": { "Name": "Bücherei Hiddesen", "description": "<b>Kategorie:<\/b> Bildungsinfrastruktur — Bibliothek<br><b>Distanz:<\/b> 1324 m<br><b>Website:<\/b> <br><b>Wikipedia:<\/b> <br><b>Telefon:<\/b> ", "tessellate": -1, "extrude": 0, "visibility": -1 }, "geometry": { "type": "Point", "coordinates": [ 8.8447736, 51.9235846 ] } },
{ "type": "Feature", "properties": { "Name": "Hochschule für Musik Detmold", "description": "<b>Kategorie:<\/b> Bildungsinfrastruktur — Hochschule<br><b>Distanz:<\/b>  964 m<br><b>Website:<\/b> https:\/\/www.hfm-detmold.de\/<br><b>Wikipedia:<\/b> de:Hochschule für Musik Detmold<br><b>Telefon:<\/b> ", "tessellate": -1, "extrude": 0, "visibility": -1 }, "geometry": { "type": "Point", "coordinates": [ 8.8761945, 51.930329 ] } },
{ "type": "Feature", "properties": { "Name": "Freimaurerloge \"Zur Rose am Teutoburger Walde\"", "description": "<b>Kategorie:<\/b> Bildungsinfrastruktur — Gemeindezentrum<br><b>Distanz:<\/b> 1623 m<br><b>Website:<\/b> http:\/\/www.freimaurerloge-detmold.de<br><b>Wikipedia:<\/b> <br><b>Telefon:<\/b> ", "tessellate": -1, "extrude": 0, "visibility": -1 }, "geometry": { "type": "Point", "coordinates": [ 8.8806017, 51.9370055 ] } },
{ "type": "Feature", "properties": { "Name": "360 Grad", "description": "<b>Kategorie:<\/b> Bildungsinfrastruktur — Gemeindezentrum<br><b>Distanz:<\/b> 1588 m<br><b>Website:<\/b> <br><b>Wikipedia:<\/b> <br><b>Telefon:<\/b> ", "tessellate": -1, "extrude": 0, "visibility": -1 }, "geometry": { "type": "Point", "coordinates": [ 8.8754538, 51.9392631 ] } },
{ "type": "Feature", "properties": { "Name": "Selbsthilfe-Kontaktstelle Lippe", "description": "<b>Kategorie:<\/b> Bildungsinfrastruktur — Gemeindezentrum<br><b>Distanz:<\/b> 1482 m<br><b>Website:<\/b> <br><b>Wikipedia:<\/b> <br><b>Telefon:<\/b> +49 5231 56126 0", "tessellate": -1, "extrude": 0, "visibility": -1 }, "geometry": { "type": "Point", "coordinates": [ 8.8766763, 51.9375517 ] } },
{ "type": "Feature", "properties": { "Name": "Wandelwerkstatt", "description": "<b>Kategorie:<\/b> Bildungsinfrastruktur — Gemeindezentrum<br><b>Distanz:<\/b> 1550 m<br><b>Website:<\/b> https:\/\/www.lippeimwandel.de\/<br><b>Wikipedia:<\/b> <br><b>Telefon:<\/b> ", "tessellate": -1, "extrude": 0, "visibility": -1 }, "geometry": { "type": "Point", "coordinates": [ 8.8819957, 51.9348239 ] } },
{ "type": "Feature", "properties": { "Name": "F.I.T. 4 Detmold", "description": "<b>Kategorie:<\/b> Bildungsinfrastruktur — Gemeindezentrum<br><b>Distanz:<\/b> 1464 m<br><b>Website:<\/b> https:\/\/fit.detmold.de\/start<br><b>Wikipedia:<\/b> <br><b>Telefon:<\/b> ", "tessellate": -1, "extrude": 0, "visibility": -1 }, "geometry": { "type": "Point", "coordinates": [ 8.8813065, 51.934053 ] } },
{ "type": "Feature", "properties": { "Name": "Stadthalle", "description": "<b>Kategorie:<\/b> Bildungsinfrastruktur — Gemeindezentrum<br><b>Distanz:<\/b> 1566 m<br><b>Website:<\/b> <br><b>Wikipedia:<\/b> <br><b>Telefon:<\/b> ", "tessellate": -1, "extrude": 0, "visibility": -1 }, "geometry": { "type": "Point", "coordinates": [ 8.8796633, 51.9368775 ] } },
{ "type": "Feature", "properties": { "Name": "Musikwissenschaftliches Seminar Detmold\/Paderborn", "description": "<b>Kategorie:<\/b> Bildungsinfrastruktur — Universität<br><b>Distanz:<\/b> 1288 m<br><b>Website:<\/b> https:\/\/www.muwi-detmold-paderborn.de\/<br><b>Wikipedia:<\/b> <br><b>Telefon:<\/b> ", "tessellate": -1, "extrude": 0, "visibility": -1 }, "geometry": { "type": "Point", "coordinates": [ 8.8810714, 51.930535 ] } },
{ "type": "Feature", "properties": { "Name": "Geschwister-Scholl Gesamtschule", "description": "<b>Kategorie:<\/b> Bildungsinfrastruktur — Schule<br><b>Distanz:<\/b> 1497 m<br><b>Website:<\/b> https:\/\/gsgs-dt.de\/<br><b>Wikipedia:<\/b> <br><b>Telefon:<\/b> +49 5231 64070", "tessellate": -1, "extrude": 0, "visibility": -1 }, "geometry": { "type": "Point", "coordinates": [ 8.8547211, 51.9396045 ] } },
{ "type": "Feature", "properties": { "Name": "Förderzentrum Detmold", "description": "<b>Kategorie:<\/b> Bildungsinfrastruktur — Schule<br><b>Distanz:<\/b> 1334 m<br><b>Website:<\/b> https:\/\/www.detmold.de\/stadtleben\/kinder-jugend-und-familie\/foerderzentrum<br><b>Wikipedia:<\/b> <br><b>Telefon:<\/b> ", "tessellate": -1, "extrude": 0, "visibility": -1 }, "geometry": { "type": "Point", "coordinates": [ 8.8437397, 51.9268274 ] } },
{ "type": "Feature", "properties": { "Name": "Sportanlage Hohenloh", "description": "<b>Kategorie:<\/b> Freizeit & Sport — Sportzentrum<br><b>Distanz:<\/b> 3066 m<br><b>Website:<\/b> <br><b>Wikipedia:<\/b> <br><b>Telefon:<\/b> ", "tessellate": -1, "extrude": 0, "visibility": -1 }, "geometry": { "type": "Point", "coordinates": [ 8.8925423, 51.9479148 ] } },
{ "type": "Feature", "properties": { "Name": "Pauline Lady Fitness", "description": "<b>Kategorie:<\/b> Freizeit & Sport — Sportzentrum<br><b>Distanz:<\/b> 1134 m<br><b>Website:<\/b> https:\/\/www.pauline-lady-fitness.de<br><b>Wikipedia:<\/b> <br><b>Telefon:<\/b> +49 5231 33316", "tessellate": -1, "extrude": 0, "visibility": -1 }, "geometry": { "type": "Point", "coordinates": [ 8.8744972, 51.9345786 ] } },
{ "type": "Feature", "properties": { "Name": "all inclusive Fitness", "description": "<b>Kategorie:<\/b> Freizeit & Sport — Sportzentrum<br><b>Distanz:<\/b> 1557 m<br><b>Website:<\/b> http:\/\/ai-premiumfitness.de\/studios\/506\/detmold.html<br><b>Wikipedia:<\/b> <br><b>Telefon:<\/b> +49 5231 9625050", "tessellate": -1, "extrude": 0, "visibility": -1 }, "geometry": { "type": "Point", "coordinates": [ 8.8813138, 51.9355363 ] } },
{ "type": "Feature", "properties": { "Name": "Tourist Information Detmold", "description": "<b>Kategorie:<\/b> Information — Besucherinformation<br><b>Distanz:<\/b> 1434 m<br><b>Website:<\/b> <br><b>Wikipedia:<\/b> <br><b>Telefon:<\/b> ", "tessellate": -1, "extrude": 0, "visibility": -1 }, "geometry": { "type": "Point", "coordinates": [ 8.8794676, 51.9352 ] } },
{ "type": "Feature", "properties": { "Name": "Der Natur auf der Spur", "description": "<b>Kategorie:<\/b> Information — Besucherinformation<br><b>Distanz:<\/b> 2674 m<br><b>Website:<\/b> <br><b>Wikipedia:<\/b> <br><b>Telefon:<\/b> ", "tessellate": -1, "extrude": 0, "visibility": -1 }, "geometry": { "type": "Point", "coordinates": [ 8.8414114, 51.9072459 ] } },
{ "type": "Feature", "properties": { "Name": "Warttürme um Detmold", "description": "<b>Kategorie:<\/b> Information — Besucherinformation<br><b>Distanz:<\/b> 1828 m<br><b>Website:<\/b> <br><b>Wikipedia:<\/b> <br><b>Telefon:<\/b> ", "tessellate": -1, "extrude": 0, "visibility": -1 }, "geometry": { "type": "Point", "coordinates": [ 8.8391618, 51.934296 ] } },
{ "type": "Feature", "properties": { "Name": "Bahnhof", "description": "<b>Kategorie:<\/b> Information — Besucherinformation<br><b>Distanz:<\/b> 1598 m<br><b>Website:<\/b> <br><b>Wikipedia:<\/b> <br><b>Telefon:<\/b> ", "tessellate": -1, "extrude": 0, "visibility": -1 }, "geometry": { "type": "Point", "coordinates": [ 8.8733312, 51.9400981 ] } },
{ "type": "Feature", "properties": { "Name": "Kulturstadt Detmold - Die Historische Altstadt entdecken", "description": "<b>Kategorie:<\/b> Information — Besucherinformation<br><b>Distanz:<\/b> 1597 m<br><b>Website:<\/b> https:\/\/www.land-des-hermann.de\/<br><b>Wikipedia:<\/b> <br><b>Telefon:<\/b> +49 5231 621160", "tessellate": -1, "extrude": 0, "visibility": -1 }, "geometry": { "type": "Point", "coordinates": [ 8.8736853, 51.9399807 ] } },
{ "type": "Feature", "properties": { "Name": "Mausoleum am Büchenberg", "description": "<b>Kategorie:<\/b> Information — Besucherinformation<br><b>Distanz:<\/b>  496 m<br><b>Website:<\/b> <br><b>Wikipedia:<\/b> <br><b>Telefon:<\/b> ", "tessellate": -1, "extrude": 0, "visibility": -1 }, "geometry": { "type": "Point", "coordinates": [ 8.8672674, 51.923542 ] } },
{ "type": "Feature", "properties": { "Name": "WALK", "description": "<b>Kategorie:<\/b> Information — Besucherinformation<br><b>Distanz:<\/b> 2285 m<br><b>Website:<\/b> https:\/\/walk-eu.de\/kompetenzzentrum-wandern\/<br><b>Wikipedia:<\/b> <br><b>Telefon:<\/b> ", "tessellate": -1, "extrude": 0, "visibility": -1 }, "geometry": { "type": "Point", "coordinates": [ 8.8425405, 51.9110709 ] } },
{ "type": "Feature", "properties": { "Name": "Detmolder Hörparcours", "description": "<b>Kategorie:<\/b> Information — Besucherinformation<br><b>Distanz:<\/b>  950 m<br><b>Website:<\/b> <br><b>Wikipedia:<\/b> <br><b>Telefon:<\/b> ", "tessellate": -1, "extrude": 0, "visibility": -1 }, "geometry": { "type": "Point", "coordinates": [ 8.8754665, 51.9310343 ] } },
{ "type": "Feature", "properties": { "Name": "P-Denkmalstraße Nord", "description": "<b>Kategorie:<\/b> Information — Besucherinformation<br><b>Distanz:<\/b> 2686 m<br><b>Website:<\/b> https:\/\/www.teutoburgerwald.de\/<br><b>Wikipedia:<\/b> <br><b>Telefon:<\/b> ", "tessellate": -1, "extrude": 0, "visibility": -1 }, "geometry": { "type": "Point", "coordinates": [ 8.8408933, 51.9073369 ] } },
{ "type": "Feature", "properties": { "Name": "Eisstein \/ Mufflonkamp", "description": "<b>Kategorie:<\/b> Information — Besucherinformation<br><b>Distanz:<\/b> 2206 m<br><b>Website:<\/b> https:\/\/www.teutoburgerwald.de\/<br><b>Wikipedia:<\/b> <br><b>Telefon:<\/b> ", "tessellate": -1, "extrude": 0, "visibility": -1 }, "geometry": { "type": "Point", "coordinates": [ 8.8338371, 51.9191111 ] } },
{ "type": "Feature", "properties": { "Name": "Jugendherberge", "description": "<b>Kategorie:<\/b> Information — Besucherinformation<br><b>Distanz:<\/b>   61 m<br><b>Website:<\/b> <br><b>Wikipedia:<\/b> <br><b>Telefon:<\/b> ", "tessellate": -1, "extrude": 0, "visibility": -1 }, "geometry": { "type": "Point", "coordinates": [ 8.863877, 51.9274886 ] } },
{ "type": "Feature", "properties": { "Name": "Sommertheater", "description": "<b>Kategorie:<\/b> Information — Besucherinformation<br><b>Distanz:<\/b>  683 m<br><b>Website:<\/b> https:\/\/www.teutoburgerwald.de\/<br><b>Wikipedia:<\/b> <br><b>Telefon:<\/b> ", "tessellate": -1, "extrude": 0, "visibility": -1 }, "geometry": { "type": "Point", "coordinates": [ 8.872603, 51.9290409 ] } },
{ "type": "Feature", "properties": { "Name": "Willy-Brandt-Platz", "description": "<b>Kategorie:<\/b> Information — Besucherinformation<br><b>Distanz:<\/b> 1179 m<br><b>Website:<\/b> https:\/\/www.teutoburgerwald.de\/<br><b>Wikipedia:<\/b> <br><b>Telefon:<\/b> ", "tessellate": -1, "extrude": 0, "visibility": -1 }, "geometry": { "type": "Point", "coordinates": [ 8.8772754, 51.9331808 ] } },
{ "type": "Feature", "properties": { "Name": "Fürstenroute Lippe", "description": "<b>Kategorie:<\/b> Information — Besucherinformation<br><b>Distanz:<\/b>  702 m<br><b>Website:<\/b> <br><b>Wikipedia:<\/b> <br><b>Telefon:<\/b> ", "tessellate": -1, "extrude": 0, "visibility": -1 }, "geometry": { "type": "Point", "coordinates": [ 8.8603724, 51.9211098 ] } },
{ "type": "Feature", "properties": { "Name": "Palaisgarten - Geschichte und Gestaltung", "description": "<b>Kategorie:<\/b> Information — Besucherinformation<br><b>Distanz:<\/b>  959 m<br><b>Website:<\/b> <br><b>Wikipedia:<\/b> <br><b>Telefon:<\/b> ", "tessellate": -1, "extrude": 0, "visibility": -1 }, "geometry": { "type": "Point", "coordinates": [ 8.8759876, 51.9305295 ] } },
{ "type": "Feature", "properties": { "Name": "Hünenring", "description": "<b>Kategorie:<\/b> Information — Besucherinformation<br><b>Distanz:<\/b> 1831 m<br><b>Website:<\/b> https:\/\/www.teutoburgerwald.de\/<br><b>Wikipedia:<\/b> <br><b>Telefon:<\/b> ", "tessellate": -1, "extrude": 0, "visibility": -1 }, "geometry": { "type": "Point", "coordinates": [ 8.8476583, 51.9137932 ] } },
{ "type": "Feature", "properties": { "Name": "Anna & Hermann – Hörstation 17 – \"Wie groß ist Hermann?\" (Detmold)", "description": "<b>Kategorie:<\/b> Information — Besucherinformation<br><b>Distanz:<\/b> 2231 m<br><b>Website:<\/b> https:\/\/hermannshoehen.teutoburgerwald.de\/erleben-entdecken\/anna-hermann<br><b>Wikipedia:<\/b> <br><b>Telefon:<\/b> ", "tessellate": -1, "extrude": 0, "visibility": -1 }, "geometry": { "type": "Point", "coordinates": [ 8.8424619, 51.9117337 ] } },
{ "type": "Feature", "properties": { "Name": "Kulturstadt Detmold - Kulturelle Vielfalt und Historischer Charme", "description": "<b>Kategorie:<\/b> Information — Besucherinformation<br><b>Distanz:<\/b>  968 m<br><b>Website:<\/b> <br><b>Wikipedia:<\/b> <br><b>Telefon:<\/b> ", "tessellate": -1, "extrude": 0, "visibility": -1 }, "geometry": { "type": "Point", "coordinates": [ 8.875624, 51.9311985 ] } },
{ "type": "Feature", "properties": { "Name": "Heidenbach", "description": "<b>Kategorie:<\/b> Information — Besucherinformation<br><b>Distanz:<\/b> 2321 m<br><b>Website:<\/b> https:\/\/www.teutoburgerwald.de\/<br><b>Wikipedia:<\/b> <br><b>Telefon:<\/b> ", "tessellate": -1, "extrude": 0, "visibility": -1 }, "geometry": { "type": "Point", "coordinates": [ 8.8316482, 51.9196596 ] } },
{ "type": "Feature", "properties": { "Name": "Hermannsdenkmal", "description": "<b>Kategorie:<\/b> Information — Besucherinformation<br><b>Distanz:<\/b> 2277 m<br><b>Website:<\/b> https:\/\/www.teutoburgerwald.de\/<br><b>Wikipedia:<\/b> <br><b>Telefon:<\/b> ", "tessellate": -1, "extrude": 0, "visibility": -1 }, "geometry": { "type": "Point", "coordinates": [ 8.8412164, 51.9118415 ] } },
{ "type": "Feature", "properties": { "Name": "Waldbühne", "description": "<b>Kategorie:<\/b> Information — Besucherinformation<br><b>Distanz:<\/b> 2438 m<br><b>Website:<\/b> https:\/\/www.teutoburgerwald.de\/<br><b>Wikipedia:<\/b> <br><b>Telefon:<\/b> ", "tessellate": -1, "extrude": 0, "visibility": -1 }, "geometry": { "type": "Point", "coordinates": [ 8.8398738, 51.9106485 ] } },
{ "type": "Feature", "properties": { "Name": "Bahnhof Detmold", "description": "<b>Kategorie:<\/b> Information — Besucherinformation<br><b>Distanz:<\/b> 1605 m<br><b>Website:<\/b> https:\/\/www.teutoburgerwald.de\/<br><b>Wikipedia:<\/b> <br><b>Telefon:<\/b> ", "tessellate": -1, "extrude": 0, "visibility": -1 }, "geometry": { "type": "Point", "coordinates": [ 8.8734274, 51.9401381 ] } },
{ "type": "Feature", "properties": { "Name": "Sternschanze", "description": "<b>Kategorie:<\/b> Information — Besucherinformation<br><b>Distanz:<\/b> 2216 m<br><b>Website:<\/b> https:\/\/www.teutoburgerwald.de\/<br><b>Wikipedia:<\/b> <br><b>Telefon:<\/b> ", "tessellate": -1, "extrude": 0, "visibility": -1 }, "geometry": { "type": "Point", "coordinates": [ 8.8313208, 51.9239963 ] } },
{ "type": "Feature", "properties": { "Name": "Kurpark Hiddesen", "description": "<b>Kategorie:<\/b> Information — Besucherinformation<br><b>Distanz:<\/b> 2075 m<br><b>Website:<\/b> https:\/\/www.teutoburgerwald.de\/<br><b>Wikipedia:<\/b> <br><b>Telefon:<\/b> ", "tessellate": -1, "extrude": 0, "visibility": -1 }, "geometry": { "type": "Point", "coordinates": [ 8.8353164, 51.9199543 ] } },
{ "type": "Feature", "properties": { "Name": "Bandelshöhe\/WALK", "description": "<b>Kategorie:<\/b> Information — Besucherinformation<br><b>Distanz:<\/b> 2284 m<br><b>Website:<\/b> https:\/\/www.teutoburgerwald.de\/<br><b>Wikipedia:<\/b> <br><b>Telefon:<\/b> ", "tessellate": -1, "extrude": 0, "visibility": -1 }, "geometry": { "type": "Point", "coordinates": [ 8.8428388, 51.9109291 ] } },
{ "type": "Feature", "properties": { "Name": "P-Denkmalstraße Süd", "description": "<b>Kategorie:<\/b> Information — Besucherinformation<br><b>Distanz:<\/b> 2713 m<br><b>Website:<\/b> https:\/\/www.teutoburgerwald.de\/<br><b>Wikipedia:<\/b> <br><b>Telefon:<\/b> ", "tessellate": -1, "extrude": 0, "visibility": -1 }, "geometry": { "type": "Point", "coordinates": [ 8.841755, 51.9066922 ] } },
{ "type": "Feature", "properties": { "Name": "Obere Mühle", "description": "<b>Kategorie:<\/b> Information — Besucherinformation<br><b>Distanz:<\/b>  487 m<br><b>Website:<\/b> https:\/\/www.teutoburgerwald.de\/<br><b>Wikipedia:<\/b> <br><b>Telefon:<\/b> ", "tessellate": -1, "extrude": 0, "visibility": -1 }, "geometry": { "type": "Point", "coordinates": [ 8.8702125, 51.9270456 ] } },
{ "type": "Feature", "properties": { "Name": "Der Natur auf der Spur - auf Entdeckertour vom Hermann zur Velmerstot", "description": "<b>Kategorie:<\/b> Information — Besucherinformation<br><b>Distanz:<\/b>  581 m<br><b>Website:<\/b> <br><b>Wikipedia:<\/b> <br><b>Telefon:<\/b> ", "tessellate": -1, "extrude": 0, "visibility": -1 }, "geometry": { "type": "Point", "coordinates": [ 8.8691453, 51.9235235 ] } },
{ "type": "Feature", "properties": { "Name": "Palaisstraße", "description": "<b>Kategorie:<\/b> Information — Besucherinformation<br><b>Distanz:<\/b>  965 m<br><b>Website:<\/b> https:\/\/www.teutoburgerwald.de\/<br><b>Wikipedia:<\/b> <br><b>Telefon:<\/b> ", "tessellate": -1, "extrude": 0, "visibility": -1 }, "geometry": { "type": "Point", "coordinates": [ 8.8755998, 51.9311673 ] } },
{ "type": "Feature", "properties": { "Name": "Palaisgarten", "description": "<b>Kategorie:<\/b> Information — Besucherinformation<br><b>Distanz:<\/b>  953 m<br><b>Website:<\/b> https:\/\/www.teutoburgerwald.de\/<br><b>Wikipedia:<\/b> <br><b>Telefon:<\/b> ", "tessellate": -1, "extrude": 0, "visibility": -1 }, "geometry": { "type": "Point", "coordinates": [ 8.8758445, 51.9306067 ] } },
{ "type": "Feature", "properties": { "Name": "Schlossteich", "description": "<b>Kategorie:<\/b> Information — Besucherinformation<br><b>Distanz:<\/b> 1299 m<br><b>Website:<\/b> https:\/\/www.teutoburgerwald.de\/<br><b>Wikipedia:<\/b> <br><b>Telefon:<\/b> ", "tessellate": -1, "extrude": 0, "visibility": -1 }, "geometry": { "type": "Point", "coordinates": [ 8.8757461, 51.9358842 ] } },
{ "type": "Feature", "properties": { "Name": "Rosental \/ Ameide", "description": "<b>Kategorie:<\/b> Information — Besucherinformation<br><b>Distanz:<\/b> 1545 m<br><b>Website:<\/b> https:\/\/www.teutoburgerwald.de\/<br><b>Wikipedia:<\/b> <br><b>Telefon:<\/b> ", "tessellate": -1, "extrude": 0, "visibility": -1 }, "geometry": { "type": "Point", "coordinates": [ 8.8783871, 51.9373872 ] } },
{ "type": "Feature", "properties": { "Name": "Archäologischer Wanderweg", "description": "<b>Kategorie:<\/b> Information — Besucherinformation<br><b>Distanz:<\/b> 2236 m<br><b>Website:<\/b> <br><b>Wikipedia:<\/b> <br><b>Telefon:<\/b> ", "tessellate": -1, "extrude": 0, "visibility": -1 }, "geometry": { "type": "Point", "coordinates": [ 8.8429923, 51.9114078 ] } },
{ "type": "Feature", "properties": { "Name": "Wilhelm Mellies", "description": "<b>Kategorie:<\/b> Information — Besucherinformation<br><b>Distanz:<\/b> 1338 m<br><b>Website:<\/b> <br><b>Wikipedia:<\/b> <br><b>Telefon:<\/b> ", "tessellate": -1, "extrude": 0, "visibility": -1 }, "geometry": { "type": "Point", "coordinates": [ 8.8745525, 51.9369311 ] } },
{ "type": "Feature", "properties": { "Name": "Heimspiel OWL", "description": "<b>Kategorie:<\/b> Information — Besucherinformation<br><b>Distanz:<\/b> 1374 m<br><b>Website:<\/b> https:\/\/www.heimspiel-owl.de<br><b>Wikipedia:<\/b> <br><b>Telefon:<\/b> ", "tessellate": -1, "extrude": 0, "visibility": -1 }, "geometry": { "type": "Point", "coordinates": [ 8.8783137, 51.9352216 ] } },
{ "type": "Feature", "properties": { "Name": "Revitalisierung der Gewerbebranche Ehemalige Omnia-Möbelwerke", "description": "<b>Kategorie:<\/b> Information — Besucherinformation<br><b>Distanz:<\/b> 1840 m<br><b>Website:<\/b> <br><b>Wikipedia:<\/b> <br><b>Telefon:<\/b> ", "tessellate": -1, "extrude": 0, "visibility": -1 }, "geometry": { "type": "Point", "coordinates": [ 8.8741013, 51.942277 ] } },
{ "type": "Feature", "properties": { "Name": "Paulinchen", "description": "<b>Kategorie:<\/b> Kinder & Jugend — Kindergarten<br><b>Distanz:<\/b> 1077 m<br><b>Website:<\/b> <br><b>Wikipedia:<\/b> <br><b>Telefon:<\/b> ", "tessellate": -1, "extrude": 0, "visibility": -1 }, "geometry": { "type": "Point", "coordinates": [ 8.8644414, 51.9368441 ] } },
{ "type": "Feature", "properties": { "Name": "Kindertagesstätte Flohkiste", "description": "<b>Kategorie:<\/b> Kinder & Jugend — Kindergarten<br><b>Distanz:<\/b> 1912 m<br><b>Website:<\/b> <br><b>Wikipedia:<\/b> <br><b>Telefon:<\/b> ", "tessellate": -1, "extrude": 0, "visibility": -1 }, "geometry": { "type": "Point", "coordinates": [ 8.8735647, 51.9431274 ] } },
{ "type": "Feature", "properties": { "Name": "Betriebs-KiTa am Klinikum", "description": "<b>Kategorie:<\/b> Kinder & Jugend — Kindergarten<br><b>Distanz:<\/b> 1946 m<br><b>Website:<\/b> <br><b>Wikipedia:<\/b> <br><b>Telefon:<\/b> ", "tessellate": -1, "extrude": 0, "visibility": -1 }, "geometry": { "type": "Point", "coordinates": [ 8.8818173, 51.9403288 ] } },
{ "type": "Feature", "properties": { "Name": "Hermannsdenkmal", "description": "<b>Kategorie:<\/b> Kultur & Geschichte — Attraktion<br><b>Distanz:<\/b> 2373 m<br><b>Website:<\/b> <br><b>Wikipedia:<\/b> de:Hermannsdenkmal<br><b>Telefon:<\/b> ", "tessellate": -1, "extrude": 0, "visibility": -1 }, "geometry": { "type": "Point", "coordinates": [ 8.839479, 51.911651 ] } },
{ "type": "Feature", "properties": { "Name": "Der Wartturm auf dem Vietberg", "description": "<b>Kategorie:<\/b> Kultur & Geschichte — Attraktion<br><b>Distanz:<\/b> 1821 m<br><b>Website:<\/b> <br><b>Wikipedia:<\/b> <br><b>Telefon:<\/b> ", "tessellate": -1, "extrude": 0, "visibility": -1 }, "geometry": { "type": "Point", "coordinates": [ 8.8392322, 51.9342454 ] } },
{ "type": "Feature", "properties": { "Name": "Gletscherschliff", "description": "<b>Kategorie:<\/b> Kultur & Geschichte — Attraktion<br><b>Distanz:<\/b>  653 m<br><b>Website:<\/b> <br><b>Wikipedia:<\/b> <br><b>Telefon:<\/b> ", "tessellate": -1, "extrude": 0, "visibility": -1 }, "geometry": { "type": "Point", "coordinates": [ 8.8553135, 51.9238568 ] } },
{ "type": "Feature", "properties": { "Name": "Grotenburg", "description": "<b>Kategorie:<\/b> Kultur & Geschichte — Attraktion<br><b>Distanz:<\/b> 2370 m<br><b>Website:<\/b> <br><b>Wikipedia:<\/b> de:Grotenburg<br><b>Telefon:<\/b> ", "tessellate": -1, "extrude": 0, "visibility": -1 }, "geometry": { "type": "Point", "coordinates": [ 8.8390783, 51.9119297 ] } },
{ "type": "Feature", "properties": { "Name": "LWL-Freilichtmuseum Detmold - Westfälisches Landesmuseum für Volkskunde", "description": "<b>Kategorie:<\/b> Kultur & Geschichte — Museum<br><b>Distanz:<\/b>  681 m<br><b>Website:<\/b> https:\/\/www.lwl.org\/LWL\/Kultur\/LWL-Freilichtmuseum-Detmold\/<br><b>Wikipedia:<\/b> de:LWL-Freilichtmuseum Detmold<br><b>Telefon:<\/b> +49 5231 706-0", "tessellate": -1, "extrude": 0, "visibility": -1 }, "geometry": { "type": "Point", "coordinates": [ 8.8702141, 51.9229072 ] } },
{ "type": "Feature", "properties": { "Name": "Steinerner Tisch", "description": "<b>Kategorie:<\/b> Kultur & Geschichte — Attraktion<br><b>Distanz:<\/b> 1033 m<br><b>Website:<\/b> <br><b>Wikipedia:<\/b> <br><b>Telefon:<\/b> ", "tessellate": -1, "extrude": 0, "visibility": -1 }, "geometry": { "type": "Point", "coordinates": [ 8.8776438, 51.9295848 ] } },
{ "type": "Feature", "properties": { "Name": "kollekti.f", "description": "<b>Kategorie:<\/b> Kultur & Geschichte — Galerie<br><b>Distanz:<\/b> 1262 m<br><b>Website:<\/b> https:\/\/www.instagram.com\/kollekti.f\/<br><b>Wikipedia:<\/b> <br><b>Telefon:<\/b> ", "tessellate": -1, "extrude": 0, "visibility": -1 }, "geometry": { "type": "Point", "coordinates": [ 8.8767523, 51.9347926 ] } },
{ "type": "Feature", "properties": { "Name": "Mauereiche", "description": "<b>Kategorie:<\/b> Kultur & Geschichte — Attraktion<br><b>Distanz:<\/b> 3077 m<br><b>Website:<\/b> <br><b>Wikipedia:<\/b> <br><b>Telefon:<\/b> ", "tessellate": -1, "extrude": 0, "visibility": -1 }, "geometry": { "type": "Point", "coordinates": [ 8.8913251, 51.9057064 ] } },
{ "type": "Feature", "properties": { "Name": "Grabbe-Haus", "description": "<b>Kategorie:<\/b> Kultur & Geschichte — Theater<br><b>Distanz:<\/b> 1321 m<br><b>Website:<\/b> https:\/\/www.landestheater-detmold.de\/<br><b>Wikipedia:<\/b> <br><b>Telefon:<\/b> ", "tessellate": -1, "extrude": 0, "visibility": -1 }, "geometry": { "type": "Point", "coordinates": [ 8.8763801, 51.9357895 ] } },
{ "type": "Feature", "properties": { "Name": "Junges Theater", "description": "<b>Kategorie:<\/b> Kultur & Geschichte — Theater<br><b>Distanz:<\/b> 1583 m<br><b>Website:<\/b> https:\/\/www.landestheater-detmold.de\/theaterpaedagogik\/kaschlupp.html<br><b>Wikipedia:<\/b> <br><b>Telefon:<\/b> +49 5231 3028997", "tessellate": -1, "extrude": 0, "visibility": -1 }, "geometry": { "type": "Point", "coordinates": [ 8.87515, 51.9393275 ] } },
{ "type": "Feature", "properties": { "Name": "Fürstliches Residenzschloss Detmold", "description": "<b>Kategorie:<\/b> Kultur & Geschichte — Museum<br><b>Distanz:<\/b> 1451 m<br><b>Website:<\/b> https:\/\/www.schloss-detmold.de\/<br><b>Wikipedia:<\/b> de:Fürstliches Residenzschloss Detmold<br><b>Telefon:<\/b> ", "tessellate": -1, "extrude": 0, "visibility": -1 }, "geometry": { "type": "Point", "coordinates": [ 8.8780294, 51.9364358 ] } },
{ "type": "Feature", "properties": { "Name": "Die 12 Apostel", "description": "<b>Kategorie:<\/b> Kultur & Geschichte — Attraktion<br><b>Distanz:<\/b>  908 m<br><b>Website:<\/b> <br><b>Wikipedia:<\/b> <br><b>Telefon:<\/b> ", "tessellate": -1, "extrude": 0, "visibility": -1 }, "geometry": { "type": "Point", "coordinates": [ 8.876072, 51.9288194 ] } },
{ "type": "Feature", "properties": { "Name": "Mittelohrpauke", "description": "<b>Kategorie:<\/b> Kultur & Geschichte — Attraktion<br><b>Distanz:<\/b> 1377 m<br><b>Website:<\/b> <br><b>Wikipedia:<\/b> <br><b>Telefon:<\/b> ", "tessellate": -1, "extrude": 0, "visibility": -1 }, "geometry": { "type": "Point", "coordinates": [ 8.8758692, 51.9367432 ] } },
{ "type": "Feature", "properties": { "Name": "Kaiserhof+", "description": "<b>Kategorie:<\/b> Kultur & Geschichte — Kino<br><b>Distanz:<\/b> 1556 m<br><b>Website:<\/b> https:\/\/www.detmold-kino.de\/<br><b>Wikipedia:<\/b> <br><b>Telefon:<\/b> ", "tessellate": -1, "extrude": 0, "visibility": -1 }, "geometry": { "type": "Point", "coordinates": [ 8.8724662, 51.9399324 ] } },
{ "type": "Feature", "properties": { "Name": "Grotenburg", "description": "<b>Kategorie:<\/b> Natur & Landschaft — Natur-Feature (alle)<br><b>Distanz:<\/b> 2389 m<br><b>Website:<\/b> <br><b>Wikipedia:<\/b> de:Grotenburg<br><b>Telefon:<\/b> ", "tessellate": -1, "extrude": 0, "visibility": -1 }, "geometry": { "type": "Point", "coordinates": [ 8.8394204, 51.911488 ] } },
{ "type": "Feature", "properties": { "Name": "Vietberg", "description": "<b>Kategorie:<\/b> Natur & Landschaft — Natur-Feature (alle)<br><b>Distanz:<\/b> 1812 m<br><b>Website:<\/b> <br><b>Wikipedia:<\/b> <br><b>Telefon:<\/b> ", "tessellate": -1, "extrude": 0, "visibility": -1 }, "geometry": { "type": "Point", "coordinates": [ 8.8393068, 51.9341577 ] } },
{ "type": "Feature", "properties": { "Name": "Hellberg", "description": "<b>Kategorie:<\/b> Natur & Landschaft — Natur-Feature (alle)<br><b>Distanz:<\/b> 2805 m<br><b>Website:<\/b> <br><b>Wikipedia:<\/b> <br><b>Telefon:<\/b> ", "tessellate": -1, "extrude": 0, "visibility": -1 }, "geometry": { "type": "Point", "coordinates": [ 8.8434724, 51.9050943 ] } },
{ "type": "Feature", "properties": { "Name": "Hiddeser Berg", "description": "<b>Kategorie:<\/b> Natur & Landschaft — Natur-Feature (alle)<br><b>Distanz:<\/b>  589 m<br><b>Website:<\/b> <br><b>Wikipedia:<\/b> <br><b>Telefon:<\/b> ", "tessellate": -1, "extrude": 0, "visibility": -1 }, "geometry": { "type": "Point", "coordinates": [ 8.8554752, 51.9295697 ] } },
{ "type": "Feature", "properties": { "Name": "Jahn Eiche", "description": "<b>Kategorie:<\/b> Natur & Landschaft — Natur-Feature (alle)<br><b>Distanz:<\/b> 2196 m<br><b>Website:<\/b> <br><b>Wikipedia:<\/b> <br><b>Telefon:<\/b> ", "tessellate": -1, "extrude": 0, "visibility": -1 }, "geometry": { "type": "Point", "coordinates": [ 8.8425117, 51.9121145 ] } },
{ "type": "Feature", "properties": { "Name": "Eisstein", "description": "<b>Kategorie:<\/b> Natur & Landschaft — Natur-Feature (alle)<br><b>Distanz:<\/b> 2187 m<br><b>Website:<\/b> <br><b>Wikipedia:<\/b> <br><b>Telefon:<\/b> ", "tessellate": -1, "extrude": 0, "visibility": -1 }, "geometry": { "type": "Point", "coordinates": [ 8.834217, 51.9189968 ] } },
{ "type": "Feature", "properties": { "Name": "Königsberg", "description": "<b>Kategorie:<\/b> Natur & Landschaft — Natur-Feature (alle)<br><b>Distanz:<\/b> 1674 m<br><b>Website:<\/b> <br><b>Wikipedia:<\/b> <br><b>Telefon:<\/b> ", "tessellate": -1, "extrude": 0, "visibility": -1 }, "geometry": { "type": "Point", "coordinates": [ 8.877509, 51.9150405 ] } },
{ "type": "Feature", "properties": { "Name": "Altarstein", "description": "<b>Kategorie:<\/b> Natur & Landschaft — Natur-Feature (alle)<br><b>Distanz:<\/b> 2026 m<br><b>Website:<\/b> <br><b>Wikipedia:<\/b> <br><b>Telefon:<\/b> ", "tessellate": -1, "extrude": 0, "visibility": -1 }, "geometry": { "type": "Point", "coordinates": [ 8.8410315, 51.915139 ] } },
{ "type": "Feature", "properties": { "Name": "Findling", "description": "<b>Kategorie:<\/b> Natur & Landschaft — Natur-Feature (alle)<br><b>Distanz:<\/b> 2380 m<br><b>Website:<\/b> <br><b>Wikipedia:<\/b> <br><b>Telefon:<\/b> ", "tessellate": -1, "extrude": 0, "visibility": -1 }, "geometry": { "type": "Point", "coordinates": [ 8.896722, 51.9220349 ] } },
{ "type": "Feature", "properties": { "Name": "Papenberg", "description": "<b>Kategorie:<\/b> Natur & Landschaft — Natur-Feature (alle)<br><b>Distanz:<\/b>  890 m<br><b>Website:<\/b> <br><b>Wikipedia:<\/b> <br><b>Telefon:<\/b> ", "tessellate": -1, "extrude": 0, "visibility": -1 }, "geometry": { "type": "Point", "coordinates": [ 8.8754478, 51.9247233 ] } },
{ "type": "Feature", "properties": { "Name": "Bruchberg", "description": "<b>Kategorie:<\/b> Natur & Landschaft — Natur-Feature (alle)<br><b>Distanz:<\/b> 1293 m<br><b>Website:<\/b> <br><b>Wikipedia:<\/b> <br><b>Telefon:<\/b> ", "tessellate": -1, "extrude": 0, "visibility": -1 }, "geometry": { "type": "Point", "coordinates": [ 8.8755871, 51.9359011 ] } },
{ "type": "Feature", "properties": { "Name": "Büchenberg", "description": "<b>Kategorie:<\/b> Natur & Landschaft — Natur-Feature (alle)<br><b>Distanz:<\/b>  855 m<br><b>Website:<\/b> <br><b>Wikipedia:<\/b> <br><b>Telefon:<\/b> ", "tessellate": -1, "extrude": 0, "visibility": -1 }, "geometry": { "type": "Point", "coordinates": [ 8.8670843, 51.9198995 ] } },
{ "type": "Feature", "properties": { "Name": "Bismarckhain", "description": "<b>Kategorie:<\/b> Natur & Landschaft — Park<br><b>Distanz:<\/b>  660 m<br><b>Website:<\/b> <br><b>Wikipedia:<\/b> <br><b>Telefon:<\/b> ", "tessellate": -1, "extrude": 0, "visibility": -1 }, "geometry": { "type": "Point", "coordinates": [ 8.8719948, 51.9294607 ] } }
]
}
