{
"type": "FeatureCollection",
"name": "merged",
"features": [
{ "type": "Feature", "properties": { "Name": "JH 327 — Jugendherberge Bad Driburg", "description": "<b>JH Nr:</b> 327<br><b>Name:</b> Jugendherberge Bad Driburg<br><b>Ort:</b> Bad Driburg", "tessellate": -1, "extrude": 0, "visibility": -1 }, "geometry": { "type": "Point", "coordinates": [ 9.0302251, 51.7332908 ] } },
{ "type": "Feature", "properties": { "Name": "Stadtbücherei Bad Driburg", "description": "<b>Kategorie:<\/b> Bildungsinfrastruktur — Bibliothek<br><b>Distanz:<\/b>  515 m<br><b>Website:<\/b> <br><b>Wikipedia:<\/b> <br><b>Telefon:<\/b> ", "tessellate": -1, "extrude": 0, "visibility": -1 }, "geometry": { "type": "Point", "coordinates": [ 9.0229896, 51.7344181 ] } },
{ "type": "Feature", "properties": { "Name": "TREFF", "description": "<b>Kategorie:<\/b> Bildungsinfrastruktur — Gemeindezentrum<br><b>Distanz:<\/b>  435 m<br><b>Website:<\/b> <br><b>Wikipedia:<\/b> <br><b>Telefon:<\/b> ", "tessellate": -1, "extrude": 0, "visibility": -1 }, "geometry": { "type": "Point", "coordinates": [ 9.0244223, 51.7317579 ] } },
{ "type": "Feature", "properties": { "Name": "Evangelisches Gemeindezentrum Bad Driburg", "description": "<b>Kategorie:<\/b> Bildungsinfrastruktur — Gemeindezentrum<br><b>Distanz:<\/b>  102 m<br><b>Website:<\/b> <br><b>Wikipedia:<\/b> <br><b>Telefon:<\/b> ", "tessellate": -1, "extrude": 0, "visibility": -1 }, "geometry": { "type": "Point", "coordinates": [ 9.031671, 51.7334946 ] } },
{ "type": "Feature", "properties": { "Name": "Jugendtreff", "description": "<b>Kategorie:<\/b> Bildungsinfrastruktur — Gemeindezentrum<br><b>Distanz:<\/b>  790 m<br><b>Website:<\/b> <br><b>Wikipedia:<\/b> <br><b>Telefon:<\/b> ", "tessellate": -1, "extrude": 0, "visibility": -1 }, "geometry": { "type": "Point", "coordinates": [ 9.0213083, 51.7377478 ] } },
{ "type": "Feature", "properties": { "Name": "Studienkreis", "description": "<b>Kategorie:<\/b> Bildungsinfrastruktur — Schule<br><b>Distanz:<\/b>  581 m<br><b>Website:<\/b> https:\/\/www.studienkreis.de\/nachhilfe-bad-driburg\/<br><b>Wikipedia:<\/b> <br><b>Telefon:<\/b> +49234976001", "tessellate": -1, "extrude": 0, "visibility": -1 }, "geometry": { "type": "Point", "coordinates": [ 9.0220299, 51.7344807 ] } },
{ "type": "Feature", "properties": { "Name": "Stadtbücherei", "description": "<b>Kategorie:<\/b> Bildungsinfrastruktur — Bibliothek<br><b>Distanz:<\/b>  945 m<br><b>Website:<\/b> https:\/\/www.bad-driburg.de\/de\/bildung\/stadtbuecherreich.php<br><b>Wikipedia:<\/b> <br><b>Telefon:<\/b> ", "tessellate": -1, "extrude": 0, "visibility": -1 }, "geometry": { "type": "Point", "coordinates": [ 9.0171884, 51.7358642 ] } },
{ "type": "Feature", "properties": { "Name": "Eggegebirgsverein Abt. Bad Driburg", "description": "<b>Kategorie:<\/b> Information — Besucherinformation<br><b>Distanz:<\/b>  382 m<br><b>Website:<\/b> <br><b>Wikipedia:<\/b> <br><b>Telefon:<\/b> ", "tessellate": -1, "extrude": 0, "visibility": -1 }, "geometry": { "type": "Point", "coordinates": [ 9.0355372, 51.734248 ] } },
{ "type": "Feature", "properties": { "Name": "Geologischer Rundwanderweg G3 \"Iburg\" Punkt 11: Erdfall", "description": "<b>Kategorie:<\/b> Information — Besucherinformation<br><b>Distanz:<\/b> 3476 m<br><b>Website:<\/b> <br><b>Wikipedia:<\/b> <br><b>Telefon:<\/b> ", "tessellate": -1, "extrude": 0, "visibility": -1 }, "geometry": { "type": "Point", "coordinates": [ 8.9945117, 51.7112672 ] } },
{ "type": "Feature", "properties": { "Name": "Dreigrenzenstein", "description": "<b>Kategorie:<\/b> Information — Besucherinformation<br><b>Distanz:<\/b> 4015 m<br><b>Website:<\/b> <br><b>Wikipedia:<\/b> <br><b>Telefon:<\/b> ", "tessellate": -1, "extrude": 0, "visibility": -1 }, "geometry": { "type": "Point", "coordinates": [ 8.9987809, 51.7029279 ] } },
{ "type": "Feature", "properties": { "Name": "Pilger-Stop", "description": "<b>Kategorie:<\/b> Information — Besucherinformation<br><b>Distanz:<\/b> 1364 m<br><b>Website:<\/b> <br><b>Wikipedia:<\/b> <br><b>Telefon:<\/b> ", "tessellate": -1, "extrude": 0, "visibility": -1 }, "geometry": { "type": "Point", "coordinates": [ 9.0116463, 51.7374422 ] } },
{ "type": "Feature", "properties": { "Name": "Kaleidoskopweg", "description": "<b>Kategorie:<\/b> Information — Besucherinformation<br><b>Distanz:<\/b>  717 m<br><b>Website:<\/b> <br><b>Wikipedia:<\/b> <br><b>Telefon:<\/b> ", "tessellate": -1, "extrude": 0, "visibility": -1 }, "geometry": { "type": "Point", "coordinates": [ 9.0403305, 51.7347878 ] } },
{ "type": "Feature", "properties": { "Name": "Stress abbauen", "description": "<b>Kategorie:<\/b> Information — Besucherinformation<br><b>Distanz:<\/b> 1447 m<br><b>Website:<\/b> <br><b>Wikipedia:<\/b> <br><b>Telefon:<\/b> ", "tessellate": -1, "extrude": 0, "visibility": -1 }, "geometry": { "type": "Point", "coordinates": [ 9.0384758, 51.745249 ] } },
{ "type": "Feature", "properties": { "Name": "Reelser Kreuz", "description": "<b>Kategorie:<\/b> Information — Besucherinformation<br><b>Distanz:<\/b> 2026 m<br><b>Website:<\/b> <br><b>Wikipedia:<\/b> <br><b>Telefon:<\/b> ", "tessellate": -1, "extrude": 0, "visibility": -1 }, "geometry": { "type": "Point", "coordinates": [ 9.0280182, 51.7514543 ] } },
{ "type": "Feature", "properties": { "Name": "Anette-von-Droste-Hülshoff-Weg", "description": "<b>Kategorie:<\/b> Information — Besucherinformation<br><b>Distanz:<\/b>  179 m<br><b>Website:<\/b> <br><b>Wikipedia:<\/b> <br><b>Telefon:<\/b> ", "tessellate": -1, "extrude": 0, "visibility": -1 }, "geometry": { "type": "Point", "coordinates": [ 9.0276463, 51.7334058 ] } },
{ "type": "Feature", "properties": { "Name": "Schützenplatz", "description": "<b>Kategorie:<\/b> Information — Besucherinformation<br><b>Distanz:<\/b> 1341 m<br><b>Website:<\/b> <br><b>Wikipedia:<\/b> <br><b>Telefon:<\/b> ", "tessellate": -1, "extrude": 0, "visibility": -1 }, "geometry": { "type": "Point", "coordinates": [ 9.0108215, 51.7337181 ] } },
{ "type": "Feature", "properties": { "Name": "3 Hochmittelalterliche Fürstbischöfliche Burg", "description": "<b>Kategorie:<\/b> Information — Besucherinformation<br><b>Distanz:<\/b> 1888 m<br><b>Website:<\/b> <br><b>Wikipedia:<\/b> <br><b>Telefon:<\/b> ", "tessellate": -1, "extrude": 0, "visibility": -1 }, "geometry": { "type": "Point", "coordinates": [ 9.0032785, 51.7304314 ] } },
{ "type": "Feature", "properties": { "Name": "Mühlenpforte", "description": "<b>Kategorie:<\/b> Information — Besucherinformation<br><b>Distanz:<\/b>  796 m<br><b>Website:<\/b> <br><b>Wikipedia:<\/b> <br><b>Telefon:<\/b> ", "tessellate": -1, "extrude": 0, "visibility": -1 }, "geometry": { "type": "Point", "coordinates": [ 9.0189634, 51.7348356 ] } },
{ "type": "Feature", "properties": { "Name": "Anna & Hermann – Hörstation 21 – \"Entspannung in Bad Driburg\"", "description": "<b>Kategorie:<\/b> Information — Besucherinformation<br><b>Distanz:<\/b> 2465 m<br><b>Website:<\/b> https:\/\/hermannshoehen.teutoburgerwald.de\/erleben-entdecken\/anna-hermann<br><b>Wikipedia:<\/b> <br><b>Telefon:<\/b> ", "tessellate": -1, "extrude": 0, "visibility": -1 }, "geometry": { "type": "Point", "coordinates": [ 8.9955814, 51.7279729 ] } },
{ "type": "Feature", "properties": { "Name": "Der Bäderweg", "description": "<b>Kategorie:<\/b> Information — Besucherinformation<br><b>Distanz:<\/b>  181 m<br><b>Website:<\/b> <br><b>Wikipedia:<\/b> <br><b>Telefon:<\/b> ", "tessellate": -1, "extrude": 0, "visibility": -1 }, "geometry": { "type": "Point", "coordinates": [ 9.0276081, 51.7333688 ] } },
{ "type": "Feature", "properties": { "Name": "Heute schon Durst gehabt?", "description": "<b>Kategorie:<\/b> Information — Besucherinformation<br><b>Distanz:<\/b>  305 m<br><b>Website:<\/b> <br><b>Wikipedia:<\/b> <br><b>Telefon:<\/b> ", "tessellate": -1, "extrude": 0, "visibility": -1 }, "geometry": { "type": "Point", "coordinates": [ 9.0274733, 51.7311444 ] } },
{ "type": "Feature", "properties": { "Name": "Mein Hamburger hat einen Fußabdruck?", "description": "<b>Kategorie:<\/b> Information — Besucherinformation<br><b>Distanz:<\/b>  344 m<br><b>Website:<\/b> <br><b>Wikipedia:<\/b> <br><b>Telefon:<\/b> ", "tessellate": -1, "extrude": 0, "visibility": -1 }, "geometry": { "type": "Point", "coordinates": [ 9.0276182, 51.7306527 ] } },
{ "type": "Feature", "properties": { "Name": "Tourist Information Bad Driburg", "description": "<b>Kategorie:<\/b> Information — Besucherinformation<br><b>Distanz:<\/b>  799 m<br><b>Website:<\/b> https:\/\/www.bad-driburg.com\/<br><b>Wikipedia:<\/b> <br><b>Telefon:<\/b> ", "tessellate": -1, "extrude": 0, "visibility": -1 }, "geometry": { "type": "Point", "coordinates": [ 9.0192037, 51.7354657 ] } },
{ "type": "Feature", "properties": { "Name": "KLJB Alhausen", "description": "<b>Kategorie:<\/b> Kinder & Jugend — Kinderbetreuung<br><b>Distanz:<\/b> 2457 m<br><b>Website:<\/b> http:\/\/www.kljb-alhausen.de<br><b>Wikipedia:<\/b> <br><b>Telefon:<\/b> ", "tessellate": -1, "extrude": 0, "visibility": -1 }, "geometry": { "type": "Point", "coordinates": [ 9.055535, 51.7488177 ] } },
{ "type": "Feature", "properties": { "Name": "Kindervilla Mäusenest", "description": "<b>Kategorie:<\/b> Kinder & Jugend — Kindergarten<br><b>Distanz:<\/b> 1076 m<br><b>Website:<\/b> <br><b>Wikipedia:<\/b> <br><b>Telefon:<\/b> ", "tessellate": -1, "extrude": 0, "visibility": -1 }, "geometry": { "type": "Point", "coordinates": [ 9.014643, 51.7335636 ] } },
{ "type": "Feature", "properties": { "Name": "Heinz-Koch-Haus Glasmuseum", "description": "<b>Kategorie:<\/b> Kultur & Geschichte — Museum<br><b>Distanz:<\/b>  847 m<br><b>Website:<\/b> <br><b>Wikipedia:<\/b> <br><b>Telefon:<\/b> ", "tessellate": -1, "extrude": 0, "visibility": -1 }, "geometry": { "type": "Point", "coordinates": [ 9.0191213, 51.7365173 ] } },
{ "type": "Feature", "properties": { "Name": "Friedrich-Wilhelm-Weber Museum", "description": "<b>Kategorie:<\/b> Kultur & Geschichte — Museum<br><b>Distanz:<\/b> 2433 m<br><b>Website:<\/b> <br><b>Wikipedia:<\/b> de:Friedrich-Wilhelm-Weber-Museum<br><b>Telefon:<\/b> ", "tessellate": -1, "extrude": 0, "visibility": -1 }, "geometry": { "type": "Point", "coordinates": [ 9.0536873, 51.749617 ] } },
{ "type": "Feature", "properties": { "Name": "Drehscheibenkaleidoskop", "description": "<b>Kategorie:<\/b> Kultur & Geschichte — Attraktion<br><b>Distanz:<\/b>  718 m<br><b>Website:<\/b> <br><b>Wikipedia:<\/b> <br><b>Telefon:<\/b> ", "tessellate": -1, "extrude": 0, "visibility": -1 }, "geometry": { "type": "Point", "coordinates": [ 9.0403453, 51.7347579 ] } },
{ "type": "Feature", "properties": { "Name": "Combiskop", "description": "<b>Kategorie:<\/b> Kultur & Geschichte — Attraktion<br><b>Distanz:<\/b>  555 m<br><b>Website:<\/b> <br><b>Wikipedia:<\/b> <br><b>Telefon:<\/b> ", "tessellate": -1, "extrude": 0, "visibility": -1 }, "geometry": { "type": "Point", "coordinates": [ 9.0382169, 51.7327596 ] } },
{ "type": "Feature", "properties": { "Name": "Kaleidoskop", "description": "<b>Kategorie:<\/b> Kultur & Geschichte — Attraktion<br><b>Distanz:<\/b>  653 m<br><b>Website:<\/b> <br><b>Wikipedia:<\/b> <br><b>Telefon:<\/b> ", "tessellate": -1, "extrude": 0, "visibility": -1 }, "geometry": { "type": "Point", "coordinates": [ 9.0395872, 51.7324554 ] } },
{ "type": "Feature", "properties": { "Name": "Spiegelkaleidoskop", "description": "<b>Kategorie:<\/b> Kultur & Geschichte — Attraktion<br><b>Distanz:<\/b> 1117 m<br><b>Website:<\/b> <br><b>Wikipedia:<\/b> <br><b>Telefon:<\/b> ", "tessellate": -1, "extrude": 0, "visibility": -1 }, "geometry": { "type": "Point", "coordinates": [ 9.0428439, 51.7395759 ] } },
{ "type": "Feature", "properties": { "Name": "MoorErlebnisWelt", "description": "<b>Kategorie:<\/b> Kultur & Geschichte — Museum<br><b>Distanz:<\/b>  785 m<br><b>Website:<\/b> https:\/\/www.moorerlebniswelt.de\/<br><b>Wikipedia:<\/b> <br><b>Telefon:<\/b> +49 5253 989413", "tessellate": -1, "extrude": 0, "visibility": -1 }, "geometry": { "type": "Point", "coordinates": [ 9.0193801, 51.7354001 ] } },
{ "type": "Feature", "properties": { "Name": "Glasmuseum Bad Driburg", "description": "<b>Kategorie:<\/b> Kultur & Geschichte — Museum<br><b>Distanz:<\/b>  767 m<br><b>Website:<\/b> https:\/\/glasmuseum-bad-driburg.de\/<br><b>Wikipedia:<\/b> <br><b>Telefon:<\/b> +49 5253 974494", "tessellate": -1, "extrude": 0, "visibility": -1 }, "geometry": { "type": "Point", "coordinates": [ 9.0200109, 51.7360035 ] } },
{ "type": "Feature", "properties": { "Name": "Steinberg", "description": "<b>Kategorie:<\/b> Natur & Landschaft — Natur-Feature (alle)<br><b>Distanz:<\/b>  598 m<br><b>Website:<\/b> <br><b>Wikipedia:<\/b> <br><b>Telefon:<\/b> ", "tessellate": -1, "extrude": 0, "visibility": -1 }, "geometry": { "type": "Point", "coordinates": [ 9.038183, 51.7311599 ] } },
{ "type": "Feature", "properties": { "Name": "Rosenberg", "description": "<b>Kategorie:<\/b> Natur & Landschaft — Natur-Feature (alle)<br><b>Distanz:<\/b> 1345 m<br><b>Website:<\/b> <br><b>Wikipedia:<\/b> <br><b>Telefon:<\/b> ", "tessellate": -1, "extrude": 0, "visibility": -1 }, "geometry": { "type": "Point", "coordinates": [ 9.0410175, 51.7433538 ] } },
{ "type": "Feature", "properties": { "Name": "Iburg", "description": "<b>Kategorie:<\/b> Natur & Landschaft — Natur-Feature (alle)<br><b>Distanz:<\/b> 1862 m<br><b>Website:<\/b> <br><b>Wikipedia:<\/b> <br><b>Telefon:<\/b> ", "tessellate": -1, "extrude": 0, "visibility": -1 }, "geometry": { "type": "Point", "coordinates": [ 9.0037095, 51.7302643 ] } },
{ "type": "Feature", "properties": { "Name": "Sülburg", "description": "<b>Kategorie:<\/b> Natur & Landschaft — Aussichtspunkt<br><b>Distanz:<\/b> 1779 m<br><b>Website:<\/b> <br><b>Wikipedia:<\/b> <br><b>Telefon:<\/b> ", "tessellate": -1, "extrude": 0, "visibility": -1 }, "geometry": { "type": "Point", "coordinates": [ 9.0297978, 51.7172953 ] } },
{ "type": "Feature", "properties": { "Name": "Sülburg", "description": "<b>Kategorie:<\/b> Natur & Landschaft — Natur-Feature (alle)<br><b>Distanz:<\/b> 1780 m<br><b>Website:<\/b> <br><b>Wikipedia:<\/b> <br><b>Telefon:<\/b> ", "tessellate": -1, "extrude": 0, "visibility": -1 }, "geometry": { "type": "Point", "coordinates": [ 9.0298037, 51.7172909 ] } },
{ "type": "Feature", "properties": { "Name": "Kronenrücken", "description": "<b>Kategorie:<\/b> Natur & Landschaft — Natur-Feature (alle)<br><b>Distanz:<\/b> 2593 m<br><b>Website:<\/b> <br><b>Wikipedia:<\/b> <br><b>Telefon:<\/b> ", "tessellate": -1, "extrude": 0, "visibility": -1 }, "geometry": { "type": "Point", "coordinates": [ 9.040988, 51.7556302 ] } },
{ "type": "Feature", "properties": { "Name": "Düsenberg", "description": "<b>Kategorie:<\/b> Natur & Landschaft — Natur-Feature (alle)<br><b>Distanz:<\/b> 1562 m<br><b>Website:<\/b> <br><b>Wikipedia:<\/b> <br><b>Telefon:<\/b> ", "tessellate": -1, "extrude": 0, "visibility": -1 }, "geometry": { "type": "Point", "coordinates": [ 9.0400276, 51.7206322 ] } },
{ "type": "Feature", "properties": { "Name": "Kohlberg", "description": "<b>Kategorie:<\/b> Natur & Landschaft — Natur-Feature (alle)<br><b>Distanz:<\/b> 2154 m<br><b>Website:<\/b> <br><b>Wikipedia:<\/b> <br><b>Telefon:<\/b> ", "tessellate": -1, "extrude": 0, "visibility": -1 }, "geometry": { "type": "Point", "coordinates": [ 9.0436337, 51.7158059 ] } },
{ "type": "Feature", "properties": { "Name": "Schweinsberg", "description": "<b>Kategorie:<\/b> Natur & Landschaft — Natur-Feature (alle)<br><b>Distanz:<\/b> 2243 m<br><b>Website:<\/b> <br><b>Wikipedia:<\/b> <br><b>Telefon:<\/b> ", "tessellate": -1, "extrude": 0, "visibility": -1 }, "geometry": { "type": "Point", "coordinates": [ 9.0044949, 51.7456035 ] } },
{ "type": "Feature", "properties": { "Name": "Knochenbuche", "description": "<b>Kategorie:<\/b> Natur & Landschaft — Natur-Feature (alle)<br><b>Distanz:<\/b> 2519 m<br><b>Website:<\/b> <br><b>Wikipedia:<\/b> <br><b>Telefon:<\/b> ", "tessellate": -1, "extrude": 0, "visibility": -1 }, "geometry": { "type": "Point", "coordinates": [ 9.0043836, 51.7492809 ] } },
{ "type": "Feature", "properties": { "Name": "Escherberg", "description": "<b>Kategorie:<\/b> Natur & Landschaft — Natur-Feature (alle)<br><b>Distanz:<\/b> 3332 m<br><b>Website:<\/b> <br><b>Wikipedia:<\/b> <br><b>Telefon:<\/b> ", "tessellate": -1, "extrude": 0, "visibility": -1 }, "geometry": { "type": "Point", "coordinates": [ 9.0784331, 51.7320855 ] } },
{ "type": "Feature", "properties": { "Name": "Sollberg", "description": "<b>Kategorie:<\/b> Natur & Landschaft — Natur-Feature (alle)<br><b>Distanz:<\/b> 1379 m<br><b>Website:<\/b> <br><b>Wikipedia:<\/b> <br><b>Telefon:<\/b> ", "tessellate": -1, "extrude": 0, "visibility": -1 }, "geometry": { "type": "Point", "coordinates": [ 9.0490591, 51.7291725 ] } },
{ "type": "Feature", "properties": { "Name": "Hoppenberg", "description": "<b>Kategorie:<\/b> Natur & Landschaft — Natur-Feature (alle)<br><b>Distanz:<\/b> 2226 m<br><b>Website:<\/b> <br><b>Wikipedia:<\/b> <br><b>Telefon:<\/b> ", "tessellate": -1, "extrude": 0, "visibility": -1 }, "geometry": { "type": "Point", "coordinates": [ 9.0129509, 51.7501874 ] } },
{ "type": "Feature", "properties": { "Name": "Knochen", "description": "<b>Kategorie:<\/b> Natur & Landschaft — Natur-Feature (alle)<br><b>Distanz:<\/b> 2816 m<br><b>Website:<\/b> <br><b>Wikipedia:<\/b> <br><b>Telefon:<\/b> ", "tessellate": -1, "extrude": 0, "visibility": -1 }, "geometry": { "type": "Point", "coordinates": [ 9.0002387, 51.7504587 ] } },
{ "type": "Feature", "properties": { "Name": "Stadtblick", "description": "<b>Kategorie:<\/b> Natur & Landschaft — Aussichtspunkt<br><b>Distanz:<\/b>  519 m<br><b>Website:<\/b> <br><b>Wikipedia:<\/b> <br><b>Telefon:<\/b> ", "tessellate": -1, "extrude": 0, "visibility": -1 }, "geometry": { "type": "Point", "coordinates": [ 9.0372881, 51.7316894 ] } }
]
}
