{"type": "FeatureCollection", "features": [{"type": "Feature", "properties": {"Name": "JH 486 — Jugendherberge Oberbernhards", "description": "<b>JH Nr:</b> 486<br><b>Name:</b> Jugendherberge Oberbernhards<br><b>Ort:</b> Oberbernhards", "timestamp": null, "begin": null, "end": null, "altitudeMode": null, "tessellate": -1, "extrude": 0, "visibility": -1, "drawOrder": null, "icon": null, "category_group": "JH"}, "geometry": {"type": "Point", "coordinates": [9.9039973, 50.5562151]}}, {"type": "Feature", "properties": {"Name": "Fledermäuse", "description": "<b>Kategorie:</b> Information — Besucherinformation<br><b>Distanz:</b> 1110 m<br><b>Website:</b> <br><b>Wikipedia:</b> <br><b>Telefon:</b> ", "timestamp": null, "begin": null, "end": null, "altitudeMode": null, "tessellate": -1, "extrude": 0, "visibility": -1, "drawOrder": null, "icon": null, "category_group": "Information"}, "geometry": {"type": "Point", "coordinates": [9.8906331, 50.5614325]}}, {"type": "Feature", "properties": {"Name": "Amphibien", "description": "<b>Kategorie:</b> Information — Besucherinformation<br><b>Distanz:</b> 1217 m<br><b>Website:</b> <br><b>Wikipedia:</b> <br><b>Telefon:</b> ", "timestamp": null, "begin": null, "end": null, "altitudeMode": null, "tessellate": -1, "extrude": 0, "visibility": -1, "drawOrder": null, "icon": null, "category_group": "Information"}, "geometry": {"type": "Point", "coordinates": [9.8896212, 50.5622141]}}, {"type": "Feature", "properties": {"Name": "Milseburgradweg", "description": "<b>Kategorie:</b> Information — Besucherinformation<br><b>Distanz:</b>  568 m<br><b>Website:</b> <br><b>Wikipedia:</b> <br><b>Telefon:</b> ", "timestamp": null, "begin": null, "end": null, "altitudeMode": null, "tessellate": -1, "extrude": 0, "visibility": -1, "drawOrder": null, "icon": null, "category_group": "Information"}, "geometry": {"type": "Point", "coordinates": [9.910178, 50.5594727]}}, {"type": "Feature", "properties": {"Name": "Hinweise zur Benutzung des Tunnels", "description": "<b>Kategorie:</b> Information — Besucherinformation<br><b>Distanz:</b>  474 m<br><b>Website:</b> <br><b>Wikipedia:</b> <br><b>Telefon:</b> ", "timestamp": null, "begin": null, "end": null, "altitudeMode": null, "tessellate": -1, "extrude": 0, "visibility": -1, "drawOrder": null, "icon": null, "category_group": "Information"}, "geometry": {"type": "Point", "coordinates": [9.9077779, 50.5597306]}}, {"type": "Feature", "properties": {"Name": "Wandern im Naturpark Hessische Rhön \"Mambachtal\"", "description": "<b>Kategorie:</b> Information — Besucherinformation<br><b>Distanz:</b> 2485 m<br><b>Website:</b> <br><b>Wikipedia:</b> <br><b>Telefon:</b> ", "timestamp": null, "begin": null, "end": null, "altitudeMode": null, "tessellate": -1, "extrude": 0, "visibility": -1, "drawOrder": null, "icon": null, "category_group": "Information"}, "geometry": {"type": "Point", "coordinates": [9.8719647, 50.5653304]}}, {"type": "Feature", "properties": {"Name": "Hinweise zur Benutzung des Milseburgtunnels", "description": "<b>Kategorie:</b> Information — Besucherinformation<br><b>Distanz:</b> 1076 m<br><b>Website:</b> <br><b>Wikipedia:</b> <br><b>Telefon:</b> ", "timestamp": null, "begin": null, "end": null, "altitudeMode": null, "tessellate": -1, "extrude": 0, "visibility": -1, "drawOrder": null, "icon": null, "category_group": "Information"}, "geometry": {"type": "Point", "coordinates": [9.8909728, 50.5611885]}}, {"type": "Feature", "properties": {"Name": "Milseburg", "description": "<b>Kategorie:</b> Information — Besucherinformation<br><b>Distanz:</b> 1327 m<br><b>Website:</b> <br><b>Wikipedia:</b> <br><b>Telefon:</b> ", "timestamp": null, "begin": null, "end": null, "altitudeMode": null, "tessellate": -1, "extrude": 0, "visibility": -1, "drawOrder": null, "icon": null, "category_group": "Information"}, "geometry": {"type": "Point", "coordinates": [9.8877649, 50.5621785]}}, {"type": "Feature", "properties": {"Name": "Wohnen und Arbeiten", "description": "<b>Kategorie:</b> Information — Besucherinformation<br><b>Distanz:</b>  977 m<br><b>Website:</b> <br><b>Wikipedia:</b> <br><b>Telefon:</b> ", "timestamp": null, "begin": null, "end": null, "altitudeMode": null, "tessellate": -1, "extrude": 0, "visibility": -1, "drawOrder": null, "icon": null, "category_group": "Information"}, "geometry": {"type": "Point", "coordinates": [9.8981768, 50.5482457]}}, {"type": "Feature", "properties": {"Name": "Ein Heiligtum?", "description": "<b>Kategorie:</b> Information — Besucherinformation<br><b>Distanz:</b> 1218 m<br><b>Website:</b> <br><b>Wikipedia:</b> <br><b>Telefon:</b> ", "timestamp": null, "begin": null, "end": null, "altitudeMode": null, "tessellate": -1, "extrude": 0, "visibility": -1, "drawOrder": null, "icon": null, "category_group": "Information"}, "geometry": {"type": "Point", "coordinates": [9.8983511, 50.5458737]}}, {"type": "Feature", "properties": {"Name": "Blockschuttwälder", "description": "<b>Kategorie:</b> Information — Besucherinformation<br><b>Distanz:</b> 1272 m<br><b>Website:</b> <br><b>Wikipedia:</b> <br><b>Telefon:</b> ", "timestamp": null, "begin": null, "end": null, "altitudeMode": null, "tessellate": -1, "extrude": 0, "visibility": -1, "drawOrder": null, "icon": null, "category_group": "Information"}, "geometry": {"type": "Point", "coordinates": [9.8996444, 50.5451131]}}, {"type": "Feature", "properties": {"Name": "Die verschwundene Stadt", "description": "<b>Kategorie:</b> Information — Besucherinformation<br><b>Distanz:</b>  960 m<br><b>Website:</b> <br><b>Wikipedia:</b> <br><b>Telefon:</b> ", "timestamp": null, "begin": null, "end": null, "altitudeMode": null, "tessellate": -1, "extrude": 0, "visibility": -1, "drawOrder": null, "icon": null, "category_group": "Information"}, "geometry": {"type": "Point", "coordinates": [9.8973346, 50.5487011]}}, {"type": "Feature", "properties": {"Name": "Sagenhafte Rhön", "description": "<b>Kategorie:</b> Information — Besucherinformation<br><b>Distanz:</b> 1234 m<br><b>Website:</b> <br><b>Wikipedia:</b> <br><b>Telefon:</b> ", "timestamp": null, "begin": null, "end": null, "altitudeMode": null, "tessellate": -1, "extrude": 0, "visibility": -1, "drawOrder": null, "icon": null, "category_group": "Information"}, "geometry": {"type": "Point", "coordinates": [9.8986528, 50.5456555]}}, {"type": "Feature", "properties": {"Name": "Extratour Milseburg / Hochrhöner Premiumweg", "description": "<b>Kategorie:</b> Information — Besucherinformation<br><b>Distanz:</b>  737 m<br><b>Website:</b> <br><b>Wikipedia:</b> <br><b>Telefon:</b> ", "timestamp": null, "begin": null, "end": null, "altitudeMode": null, "tessellate": -1, "extrude": 0, "visibility": -1, "drawOrder": null, "icon": null, "category_group": "Information"}, "geometry": {"type": "Point", "coordinates": [9.8964384, 50.5516642]}}, {"type": "Feature", "properties": {"Name": "Baumhöhlenbewohner", "description": "<b>Kategorie:</b> Information — Besucherinformation<br><b>Distanz:</b> 1261 m<br><b>Website:</b> <br><b>Wikipedia:</b> <br><b>Telefon:</b> ", "timestamp": null, "begin": null, "end": null, "altitudeMode": null, "tessellate": -1, "extrude": 0, "visibility": -1, "drawOrder": null, "icon": null, "category_group": "Information"}, "geometry": {"type": "Point", "coordinates": [9.8966021, 50.5459035]}}, {"type": "Feature", "properties": {"Name": "Totholz", "description": "<b>Kategorie:</b> Information — Besucherinformation<br><b>Distanz:</b> 1267 m<br><b>Website:</b> <br><b>Wikipedia:</b> <br><b>Telefon:</b> ", "timestamp": null, "begin": null, "end": null, "altitudeMode": null, "tessellate": -1, "extrude": 0, "visibility": -1, "drawOrder": null, "icon": null, "category_group": "Information"}, "geometry": {"type": "Point", "coordinates": [9.8959872, 50.5460275]}}, {"type": "Feature", "properties": {"Name": "Biosphärenreservat Rhön", "description": "<b>Kategorie:</b> Information — Besucherinformation<br><b>Distanz:</b> 1665 m<br><b>Website:</b> <br><b>Wikipedia:</b> <br><b>Telefon:</b> ", "timestamp": null, "begin": null, "end": null, "altitudeMode": null, "tessellate": -1, "extrude": 0, "visibility": -1, "drawOrder": null, "icon": null, "category_group": "Information"}, "geometry": {"type": "Point", "coordinates": [9.9069376, 50.5413622]}}, {"type": "Feature", "properties": {"Name": "Erz zu Eisen", "description": "<b>Kategorie:</b> Information — Besucherinformation<br><b>Distanz:</b> 1311 m<br><b>Website:</b> <br><b>Wikipedia:</b> <br><b>Telefon:</b> ", "timestamp": null, "begin": null, "end": null, "altitudeMode": null, "tessellate": -1, "extrude": 0, "visibility": -1, "drawOrder": null, "icon": null, "category_group": "Information"}, "geometry": {"type": "Point", "coordinates": [9.9000181, 50.5447021]}}, {"type": "Feature", "properties": {"Name": "Raffiniertes Bollwerg", "description": "<b>Kategorie:</b> Information — Besucherinformation<br><b>Distanz:</b> 1197 m<br><b>Website:</b> <br><b>Wikipedia:</b> <br><b>Telefon:</b> ", "timestamp": null, "begin": null, "end": null, "altitudeMode": null, "tessellate": -1, "extrude": 0, "visibility": -1, "drawOrder": null, "icon": null, "category_group": "Information"}, "geometry": {"type": "Point", "coordinates": [9.9014709, 50.5455681]}}, {"type": "Feature", "properties": {"Name": "Archäologisches Erkundungsprojekt Milseburg", "description": "<b>Kategorie:</b> Information — Besucherinformation<br><b>Distanz:</b> 1544 m<br><b>Website:</b> <br><b>Wikipedia:</b> <br><b>Telefon:</b> ", "timestamp": null, "begin": null, "end": null, "altitudeMode": null, "tessellate": -1, "extrude": 0, "visibility": -1, "drawOrder": null, "icon": null, "category_group": "Information"}, "geometry": {"type": "Point", "coordinates": [9.8985321, 50.5427765]}}, {"type": "Feature", "properties": {"Name": "Die Sage vom Bubenbad", "description": "<b>Kategorie:</b> Information — Besucherinformation<br><b>Distanz:</b> 2206 m<br><b>Website:</b> <br><b>Wikipedia:</b> <br><b>Telefon:</b> ", "timestamp": null, "begin": null, "end": null, "altitudeMode": null, "tessellate": -1, "extrude": 0, "visibility": -1, "drawOrder": null, "icon": null, "category_group": "Information"}, "geometry": {"type": "Point", "coordinates": [9.9096351, 50.5367075]}}, {"type": "Feature", "properties": {"Name": "Himmelsschauplatz", "description": "<b>Kategorie:</b> Information — Besucherinformation<br><b>Distanz:</b> 1385 m<br><b>Website:</b> <br><b>Wikipedia:</b> <br><b>Telefon:</b> ", "timestamp": null, "begin": null, "end": null, "altitudeMode": null, "tessellate": -1, "extrude": 0, "visibility": -1, "drawOrder": null, "icon": null, "category_group": "Information"}, "geometry": {"type": "Point", "coordinates": [9.9054974, 50.5437948]}}, {"type": "Feature", "properties": {"Name": "Tier- & Pflanzenwelt", "description": "<b>Kategorie:</b> Information — Besucherinformation<br><b>Distanz:</b> 1983 m<br><b>Website:</b> <br><b>Wikipedia:</b> <br><b>Telefon:</b> ", "timestamp": null, "begin": null, "end": null, "altitudeMode": null, "tessellate": -1, "extrude": 0, "visibility": -1, "drawOrder": null, "icon": null, "category_group": "Information"}, "geometry": {"type": "Point", "coordinates": [9.8805949, 50.5464372]}}, {"type": "Feature", "properties": {"Name": "Extratour Milseburg (10,6 km)", "description": "<b>Kategorie:</b> Information — Besucherinformation<br><b>Distanz:</b> 1318 m<br><b>Website:</b> <br><b>Wikipedia:</b> <br><b>Telefon:</b> ", "timestamp": null, "begin": null, "end": null, "altitudeMode": null, "tessellate": -1, "extrude": 0, "visibility": -1, "drawOrder": null, "icon": null, "category_group": "Information"}, "geometry": {"type": "Point", "coordinates": [9.8911937, 50.5476148]}}, {"type": "Feature", "properties": {"Name": "Malerdorf Kleinsassen", "description": "<b>Kategorie:</b> Information — Besucherinformation<br><b>Distanz:</b> 2168 m<br><b>Website:</b> <br><b>Wikipedia:</b> <br><b>Telefon:</b> ", "timestamp": null, "begin": null, "end": null, "altitudeMode": null, "tessellate": -1, "extrude": 0, "visibility": -1, "drawOrder": null, "icon": null, "category_group": "Information"}, "geometry": {"type": "Point", "coordinates": [9.8743334, 50.5514098]}}, {"type": "Feature", "properties": {"Name": "Malerrundwege Kleinsassen", "description": "<b>Kategorie:</b> Information — Besucherinformation<br><b>Distanz:</b> 2188 m<br><b>Website:</b> <br><b>Wikipedia:</b> <br><b>Telefon:</b> ", "timestamp": null, "begin": null, "end": null, "altitudeMode": null, "tessellate": -1, "extrude": 0, "visibility": -1, "drawOrder": null, "icon": null, "category_group": "Information"}, "geometry": {"type": "Point", "coordinates": [9.8740275, 50.5514508]}}, {"type": "Feature", "properties": {"Name": "Hinweise zur Benutzung des Milseburgtunnels", "description": "<b>Kategorie:</b> Information — Besucherinformation<br><b>Distanz:</b> 1521 m<br><b>Website:</b> <br><b>Wikipedia:</b> <br><b>Telefon:</b> ", "timestamp": null, "begin": null, "end": null, "altitudeMode": null, "tessellate": -1, "extrude": 0, "visibility": -1, "drawOrder": null, "icon": null, "category_group": "Information"}, "geometry": {"type": "Point", "coordinates": [9.8874231, 50.5649142]}}, {"type": "Feature", "properties": {"Name": "Europäischer Fernwanderweg|Ostsee-Wachau-Adria", "description": "<b>Kategorie:</b> Information — Besucherinformation<br><b>Distanz:</b> 2402 m<br><b>Website:</b> <br><b>Wikipedia:</b> <br><b>Telefon:</b> ", "timestamp": null, "begin": null, "end": null, "altitudeMode": null, "tessellate": -1, "extrude": 0, "visibility": -1, "drawOrder": null, "icon": null, "category_group": "Information"}, "geometry": {"type": "Point", "coordinates": [9.8726955, 50.5645117]}}, {"type": "Feature", "properties": {"Name": "Lothar-Mai-Haus", "description": "<b>Kategorie:</b> Information — Besucherinformation<br><b>Distanz:</b> 1820 m<br><b>Website:</b> <br><b>Wikipedia:</b> <br><b>Telefon:</b> ", "timestamp": null, "begin": null, "end": null, "altitudeMode": null, "tessellate": -1, "extrude": 0, "visibility": -1, "drawOrder": null, "icon": null, "category_group": "Information"}, "geometry": {"type": "Point", "coordinates": [9.8818839, 50.5645544]}}, {"type": "Feature", "properties": {"Name": "R3", "description": "<b>Kategorie:</b> Information — Besucherinformation<br><b>Distanz:</b> 1246 m<br><b>Website:</b> <br><b>Wikipedia:</b> <br><b>Telefon:</b> ", "timestamp": null, "begin": null, "end": null, "altitudeMode": null, "tessellate": -1, "extrude": 0, "visibility": -1, "drawOrder": null, "icon": null, "category_group": "Information"}, "geometry": {"type": "Point", "coordinates": [9.8886639, 50.5617011]}}, {"type": "Feature", "properties": {"Name": "Lothar-Mai-Haus", "description": "<b>Kategorie:</b> Information — Besucherinformation<br><b>Distanz:</b>  888 m<br><b>Website:</b> <br><b>Wikipedia:</b> <br><b>Telefon:</b> ", "timestamp": null, "begin": null, "end": null, "altitudeMode": null, "tessellate": -1, "extrude": 0, "visibility": -1, "drawOrder": null, "icon": null, "category_group": "Information"}, "geometry": {"type": "Point", "coordinates": [9.8937732, 50.5608406]}}, {"type": "Feature", "properties": {"Name": "Naturschutzgebiet", "description": "<b>Kategorie:</b> Information — Besucherinformation<br><b>Distanz:</b>  515 m<br><b>Website:</b> <br><b>Wikipedia:</b> <br><b>Telefon:</b> ", "timestamp": null, "begin": null, "end": null, "altitudeMode": null, "tessellate": -1, "extrude": 0, "visibility": -1, "drawOrder": null, "icon": null, "category_group": "Information"}, "geometry": {"type": "Point", "coordinates": [9.8989044, 50.5595217]}}, {"type": "Feature", "properties": {"Name": "Naturschutzgebiet", "description": "<b>Kategorie:</b> Information — Besucherinformation<br><b>Distanz:</b>  527 m<br><b>Website:</b> <br><b>Wikipedia:</b> <br><b>Telefon:</b> ", "timestamp": null, "begin": null, "end": null, "altitudeMode": null, "tessellate": -1, "extrude": 0, "visibility": -1, "drawOrder": null, "icon": null, "category_group": "Information"}, "geometry": {"type": "Point", "coordinates": [9.8978498, 50.5588845]}}, {"type": "Feature", "properties": {"Name": "Kalkmagerrasen", "description": "<b>Kategorie:</b> Information — Besucherinformation<br><b>Distanz:</b>  523 m<br><b>Website:</b> <br><b>Wikipedia:</b> <br><b>Telefon:</b> ", "timestamp": null, "begin": null, "end": null, "altitudeMode": null, "tessellate": -1, "extrude": 0, "visibility": -1, "drawOrder": null, "icon": null, "category_group": "Information"}, "geometry": {"type": "Point", "coordinates": [9.8977153, 50.558693]}}, {"type": "Feature", "properties": {"Name": "Reptilien", "description": "<b>Kategorie:</b> Information — Besucherinformation<br><b>Distanz:</b>  524 m<br><b>Website:</b> <br><b>Wikipedia:</b> <br><b>Telefon:</b> ", "timestamp": null, "begin": null, "end": null, "altitudeMode": null, "tessellate": -1, "extrude": 0, "visibility": -1, "drawOrder": null, "icon": null, "category_group": "Information"}, "geometry": {"type": "Point", "coordinates": [9.8977006, 50.5586807]}}, {"type": "Feature", "properties": {"Name": "Naturschutzgebiet", "description": "<b>Kategorie:</b> Information — Besucherinformation<br><b>Distanz:</b>  529 m<br><b>Website:</b> <br><b>Wikipedia:</b> <br><b>Telefon:</b> ", "timestamp": null, "begin": null, "end": null, "altitudeMode": null, "tessellate": -1, "extrude": 0, "visibility": -1, "drawOrder": null, "icon": null, "category_group": "Information"}, "geometry": {"type": "Point", "coordinates": [9.8975517, 50.5586183]}}, {"type": "Feature", "properties": {"Name": "Die Silberdieste", "description": "<b>Kategorie:</b> Information — Besucherinformation<br><b>Distanz:</b>  546 m<br><b>Website:</b> <br><b>Wikipedia:</b> <br><b>Telefon:</b> ", "timestamp": null, "begin": null, "end": null, "altitudeMode": null, "tessellate": -1, "extrude": 0, "visibility": -1, "drawOrder": null, "icon": null, "category_group": "Information"}, "geometry": {"type": "Point", "coordinates": [9.8972406, 50.5585716]}}, {"type": "Feature", "properties": {"Name": "Biosphärenreservat Rhön", "description": "<b>Kategorie:</b> Information — Besucherinformation<br><b>Distanz:</b>  623 m<br><b>Website:</b> <br><b>Wikipedia:</b> <br><b>Telefon:</b> ", "timestamp": null, "begin": null, "end": null, "altitudeMode": null, "tessellate": -1, "extrude": 0, "visibility": -1, "drawOrder": null, "icon": null, "category_group": "Information"}, "geometry": {"type": "Point", "coordinates": [9.8995855, 50.551366]}}, {"type": "Feature", "properties": {"Name": "Die Milseburg", "description": "<b>Kategorie:</b> Information — Besucherinformation<br><b>Distanz:</b>  624 m<br><b>Website:</b> <br><b>Wikipedia:</b> <br><b>Telefon:</b> ", "timestamp": null, "begin": null, "end": null, "altitudeMode": null, "tessellate": -1, "extrude": 0, "visibility": -1, "drawOrder": null, "icon": null, "category_group": "Information"}, "geometry": {"type": "Point", "coordinates": [9.8995969, 50.5513579]}}, {"type": "Feature", "properties": {"Name": "Tier- & Pflanzenwelt", "description": "<b>Kategorie:</b> Information — Besucherinformation<br><b>Distanz:</b>  624 m<br><b>Website:</b> <br><b>Wikipedia:</b> <br><b>Telefon:</b> ", "timestamp": null, "begin": null, "end": null, "altitudeMode": null, "tessellate": -1, "extrude": 0, "visibility": -1, "drawOrder": null, "icon": null, "category_group": "Information"}, "geometry": {"type": "Point", "coordinates": [9.8996083, 50.5513494]}}, {"type": "Feature", "properties": {"Name": "Milseburgstube", "description": "<b>Kategorie:</b> Information — Besucherinformation<br><b>Distanz:</b>  878 m<br><b>Website:</b> <br><b>Wikipedia:</b> <br><b>Telefon:</b> ", "timestamp": null, "begin": null, "end": null, "altitudeMode": null, "tessellate": -1, "extrude": 0, "visibility": -1, "drawOrder": null, "icon": null, "category_group": "Information"}, "geometry": {"type": "Point", "coordinates": [9.89797, 50.5493203]}}, {"type": "Feature", "properties": {"Name": "Kernzone des Biosphärenreservates", "description": "<b>Kategorie:</b> Information — Besucherinformation<br><b>Distanz:</b>  960 m<br><b>Website:</b> <br><b>Wikipedia:</b> <br><b>Telefon:</b> ", "timestamp": null, "begin": null, "end": null, "altitudeMode": null, "tessellate": -1, "extrude": 0, "visibility": -1, "drawOrder": null, "icon": null, "category_group": "Information"}, "geometry": {"type": "Point", "coordinates": [9.8972721, 50.5487157]}}, {"type": "Feature", "properties": {"Name": "Die Zufahrt", "description": "<b>Kategorie:</b> Information — Besucherinformation<br><b>Distanz:</b> 1028 m<br><b>Website:</b> <br><b>Wikipedia:</b> <br><b>Telefon:</b> ", "timestamp": null, "begin": null, "end": null, "altitudeMode": null, "tessellate": -1, "extrude": 0, "visibility": -1, "drawOrder": null, "icon": null, "category_group": "Information"}, "geometry": {"type": "Point", "coordinates": [9.895882, 50.5485468]}}, {"type": "Feature", "properties": {"Name": "Bauern, Priester, Krieger", "description": "<b>Kategorie:</b> Information — Besucherinformation<br><b>Distanz:</b> 1136 m<br><b>Website:</b> <br><b>Wikipedia:</b> <br><b>Telefon:</b> ", "timestamp": null, "begin": null, "end": null, "altitudeMode": null, "tessellate": -1, "extrude": 0, "visibility": -1, "drawOrder": null, "icon": null, "category_group": "Information"}, "geometry": {"type": "Point", "coordinates": [9.8959433, 50.5473807]}}, {"type": "Feature", "properties": {"Name": "Leben am Berg", "description": "<b>Kategorie:</b> Information — Besucherinformation<br><b>Distanz:</b> 1149 m<br><b>Website:</b> <br><b>Wikipedia:</b> <br><b>Telefon:</b> ", "timestamp": null, "begin": null, "end": null, "altitudeMode": null, "tessellate": -1, "extrude": 0, "visibility": -1, "drawOrder": null, "icon": null, "category_group": "Information"}, "geometry": {"type": "Point", "coordinates": [9.8978412, 50.5466579]}}, {"type": "Feature", "properties": {"Name": "Predigt auf dem Berg", "description": "<b>Kategorie:</b> Information — Besucherinformation<br><b>Distanz:</b> 1317 m<br><b>Website:</b> <br><b>Wikipedia:</b> <br><b>Telefon:</b> ", "timestamp": null, "begin": null, "end": null, "altitudeMode": null, "tessellate": -1, "extrude": 0, "visibility": -1, "drawOrder": null, "icon": null, "category_group": "Information"}, "geometry": {"type": "Point", "coordinates": [9.8981879, 50.5449657]}}, {"type": "Feature", "properties": {"Name": "Lebensraum Fels", "description": "<b>Kategorie:</b> Information — Besucherinformation<br><b>Distanz:</b> 1325 m<br><b>Website:</b> <br><b>Wikipedia:</b> <br><b>Telefon:</b> ", "timestamp": null, "begin": null, "end": null, "altitudeMode": null, "tessellate": -1, "extrude": 0, "visibility": -1, "drawOrder": null, "icon": null, "category_group": "Information"}, "geometry": {"type": "Point", "coordinates": [9.8980378, 50.5449163]}}, {"type": "Feature", "properties": {"Name": "Kernzone des Biosphärenreservates", "description": "<b>Kategorie:</b> Information — Besucherinformation<br><b>Distanz:</b> 1307 m<br><b>Website:</b> <br><b>Wikipedia:</b> <br><b>Telefon:</b> ", "timestamp": null, "begin": null, "end": null, "altitudeMode": null, "tessellate": -1, "extrude": 0, "visibility": -1, "drawOrder": null, "icon": null, "category_group": "Information"}, "geometry": {"type": "Point", "coordinates": [9.9000573, 50.544731]}}, {"type": "Feature", "properties": {"Name": "Drehbare Sternenkarte", "description": "<b>Kategorie:</b> Information — Besucherinformation<br><b>Distanz:</b> 1363 m<br><b>Website:</b> <br><b>Wikipedia:</b> <br><b>Telefon:</b> ", "timestamp": null, "begin": null, "end": null, "altitudeMode": null, "tessellate": -1, "extrude": 0, "visibility": -1, "drawOrder": null, "icon": null, "category_group": "Information"}, "geometry": {"type": "Point", "coordinates": [9.9031684, 50.5439684]}}, {"type": "Feature", "properties": {"Name": "Himmelsschauplatz Milseburg", "description": "<b>Kategorie:</b> Information — Besucherinformation<br><b>Distanz:</b> 1363 m<br><b>Website:</b> <br><b>Wikipedia:</b> <br><b>Telefon:</b> ", "timestamp": null, "begin": null, "end": null, "altitudeMode": null, "tessellate": -1, "extrude": 0, "visibility": -1, "drawOrder": null, "icon": null, "category_group": "Information"}, "geometry": {"type": "Point", "coordinates": [9.9031798, 50.5439667]}}, {"type": "Feature", "properties": {"Name": "Sternenpark Rhön", "description": "<b>Kategorie:</b> Information — Besucherinformation<br><b>Distanz:</b> 1359 m<br><b>Website:</b> <br><b>Wikipedia:</b> <br><b>Telefon:</b> ", "timestamp": null, "begin": null, "end": null, "altitudeMode": null, "tessellate": -1, "extrude": 0, "visibility": -1, "drawOrder": null, "icon": null, "category_group": "Information"}, "geometry": {"type": "Point", "coordinates": [9.9033588, 50.5440046]}}, {"type": "Feature", "properties": {"Name": "Schützen Sie die Nacht", "description": "<b>Kategorie:</b> Information — Besucherinformation<br><b>Distanz:</b> 1360 m<br><b>Website:</b> <br><b>Wikipedia:</b> <br><b>Telefon:</b> ", "timestamp": null, "begin": null, "end": null, "altitudeMode": null, "tessellate": -1, "extrude": 0, "visibility": -1, "drawOrder": null, "icon": null, "category_group": "Information"}, "geometry": {"type": "Point", "coordinates": [9.9033575, 50.5439889]}}, {"type": "Feature", "properties": {"Name": "Die Milseburg", "description": "<b>Kategorie:</b> Information — Besucherinformation<br><b>Distanz:</b> 1665 m<br><b>Website:</b> <br><b>Wikipedia:</b> <br><b>Telefon:</b> ", "timestamp": null, "begin": null, "end": null, "altitudeMode": null, "tessellate": -1, "extrude": 0, "visibility": -1, "drawOrder": null, "icon": null, "category_group": "Information"}, "geometry": {"type": "Point", "coordinates": [9.9069533, 50.5413608]}}, {"type": "Feature", "properties": {"Name": "Tier- & Pflanzenwelt", "description": "<b>Kategorie:</b> Information — Besucherinformation<br><b>Distanz:</b> 1665 m<br><b>Website:</b> <br><b>Wikipedia:</b> <br><b>Telefon:</b> ", "timestamp": null, "begin": null, "end": null, "altitudeMode": null, "tessellate": -1, "extrude": 0, "visibility": -1, "drawOrder": null, "icon": null, "category_group": "Information"}, "geometry": {"type": "Point", "coordinates": [9.9069714, 50.54136]}}, {"type": "Feature", "properties": {"Name": "Bubenbader Steine", "description": "<b>Kategorie:</b> Information — Besucherinformation<br><b>Distanz:</b> 2043 m<br><b>Website:</b> <br><b>Wikipedia:</b> <br><b>Telefon:</b> ", "timestamp": null, "begin": null, "end": null, "altitudeMode": null, "tessellate": -1, "extrude": 0, "visibility": -1, "drawOrder": null, "icon": null, "category_group": "Information"}, "geometry": {"type": "Point", "coordinates": [9.9094326, 50.5381745]}}, {"type": "Feature", "properties": {"Name": "Wildkatzen kreuzen", "description": "<b>Kategorie:</b> Information — Besucherinformation<br><b>Distanz:</b> 2127 m<br><b>Website:</b> <br><b>Wikipedia:</b> <br><b>Telefon:</b> ", "timestamp": null, "begin": null, "end": null, "altitudeMode": null, "tessellate": -1, "extrude": 0, "visibility": -1, "drawOrder": null, "icon": null, "category_group": "Information"}, "geometry": {"type": "Point", "coordinates": [9.9097008, 50.5374383]}}, {"type": "Feature", "properties": {"Name": "MilseburgWeg", "description": "<b>Kategorie:</b> Information — Besucherinformation<br><b>Distanz:</b> 2388 m<br><b>Website:</b> <br><b>Wikipedia:</b> <br><b>Telefon:</b> ", "timestamp": null, "begin": null, "end": null, "altitudeMode": null, "tessellate": -1, "extrude": 0, "visibility": -1, "drawOrder": null, "icon": null, "category_group": "Information"}, "geometry": {"type": "Point", "coordinates": [9.8961852, 50.5353251]}}, {"type": "Feature", "properties": {"Name": "Nebel an der Milseburg", "description": "<b>Kategorie:</b> Information — Besucherinformation<br><b>Distanz:</b> 2380 m<br><b>Website:</b> <br><b>Wikipedia:</b> <br><b>Telefon:</b> ", "timestamp": null, "begin": null, "end": null, "altitudeMode": null, "tessellate": -1, "extrude": 0, "visibility": -1, "drawOrder": null, "icon": null, "category_group": "Information"}, "geometry": {"type": "Point", "coordinates": [9.8959206, 50.5354387]}}, {"type": "Feature", "properties": {"Name": "Milseburg einmal anders", "description": "<b>Kategorie:</b> Information — Besucherinformation<br><b>Distanz:</b> 2366 m<br><b>Website:</b> <br><b>Wikipedia:</b> <br><b>Telefon:</b> ", "timestamp": null, "begin": null, "end": null, "altitudeMode": null, "tessellate": -1, "extrude": 0, "visibility": -1, "drawOrder": null, "icon": null, "category_group": "Information"}, "geometry": {"type": "Point", "coordinates": [9.892354, 50.5362716]}}, {"type": "Feature", "properties": {"Name": "Feldweg", "description": "<b>Kategorie:</b> Information — Besucherinformation<br><b>Distanz:</b> 2262 m<br><b>Website:</b> <br><b>Wikipedia:</b> <br><b>Telefon:</b> ", "timestamp": null, "begin": null, "end": null, "altitudeMode": null, "tessellate": -1, "extrude": 0, "visibility": -1, "drawOrder": null, "icon": null, "category_group": "Information"}, "geometry": {"type": "Point", "coordinates": [9.8917555, 50.5374241]}}, {"type": "Feature", "properties": {"Name": "Kleinsassen", "description": "<b>Kategorie:</b> Information — Besucherinformation<br><b>Distanz:</b> 2167 m<br><b>Website:</b> <br><b>Wikipedia:</b> <br><b>Telefon:</b> ", "timestamp": null, "begin": null, "end": null, "altitudeMode": null, "tessellate": -1, "extrude": 0, "visibility": -1, "drawOrder": null, "icon": null, "category_group": "Information"}, "geometry": {"type": "Point", "coordinates": [9.8883081, 50.539489]}}, {"type": "Feature", "properties": {"Name": "Maler mit Kindern", "description": "<b>Kategorie:</b> Information — Besucherinformation<br><b>Distanz:</b> 2089 m<br><b>Website:</b> <br><b>Wikipedia:</b> <br><b>Telefon:</b> ", "timestamp": null, "begin": null, "end": null, "altitudeMode": null, "tessellate": -1, "extrude": 0, "visibility": -1, "drawOrder": null, "icon": null, "category_group": "Information"}, "geometry": {"type": "Point", "coordinates": [9.8847627, 50.5419823]}}, {"type": "Feature", "properties": {"Name": "Am alten Wehr", "description": "<b>Kategorie:</b> Information — Besucherinformation<br><b>Distanz:</b> 2033 m<br><b>Website:</b> <br><b>Wikipedia:</b> <br><b>Telefon:</b> ", "timestamp": null, "begin": null, "end": null, "altitudeMode": null, "tessellate": -1, "extrude": 0, "visibility": -1, "drawOrder": null, "icon": null, "category_group": "Information"}, "geometry": {"type": "Point", "coordinates": [9.8828449, 50.5438584]}}, {"type": "Feature", "properties": {"Name": "Blick durch Buchen in der Rhön", "description": "<b>Kategorie:</b> Information — Besucherinformation<br><b>Distanz:</b> 2018 m<br><b>Website:</b> <br><b>Wikipedia:</b> <br><b>Telefon:</b> ", "timestamp": null, "begin": null, "end": null, "altitudeMode": null, "tessellate": -1, "extrude": 0, "visibility": -1, "drawOrder": null, "icon": null, "category_group": "Information"}, "geometry": {"type": "Point", "coordinates": [9.8815169, 50.5450722]}}, {"type": "Feature", "properties": {"Name": "Extratour Milseburg", "description": "<b>Kategorie:</b> Information — Besucherinformation<br><b>Distanz:</b> 1983 m<br><b>Website:</b> <br><b>Wikipedia:</b> <br><b>Telefon:</b> ", "timestamp": null, "begin": null, "end": null, "altitudeMode": null, "tessellate": -1, "extrude": 0, "visibility": -1, "drawOrder": null, "icon": null, "category_group": "Information"}, "geometry": {"type": "Point", "coordinates": [9.8806014, 50.5464301]}}, {"type": "Feature", "properties": {"Name": "Die Milseburg", "description": "<b>Kategorie:</b> Information — Besucherinformation<br><b>Distanz:</b> 1983 m<br><b>Website:</b> <br><b>Wikipedia:</b> <br><b>Telefon:</b> ", "timestamp": null, "begin": null, "end": null, "altitudeMode": null, "tessellate": -1, "extrude": 0, "visibility": -1, "drawOrder": null, "icon": null, "category_group": "Information"}, "geometry": {"type": "Point", "coordinates": [9.8805894, 50.5464442]}}, {"type": "Feature", "properties": {"Name": "Biosphärenreservat Rhön", "description": "<b>Kategorie:</b> Information — Besucherinformation<br><b>Distanz:</b> 1982 m<br><b>Website:</b> <br><b>Wikipedia:</b> <br><b>Telefon:</b> ", "timestamp": null, "begin": null, "end": null, "altitudeMode": null, "tessellate": -1, "extrude": 0, "visibility": -1, "drawOrder": null, "icon": null, "category_group": "Information"}, "geometry": {"type": "Point", "coordinates": [9.8805847, 50.5464523]}}, {"type": "Feature", "properties": {"Name": "Rhönlandschaft", "description": "<b>Kategorie:</b> Information — Besucherinformation<br><b>Distanz:</b> 1980 m<br><b>Website:</b> <br><b>Wikipedia:</b> <br><b>Telefon:</b> ", "timestamp": null, "begin": null, "end": null, "altitudeMode": null, "tessellate": -1, "extrude": 0, "visibility": -1, "drawOrder": null, "icon": null, "category_group": "Information"}, "geometry": {"type": "Point", "coordinates": [9.8805254, 50.5465498]}}, {"type": "Feature", "properties": {"Name": "Zwei Maler", "description": "<b>Kategorie:</b> Information — Besucherinformation<br><b>Distanz:</b> 2140 m<br><b>Website:</b> <br><b>Wikipedia:</b> <br><b>Telefon:</b> ", "timestamp": null, "begin": null, "end": null, "altitudeMode": null, "tessellate": -1, "extrude": 0, "visibility": -1, "drawOrder": null, "icon": null, "category_group": "Information"}, "geometry": {"type": "Point", "coordinates": [9.8783795, 50.5460216]}}, {"type": "Feature", "properties": {"Name": "Kleinsassen Dorfstraße", "description": "<b>Kategorie:</b> Information — Besucherinformation<br><b>Distanz:</b> 2091 m<br><b>Website:</b> <br><b>Wikipedia:</b> <br><b>Telefon:</b> ", "timestamp": null, "begin": null, "end": null, "altitudeMode": null, "tessellate": -1, "extrude": 0, "visibility": -1, "drawOrder": null, "icon": null, "category_group": "Information"}, "geometry": {"type": "Point", "coordinates": [9.8765029, 50.5493835]}}, {"type": "Feature", "properties": {"Name": "Blick auf Kleinsassen", "description": "<b>Kategorie:</b> Information — Besucherinformation<br><b>Distanz:</b> 2074 m<br><b>Website:</b> <br><b>Wikipedia:</b> <br><b>Telefon:</b> ", "timestamp": null, "begin": null, "end": null, "altitudeMode": null, "tessellate": -1, "extrude": 0, "visibility": -1, "drawOrder": null, "icon": null, "category_group": "Information"}, "geometry": {"type": "Point", "coordinates": [9.8761422, 50.5504883]}}, {"type": "Feature", "properties": {"Name": "altes Backhaus, heutige Rhönringstraße", "description": "<b>Kategorie:</b> Information — Besucherinformation<br><b>Distanz:</b> 2159 m<br><b>Website:</b> <br><b>Wikipedia:</b> <br><b>Telefon:</b> ", "timestamp": null, "begin": null, "end": null, "altitudeMode": null, "tessellate": -1, "extrude": 0, "visibility": -1, "drawOrder": null, "icon": null, "category_group": "Information"}, "geometry": {"type": "Point", "coordinates": [9.8744397, 50.5514977]}}, {"type": "Feature", "properties": {"Name": "Luftkurort Hofbieber", "description": "<b>Kategorie:</b> Information — Besucherinformation<br><b>Distanz:</b> 2229 m<br><b>Website:</b> <br><b>Wikipedia:</b> <br><b>Telefon:</b> ", "timestamp": null, "begin": null, "end": null, "altitudeMode": null, "tessellate": -1, "extrude": 0, "visibility": -1, "drawOrder": null, "icon": null, "category_group": "Information"}, "geometry": {"type": "Point", "coordinates": [9.8727575, 50.5538035]}}, {"type": "Feature", "properties": {"Name": "Alte Schmiede", "description": "<b>Kategorie:</b> Information — Besucherinformation<br><b>Distanz:</b> 2234 m<br><b>Website:</b> <br><b>Wikipedia:</b> <br><b>Telefon:</b> ", "timestamp": null, "begin": null, "end": null, "altitudeMode": null, "tessellate": -1, "extrude": 0, "visibility": -1, "drawOrder": null, "icon": null, "category_group": "Information"}, "geometry": {"type": "Point", "coordinates": [9.8726946, 50.5538131]}}, {"type": "Feature", "properties": {"Name": "Blick nach Schackau und Bieberstein", "description": "<b>Kategorie:</b> Information — Besucherinformation<br><b>Distanz:</b> 2510 m<br><b>Website:</b> <br><b>Wikipedia:</b> <br><b>Telefon:</b> ", "timestamp": null, "begin": null, "end": null, "altitudeMode": null, "tessellate": -1, "extrude": 0, "visibility": -1, "drawOrder": null, "icon": null, "category_group": "Information"}, "geometry": {"type": "Point", "coordinates": [9.8692492, 50.5606386]}}, {"type": "Feature", "properties": {"Name": "Feldarbeit vor der Milseburg", "description": "<b>Kategorie:</b> Information — Besucherinformation<br><b>Distanz:</b> 2470 m<br><b>Website:</b> <br><b>Wikipedia:</b> <br><b>Telefon:</b> ", "timestamp": null, "begin": null, "end": null, "altitudeMode": null, "tessellate": -1, "extrude": 0, "visibility": -1, "drawOrder": null, "icon": null, "category_group": "Information"}, "geometry": {"type": "Point", "coordinates": [9.8712032, 50.5637588]}}, {"type": "Feature", "properties": {"Name": "Sommer in der Rhön", "description": "<b>Kategorie:</b> Information — Besucherinformation<br><b>Distanz:</b> 2527 m<br><b>Website:</b> <br><b>Wikipedia:</b> <br><b>Telefon:</b> ", "timestamp": null, "begin": null, "end": null, "altitudeMode": null, "tessellate": -1, "extrude": 0, "visibility": -1, "drawOrder": null, "icon": null, "category_group": "Information"}, "geometry": {"type": "Point", "coordinates": [9.8707407, 50.5644473]}}, {"type": "Feature", "properties": {"Name": "Schackau mit Milseburg", "description": "<b>Kategorie:</b> Information — Besucherinformation<br><b>Distanz:</b> 2624 m<br><b>Website:</b> <br><b>Wikipedia:</b> <br><b>Telefon:</b> ", "timestamp": null, "begin": null, "end": null, "altitudeMode": null, "tessellate": -1, "extrude": 0, "visibility": -1, "drawOrder": null, "icon": null, "category_group": "Information"}, "geometry": {"type": "Point", "coordinates": [9.870324, 50.5660408]}}, {"type": "Feature", "properties": {"Name": "Hüten und Züchten", "description": "<b>Kategorie:</b> Information — Besucherinformation<br><b>Distanz:</b> 1049 m<br><b>Website:</b> <br><b>Wikipedia:</b> <br><b>Telefon:</b> ", "timestamp": null, "begin": null, "end": null, "altitudeMode": null, "tessellate": -1, "extrude": 0, "visibility": -1, "drawOrder": null, "icon": null, "category_group": "Information"}, "geometry": {"type": "Point", "coordinates": [9.8998612, 50.5471583]}}, {"type": "Feature", "properties": {"Name": "Säen und Ernten", "description": "<b>Kategorie:</b> Information — Besucherinformation<br><b>Distanz:</b> 1209 m<br><b>Website:</b> <br><b>Wikipedia:</b> <br><b>Telefon:</b> ", "timestamp": null, "begin": null, "end": null, "altitudeMode": null, "tessellate": -1, "extrude": 0, "visibility": -1, "drawOrder": null, "icon": null, "category_group": "Information"}, "geometry": {"type": "Point", "coordinates": [9.9002115, 50.5456098]}}, {"type": "Feature", "properties": {"Name": "Lothar-Mai-Haus", "description": "<b>Kategorie:</b> Information — Besucherinformation<br><b>Distanz:</b>  657 m<br><b>Website:</b> <br><b>Wikipedia:</b> <br><b>Telefon:</b> ", "timestamp": null, "begin": null, "end": null, "altitudeMode": null, "tessellate": -1, "extrude": 0, "visibility": -1, "drawOrder": null, "icon": null, "category_group": "Information"}, "geometry": {"type": "Point", "coordinates": [9.8969233, 50.5523955]}}, {"type": "Feature", "properties": {"Name": "Naturschutzgebiet", "description": "<b>Kategorie:</b> Information — Besucherinformation<br><b>Distanz:</b>  501 m<br><b>Website:</b> <br><b>Wikipedia:</b> <br><b>Telefon:</b> ", "timestamp": null, "begin": null, "end": null, "altitudeMode": null, "tessellate": -1, "extrude": 0, "visibility": -1, "drawOrder": null, "icon": null, "category_group": "Information"}, "geometry": {"type": "Point", "coordinates": [9.8974214, 50.5578637]}}, {"type": "Feature", "properties": {"Name": "Altes Wasserschloss in Schackau", "description": "<b>Kategorie:</b> Information — Besucherinformation<br><b>Distanz:</b> 2731 m<br><b>Website:</b> <br><b>Wikipedia:</b> <br><b>Telefon:</b> ", "timestamp": null, "begin": null, "end": null, "altitudeMode": null, "tessellate": -1, "extrude": 0, "visibility": -1, "drawOrder": null, "icon": null, "category_group": "Information"}, "geometry": {"type": "Point", "coordinates": [9.8694424, 50.5671155]}}, {"type": "Feature", "properties": {"Name": "Naturschutzgebiet Kernzone", "description": "<b>Kategorie:</b> Information — Besucherinformation<br><b>Distanz:</b> 2775 m<br><b>Website:</b> <br><b>Wikipedia:</b> <br><b>Telefon:</b> ", "timestamp": null, "begin": null, "end": null, "altitudeMode": null, "tessellate": -1, "extrude": 0, "visibility": -1, "drawOrder": null, "icon": null, "category_group": "Information"}, "geometry": {"type": "Point", "coordinates": [9.872515, 50.5413686]}}, {"type": "Feature", "properties": {"Name": "Naturschutzgebiet Kernzone", "description": "<b>Kategorie:</b> Information — Besucherinformation<br><b>Distanz:</b> 2710 m<br><b>Website:</b> <br><b>Wikipedia:</b> <br><b>Telefon:</b> ", "timestamp": null, "begin": null, "end": null, "altitudeMode": null, "tessellate": -1, "extrude": 0, "visibility": -1, "drawOrder": null, "icon": null, "category_group": "Information"}, "geometry": {"type": "Point", "coordinates": [9.8735518, 50.5414606]}}, {"type": "Feature", "properties": {"Name": "Fuldaer Haus", "description": "<b>Kategorie:</b> Information — Besucherinformation<br><b>Distanz:</b> 3514 m<br><b>Website:</b> <br><b>Wikipedia:</b> <br><b>Telefon:</b> ", "timestamp": null, "begin": null, "end": null, "altitudeMode": null, "tessellate": -1, "extrude": 0, "visibility": -1, "drawOrder": null, "icon": null, "category_group": "Information"}, "geometry": {"type": "Point", "coordinates": [9.8689165, 50.5338824]}}, {"type": "Feature", "properties": {"Name": "Stellberg", "description": "<b>Kategorie:</b> Information — Besucherinformation<br><b>Distanz:</b> 3378 m<br><b>Website:</b> <br><b>Wikipedia:</b> <br><b>Telefon:</b> ", "timestamp": null, "begin": null, "end": null, "altitudeMode": null, "tessellate": -1, "extrude": 0, "visibility": -1, "drawOrder": null, "icon": null, "category_group": "Information"}, "geometry": {"type": "Point", "coordinates": [9.8700811, 50.5348693]}}, {"type": "Feature", "properties": {"Name": "Milseburgweg", "description": "<b>Kategorie:</b> Information — Besucherinformation<br><b>Distanz:</b> 3088 m<br><b>Website:</b> <br><b>Wikipedia:</b> <br><b>Telefon:</b> ", "timestamp": null, "begin": null, "end": null, "altitudeMode": null, "tessellate": -1, "extrude": 0, "visibility": -1, "drawOrder": null, "icon": null, "category_group": "Information"}, "geometry": {"type": "Point", "coordinates": [9.8752152, 50.5353599]}}, {"type": "Feature", "properties": {"Name": "Alter Hozschuppen", "description": "<b>Kategorie:</b> Information — Besucherinformation<br><b>Distanz:</b> 2646 m<br><b>Website:</b> <br><b>Wikipedia:</b> <br><b>Telefon:</b> ", "timestamp": null, "begin": null, "end": null, "altitudeMode": null, "tessellate": -1, "extrude": 0, "visibility": -1, "drawOrder": null, "icon": null, "category_group": "Information"}, "geometry": {"type": "Point", "coordinates": [9.8751804, 50.5410865]}}, {"type": "Feature", "properties": {"Name": "Naturschutzgebiet Kernzone", "description": "<b>Kategorie:</b> Information — Besucherinformation<br><b>Distanz:</b> 2645 m<br><b>Website:</b> <br><b>Wikipedia:</b> <br><b>Telefon:</b> ", "timestamp": null, "begin": null, "end": null, "altitudeMode": null, "tessellate": -1, "extrude": 0, "visibility": -1, "drawOrder": null, "icon": null, "category_group": "Information"}, "geometry": {"type": "Point", "coordinates": [9.875266, 50.5410299]}}, {"type": "Feature", "properties": {"Name": "Naturdenkmal Hauenstein", "description": "<b>Kategorie:</b> Information — Besucherinformation<br><b>Distanz:</b> 2582 m<br><b>Website:</b> <br><b>Wikipedia:</b> <br><b>Telefon:</b> ", "timestamp": null, "begin": null, "end": null, "altitudeMode": null, "tessellate": -1, "extrude": 0, "visibility": -1, "drawOrder": null, "icon": null, "category_group": "Information"}, "geometry": {"type": "Point", "coordinates": [9.8812892, 50.5380516]}}, {"type": "Feature", "properties": {"Name": "Naturschutzgebiet", "description": "<b>Kategorie:</b> Information — Besucherinformation<br><b>Distanz:</b> 1551 m<br><b>Website:</b> <br><b>Wikipedia:</b> <br><b>Telefon:</b> ", "timestamp": null, "begin": null, "end": null, "altitudeMode": null, "tessellate": -1, "extrude": 0, "visibility": -1, "drawOrder": null, "icon": null, "category_group": "Information"}, "geometry": {"type": "Point", "coordinates": [9.8984271, 50.542729]}}, {"type": "Feature", "properties": {"Name": "Schutz und Symbol", "description": "<b>Kategorie:</b> Information — Besucherinformation<br><b>Distanz:</b> 1393 m<br><b>Website:</b> <br><b>Wikipedia:</b> <br><b>Telefon:</b> ", "timestamp": null, "begin": null, "end": null, "altitudeMode": null, "tessellate": -1, "extrude": 0, "visibility": -1, "drawOrder": null, "icon": null, "category_group": "Information"}, "geometry": {"type": "Point", "coordinates": [9.9005402, 50.5438828]}}, {"type": "Feature", "properties": {"Name": "Bevor die Mauer stand", "description": "<b>Kategorie:</b> Information — Besucherinformation<br><b>Distanz:</b> 1394 m<br><b>Website:</b> <br><b>Wikipedia:</b> <br><b>Telefon:</b> ", "timestamp": null, "begin": null, "end": null, "altitudeMode": null, "tessellate": -1, "extrude": 0, "visibility": -1, "drawOrder": null, "icon": null, "category_group": "Information"}, "geometry": {"type": "Point", "coordinates": [9.9002491, 50.5439102]}}, {"type": "Feature", "properties": {"Name": "Der Gänseborn", "description": "<b>Kategorie:</b> Information — Besucherinformation<br><b>Distanz:</b> 1436 m<br><b>Website:</b> <br><b>Wikipedia:</b> <br><b>Telefon:</b> ", "timestamp": null, "begin": null, "end": null, "altitudeMode": null, "tessellate": -1, "extrude": 0, "visibility": -1, "drawOrder": null, "icon": null, "category_group": "Information"}, "geometry": {"type": "Point", "coordinates": [9.8994709, 50.5436316]}}, {"type": "Feature", "properties": {"Name": "Naturschutzgebiet Kernzone", "description": "<b>Kategorie:</b> Information — Besucherinformation<br><b>Distanz:</b> 1502 m<br><b>Website:</b> <br><b>Wikipedia:</b> <br><b>Telefon:</b> ", "timestamp": null, "begin": null, "end": null, "altitudeMode": null, "tessellate": -1, "extrude": 0, "visibility": -1, "drawOrder": null, "icon": null, "category_group": "Information"}, "geometry": {"type": "Point", "coordinates": [9.8983835, 50.5431922]}}, {"type": "Feature", "properties": {"Name": "Die Annexwälle", "description": "<b>Kategorie:</b> Information — Besucherinformation<br><b>Distanz:</b> 1506 m<br><b>Website:</b> <br><b>Wikipedia:</b> <br><b>Telefon:</b> ", "timestamp": null, "begin": null, "end": null, "altitudeMode": null, "tessellate": -1, "extrude": 0, "visibility": -1, "drawOrder": null, "icon": null, "category_group": "Information"}, "geometry": {"type": "Point", "coordinates": [9.89835, 50.5431572]}}, {"type": "Feature", "properties": {"Name": "Milseburg", "description": "<b>Kategorie:</b> Information — Besucherinformation<br><b>Distanz:</b>  976 m<br><b>Website:</b> <br><b>Wikipedia:</b> <br><b>Telefon:</b> ", "timestamp": null, "begin": null, "end": null, "altitudeMode": null, "tessellate": -1, "extrude": 0, "visibility": -1, "drawOrder": null, "icon": null, "category_group": "Information"}, "geometry": {"type": "Point", "coordinates": [9.8940927, 50.5501144]}}, {"type": "Feature", "properties": {"Name": "Der Rotmilan - Charaktervogel der Rhön", "description": "<b>Kategorie:</b> Information — Besucherinformation<br><b>Distanz:</b>  746 m<br><b>Website:</b> <br><b>Wikipedia:</b> <br><b>Telefon:</b> ", "timestamp": null, "begin": null, "end": null, "altitudeMode": null, "tessellate": -1, "extrude": 0, "visibility": -1, "drawOrder": null, "icon": null, "category_group": "Information"}, "geometry": {"type": "Point", "coordinates": [9.8965935, 50.5514428]}}, {"type": "Feature", "properties": {"Name": "Die Milseburg", "description": "<b>Kategorie:</b> Information — Besucherinformation<br><b>Distanz:</b>  734 m<br><b>Website:</b> <br><b>Wikipedia:</b> <br><b>Telefon:</b> ", "timestamp": null, "begin": null, "end": null, "altitudeMode": null, "tessellate": -1, "extrude": 0, "visibility": -1, "drawOrder": null, "icon": null, "category_group": "Information"}, "geometry": {"type": "Point", "coordinates": [9.8966981, 50.551525]}}, {"type": "Feature", "properties": {"Name": "Naturschutzgebiet Kernzone", "description": "<b>Kategorie:</b> Information — Besucherinformation<br><b>Distanz:</b> 2854 m<br><b>Website:</b> <br><b>Wikipedia:</b> <br><b>Telefon:</b> ", "timestamp": null, "begin": null, "end": null, "altitudeMode": null, "tessellate": -1, "extrude": 0, "visibility": -1, "drawOrder": null, "icon": null, "category_group": "Information"}, "geometry": {"type": "Point", "coordinates": [9.8763095, 50.5375722]}}, {"type": "Feature", "properties": {"Name": "Naturschutzgebiet Kernzone", "description": "<b>Kategorie:</b> Information — Besucherinformation<br><b>Distanz:</b> 1386 m<br><b>Website:</b> <br><b>Wikipedia:</b> <br><b>Telefon:</b> ", "timestamp": null, "begin": null, "end": null, "altitudeMode": null, "tessellate": -1, "extrude": 0, "visibility": -1, "drawOrder": null, "icon": null, "category_group": "Information"}, "geometry": {"type": "Point", "coordinates": [9.8915534, 50.5466009]}}, {"type": "Feature", "properties": {"Name": "Pfundsmuseum", "description": "<b>Kategorie:</b> Kultur & Geschichte — Museum<br><b>Distanz:</b> 2046 m<br><b>Website:</b> https://www.pfunds-museum.de/<br><b>Wikipedia:</b> de:Pfundsmuseum<br><b>Telefon:</b> ", "timestamp": null, "begin": null, "end": null, "altitudeMode": null, "tessellate": -1, "extrude": 0, "visibility": -1, "drawOrder": null, "icon": null, "category_group": "Kultur & Geschichte"}, "geometry": {"type": "Point", "coordinates": [9.8764729, 50.5506337]}}, {"type": "Feature", "properties": {"Name": "Honigkuchen und Wachsmuseum", "description": "<b>Kategorie:</b> Kultur & Geschichte — Museum<br><b>Distanz:</b>  606 m<br><b>Website:</b> <br><b>Wikipedia:</b> <br><b>Telefon:</b> ", "timestamp": null, "begin": null, "end": null, "altitudeMode": null, "tessellate": -1, "extrude": 0, "visibility": -1, "drawOrder": null, "icon": null, "category_group": "Kultur & Geschichte"}, "geometry": {"type": "Point", "coordinates": [9.9109434, 50.5594017]}}, {"type": "Feature", "properties": {"Name": "Himmelsschauplatz Milseburg", "description": "<b>Kategorie:</b> Kultur & Geschichte — Attraktion<br><b>Distanz:</b> 1364 m<br><b>Website:</b> <br><b>Wikipedia:</b> <br><b>Telefon:</b> ", "timestamp": null, "begin": null, "end": null, "altitudeMode": null, "tessellate": -1, "extrude": 0, "visibility": -1, "drawOrder": null, "icon": null, "category_group": "Kultur & Geschichte"}, "geometry": {"type": "Point", "coordinates": [9.9031489, 50.5439565]}}, {"type": "Feature", "properties": {"Name": "Milseburg", "description": "<b>Kategorie:</b> Natur & Landschaft — Natur-Feature (alle)<br><b>Distanz:</b> 1345 m<br><b>Website:</b> <br><b>Wikipedia:</b> de:Milseburg<br><b>Telefon:</b> ", "timestamp": null, "begin": null, "end": null, "altitudeMode": null, "tessellate": -1, "extrude": 0, "visibility": -1, "drawOrder": null, "icon": null, "category_group": "Natur & Landschaft"}, "geometry": {"type": "Point", "coordinates": [9.8981008, 50.5447224]}}, {"type": "Feature", "properties": {"Name": "Bubenbader Stein", "description": "<b>Kategorie:</b> Natur & Landschaft — Natur-Feature (alle)<br><b>Distanz:</b> 2063 m<br><b>Website:</b> <br><b>Wikipedia:</b> de:Bubenbader Stein<br><b>Telefon:</b> ", "timestamp": null, "begin": null, "end": null, "altitudeMode": null, "tessellate": -1, "extrude": 0, "visibility": -1, "drawOrder": null, "icon": null, "category_group": "Natur & Landschaft"}, "geometry": {"type": "Point", "coordinates": [9.9112087, 50.5382438]}}, {"type": "Feature", "properties": {"Name": "Stellberg", "description": "<b>Kategorie:</b> Natur & Landschaft — Natur-Feature (alle)<br><b>Distanz:</b> 2930 m<br><b>Website:</b> <br><b>Wikipedia:</b> <br><b>Telefon:</b> ", "timestamp": null, "begin": null, "end": null, "altitudeMode": null, "tessellate": -1, "extrude": 0, "visibility": -1, "drawOrder": null, "icon": null, "category_group": "Natur & Landschaft"}, "geometry": {"type": "Point", "coordinates": [9.8739147, 50.5381354]}}, {"type": "Feature", "properties": {"Name": "Oberbernhardser Höhe", "description": "<b>Kategorie:</b> Natur & Landschaft — Natur-Feature (alle)<br><b>Distanz:</b>  409 m<br><b>Website:</b> <br><b>Wikipedia:</b> <br><b>Telefon:</b> ", "timestamp": null, "begin": null, "end": null, "altitudeMode": null, "tessellate": -1, "extrude": 0, "visibility": -1, "drawOrder": null, "icon": null, "category_group": "Natur & Landschaft"}, "geometry": {"type": "Point", "coordinates": [9.8993179, 50.5583746]}}, {"type": "Feature", "properties": {"Name": "Großer Ziegenkopf", "description": "<b>Kategorie:</b> Natur & Landschaft — Natur-Feature (alle)<br><b>Distanz:</b> 1533 m<br><b>Website:</b> <br><b>Wikipedia:</b> <br><b>Telefon:</b> ", "timestamp": null, "begin": null, "end": null, "altitudeMode": null, "tessellate": -1, "extrude": 0, "visibility": -1, "drawOrder": null, "icon": null, "category_group": "Natur & Landschaft"}, "geometry": {"type": "Point", "coordinates": [9.8827349, 50.5587904]}}, {"type": "Feature", "properties": {"Name": "Schackenberg", "description": "<b>Kategorie:</b> Natur & Landschaft — Natur-Feature (alle)<br><b>Distanz:</b> 2336 m<br><b>Website:</b> <br><b>Wikipedia:</b> <br><b>Telefon:</b> ", "timestamp": null, "begin": null, "end": null, "altitudeMode": null, "tessellate": -1, "extrude": 0, "visibility": -1, "drawOrder": null, "icon": null, "category_group": "Natur & Landschaft"}, "geometry": {"type": "Point", "coordinates": [9.8772038, 50.568463]}}, {"type": "Feature", "properties": {"Name": "Kleiner Ziegenkopf", "description": "<b>Kategorie:</b> Natur & Landschaft — Natur-Feature (alle)<br><b>Distanz:</b> 1380 m<br><b>Website:</b> <br><b>Wikipedia:</b> <br><b>Telefon:</b> ", "timestamp": null, "begin": null, "end": null, "altitudeMode": null, "tessellate": -1, "extrude": 0, "visibility": -1, "drawOrder": null, "icon": null, "category_group": "Natur & Landschaft"}, "geometry": {"type": "Point", "coordinates": [9.8858281, 50.560689]}}, {"type": "Feature", "properties": {"Name": "Harbachstein", "description": "<b>Kategorie:</b> Natur & Landschaft — Natur-Feature (alle)<br><b>Distanz:</b> 2078 m<br><b>Website:</b> <br><b>Wikipedia:</b> <br><b>Telefon:</b> ", "timestamp": null, "begin": null, "end": null, "altitudeMode": null, "tessellate": -1, "extrude": 0, "visibility": -1, "drawOrder": null, "icon": null, "category_group": "Natur & Landschaft"}, "geometry": {"type": "Point", "coordinates": [9.9288426, 50.5661578]}}, {"type": "Feature", "properties": {"Name": "Bomberg", "description": "<b>Kategorie:</b> Natur & Landschaft — Natur-Feature (alle)<br><b>Distanz:</b> 1855 m<br><b>Website:</b> <br><b>Wikipedia:</b> <br><b>Telefon:</b> ", "timestamp": null, "begin": null, "end": null, "altitudeMode": null, "tessellate": -1, "extrude": 0, "visibility": -1, "drawOrder": null, "icon": null, "category_group": "Natur & Landschaft"}, "geometry": {"type": "Point", "coordinates": [9.9150299, 50.5713466]}}, {"type": "Feature", "properties": {"Name": "Hohlstein", "description": "<b>Kategorie:</b> Natur & Landschaft — Natur-Feature (alle)<br><b>Distanz:</b> 1281 m<br><b>Website:</b> <br><b>Wikipedia:</b> <br><b>Telefon:</b> ", "timestamp": null, "begin": null, "end": null, "altitudeMode": null, "tessellate": -1, "extrude": 0, "visibility": -1, "drawOrder": null, "icon": null, "category_group": "Natur & Landschaft"}, "geometry": {"type": "Point", "coordinates": [9.8969958, 50.5668319]}}, {"type": "Feature", "properties": {"Name": "Oberbernhardser Köpfe", "description": "<b>Kategorie:</b> Natur & Landschaft — Natur-Feature (alle)<br><b>Distanz:</b>  840 m<br><b>Website:</b> <br><b>Wikipedia:</b> <br><b>Telefon:</b> ", "timestamp": null, "begin": null, "end": null, "altitudeMode": null, "tessellate": -1, "extrude": 0, "visibility": -1, "drawOrder": null, "icon": null, "category_group": "Natur & Landschaft"}, "geometry": {"type": "Point", "coordinates": [9.9056127, 50.5636969]}}, {"type": "Feature", "properties": {"Name": "Vorderstellberg", "description": "<b>Kategorie:</b> Natur & Landschaft — Natur-Feature (alle)<br><b>Distanz:</b> 1622 m<br><b>Website:</b> <br><b>Wikipedia:</b> <br><b>Telefon:</b> ", "timestamp": null, "begin": null, "end": null, "altitudeMode": null, "tessellate": -1, "extrude": 0, "visibility": -1, "drawOrder": null, "icon": null, "category_group": "Natur & Landschaft"}, "geometry": {"type": "Point", "coordinates": [9.8831233, 50.5502189]}}, {"type": "Feature", "properties": {"Name": "Köhlersbrunnen", "description": "<b>Kategorie:</b> Natur & Landschaft — Natur-Feature (alle)<br><b>Distanz:</b> 1762 m<br><b>Website:</b> <br><b>Wikipedia:</b> <br><b>Telefon:</b> ", "timestamp": null, "begin": null, "end": null, "altitudeMode": null, "tessellate": -1, "extrude": 0, "visibility": -1, "drawOrder": null, "icon": null, "category_group": "Natur & Landschaft"}, "geometry": {"type": "Point", "coordinates": [9.8995791, 50.5718045]}}, {"type": "Feature", "properties": {"Name": "Der Gänsborn", "description": "<b>Kategorie:</b> Natur & Landschaft — Natur-Feature (alle)<br><b>Distanz:</b> 1434 m<br><b>Website:</b> <br><b>Wikipedia:</b> <br><b>Telefon:</b> ", "timestamp": null, "begin": null, "end": null, "altitudeMode": null, "tessellate": -1, "extrude": 0, "visibility": -1, "drawOrder": null, "icon": null, "category_group": "Natur & Landschaft"}, "geometry": {"type": "Point", "coordinates": [9.8995029, 50.5436388]}}, {"type": "Feature", "properties": {"Name": "Liedenküppel", "description": "<b>Kategorie:</b> Natur & Landschaft — Natur-Feature (alle)<br><b>Distanz:</b> 1240 m<br><b>Website:</b> <br><b>Wikipedia:</b> <br><b>Telefon:</b> ", "timestamp": null, "begin": null, "end": null, "altitudeMode": null, "tessellate": -1, "extrude": 0, "visibility": -1, "drawOrder": null, "icon": null, "category_group": "Natur & Landschaft"}, "geometry": {"type": "Point", "coordinates": [9.8917925, 50.5482223]}}]}