{
"type": "FeatureCollection",
"name": "merged",
"features": [
{ "type": "Feature", "properties": { "Name": "JH 427 — Jugendherberge Burg Lichtenberg", "description": "<b>JH Nr:</b> 427<br><b>Name:</b> Jugendherberge Burg Lichtenberg<br><b>Ort:</b> Thallichtenberg", "tessellate": -1, "extrude": 0, "visibility": -1 }, "geometry": { "type": "Point", "coordinates": [ 7.3572341, 49.5558814 ] } },
{ "type": "Feature", "properties": { "Name": "Burg Lichtenberg\/K 23", "description": "<b>Kategorie:<\/b> Information — Besucherinformation<br><b>Distanz:<\/b>  170 m<br><b>Website:<\/b> <br><b>Wikipedia:<\/b> <br><b>Telefon:<\/b> ", "tessellate": -1, "extrude": 0, "visibility": -1 }, "geometry": { "type": "Point", "coordinates": [ 7.3591976, 49.5567139 ] } },
{ "type": "Feature", "properties": { "Name": "Abzweig Körborn", "description": "<b>Kategorie:<\/b> Information — Besucherinformation<br><b>Distanz:<\/b>  938 m<br><b>Website:<\/b> <br><b>Wikipedia:<\/b> <br><b>Telefon:<\/b> ", "tessellate": -1, "extrude": 0, "visibility": -1 }, "geometry": { "type": "Point", "coordinates": [ 7.3699244, 49.5576287 ] } },
{ "type": "Feature", "properties": { "Name": "Kusel: Auf dem Wingert", "description": "<b>Kategorie:<\/b> Information — Besucherinformation<br><b>Distanz:<\/b> 1251 m<br><b>Website:<\/b> <br><b>Wikipedia:<\/b> <br><b>Telefon:<\/b> ", "tessellate": -1, "extrude": 0, "visibility": -1 }, "geometry": { "type": "Point", "coordinates": [ 7.3744151, 49.5545959 ] } },
{ "type": "Feature", "properties": { "Name": "Kusel: Kreuzung Preußensteig \/ Veldenz Wanderweg", "description": "<b>Kategorie:<\/b> Information — Besucherinformation<br><b>Distanz:<\/b> 2260 m<br><b>Website:<\/b> <br><b>Wikipedia:<\/b> <br><b>Telefon:<\/b> ", "tessellate": -1, "extrude": 0, "visibility": -1 }, "geometry": { "type": "Point", "coordinates": [ 7.3853851, 49.5470722 ] } },
{ "type": "Feature", "properties": { "Name": "Diedelkopf, Trierer Straße\/ehem. Bahndamm", "description": "<b>Kategorie:<\/b> Information — Besucherinformation<br><b>Distanz:<\/b> 2707 m<br><b>Website:<\/b> <br><b>Wikipedia:<\/b> <br><b>Telefon:<\/b> ", "tessellate": -1, "extrude": 0, "visibility": -1 }, "geometry": { "type": "Point", "coordinates": [ 7.3909718, 49.5453586 ] } },
{ "type": "Feature", "properties": { "Name": "Fritz-Wunderlich-Radweg", "description": "<b>Kategorie:<\/b> Information — Besucherinformation<br><b>Distanz:<\/b>  903 m<br><b>Website:<\/b> <br><b>Wikipedia:<\/b> <br><b>Telefon:<\/b> ", "tessellate": -1, "extrude": 0, "visibility": -1 }, "geometry": { "type": "Point", "coordinates": [ 7.3463147, 49.5519376 ] } },
{ "type": "Feature", "properties": { "Name": "Geschichte Burg Lichtenberg", "description": "<b>Kategorie:<\/b> Information — Besucherinformation<br><b>Distanz:<\/b>   46 m<br><b>Website:<\/b> <br><b>Wikipedia:<\/b> <br><b>Telefon:<\/b> ", "tessellate": -1, "extrude": 0, "visibility": -1 }, "geometry": { "type": "Point", "coordinates": [ 7.3577707, 49.556105 ] } },
{ "type": "Feature", "properties": { "Name": "Natur-Fitness-Park", "description": "<b>Kategorie:<\/b> Information — Besucherinformation<br><b>Distanz:<\/b>  128 m<br><b>Website:<\/b> <br><b>Wikipedia:<\/b> <br><b>Telefon:<\/b> ", "tessellate": -1, "extrude": 0, "visibility": -1 }, "geometry": { "type": "Point", "coordinates": [ 7.3584634, 49.5567144 ] } },
{ "type": "Feature", "properties": { "Name": "Burgen-Radweg", "description": "<b>Kategorie:<\/b> Information — Besucherinformation<br><b>Distanz:<\/b>  132 m<br><b>Website:<\/b> <br><b>Wikipedia:<\/b> <br><b>Telefon:<\/b> ", "tessellate": -1, "extrude": 0, "visibility": -1 }, "geometry": { "type": "Point", "coordinates": [ 7.3583524, 49.5568142 ] } },
{ "type": "Feature", "properties": { "Name": "Ehemaliger Steinbruch, Unter der Burg'", "description": "<b>Kategorie:<\/b> Information — Besucherinformation<br><b>Distanz:<\/b>  393 m<br><b>Website:<\/b> <br><b>Wikipedia:<\/b> <br><b>Telefon:<\/b> ", "tessellate": -1, "extrude": 0, "visibility": -1 }, "geometry": { "type": "Point", "coordinates": [ 7.3532318, 49.5534954 ] } },
{ "type": "Feature", "properties": { "Name": "Wanderwege", "description": "<b>Kategorie:<\/b> Information — Besucherinformation<br><b>Distanz:<\/b>  130 m<br><b>Website:<\/b> <br><b>Wikipedia:<\/b> <br><b>Telefon:<\/b> ", "tessellate": -1, "extrude": 0, "visibility": -1 }, "geometry": { "type": "Point", "coordinates": [ 7.3583318, 49.5568103 ] } },
{ "type": "Feature", "properties": { "Name": "Burg", "description": "<b>Kategorie:<\/b> Information — Besucherinformation<br><b>Distanz:<\/b>  128 m<br><b>Website:<\/b> <br><b>Wikipedia:<\/b> <br><b>Telefon:<\/b> ", "tessellate": -1, "extrude": 0, "visibility": -1 }, "geometry": { "type": "Point", "coordinates": [ 7.358449, 49.5567208 ] } },
{ "type": "Feature", "properties": { "Name": "Landschreiberei", "description": "<b>Kategorie:<\/b> Information — Besucherinformation<br><b>Distanz:<\/b>   18 m<br><b>Website:<\/b> <br><b>Wikipedia:<\/b> <br><b>Telefon:<\/b> ", "tessellate": -1, "extrude": 0, "visibility": -1 }, "geometry": { "type": "Point", "coordinates": [ 7.3574621, 49.5559377 ] } },
{ "type": "Feature", "properties": { "Name": "Mittelalterlicher Kräutergarten", "description": "<b>Kategorie:<\/b> Information — Besucherinformation<br><b>Distanz:<\/b>  225 m<br><b>Website:<\/b> <br><b>Wikipedia:<\/b> <br><b>Telefon:<\/b> ", "tessellate": -1, "extrude": 0, "visibility": -1 }, "geometry": { "type": "Point", "coordinates": [ 7.3542612, 49.5552872 ] } },
{ "type": "Feature", "properties": { "Name": "Die Kräuterschnecke (Kräuterspirale)", "description": "<b>Kategorie:<\/b> Information — Besucherinformation<br><b>Distanz:<\/b>  225 m<br><b>Website:<\/b> <br><b>Wikipedia:<\/b> <br><b>Telefon:<\/b> ", "tessellate": -1, "extrude": 0, "visibility": -1 }, "geometry": { "type": "Point", "coordinates": [ 7.3542948, 49.5552109 ] } },
{ "type": "Feature", "properties": { "Name": "Waldgaststätte Hubehaus", "description": "<b>Kategorie:<\/b> Kinder & Jugend — Spielplatz<br><b>Distanz:<\/b> 2600 m<br><b>Website:<\/b> <br><b>Wikipedia:<\/b> <br><b>Telefon:<\/b> ", "tessellate": -1, "extrude": 0, "visibility": -1 }, "geometry": { "type": "Point", "coordinates": [ 7.3857848, 49.5416864 ] } },
{ "type": "Feature", "properties": { "Name": "Musikantenland-Museum", "description": "<b>Kategorie:<\/b> Kultur & Geschichte — Museum<br><b>Distanz:<\/b>  137 m<br><b>Website:<\/b> <br><b>Wikipedia:<\/b> de:Musikantenland-Museum<br><b>Telefon:<\/b> ", "tessellate": -1, "extrude": 0, "visibility": -1 }, "geometry": { "type": "Point", "coordinates": [ 7.3553567, 49.5557261 ] } },
{ "type": "Feature", "properties": { "Name": "Bergfried", "description": "<b>Kategorie:<\/b> Natur & Landschaft — Aussichtspunkt<br><b>Distanz:<\/b>   37 m<br><b>Website:<\/b> <br><b>Wikipedia:<\/b> <br><b>Telefon:<\/b> ", "tessellate": -1, "extrude": 0, "visibility": -1 }, "geometry": { "type": "Point", "coordinates": [ 7.3567632, 49.55602 ] } },
{ "type": "Feature", "properties": { "Name": "Schweisberg", "description": "<b>Kategorie:<\/b> Natur & Landschaft — Natur-Feature (alle)<br><b>Distanz:<\/b> 2445 m<br><b>Website:<\/b> <br><b>Wikipedia:<\/b> <br><b>Telefon:<\/b> ", "tessellate": -1, "extrude": 0, "visibility": -1 }, "geometry": { "type": "Point", "coordinates": [ 7.3286705, 49.567643 ] } },
{ "type": "Feature", "properties": { "Name": "Salzquelle", "description": "<b>Kategorie:<\/b> Natur & Landschaft — Natur-Feature (alle)<br><b>Distanz:<\/b> 2338 m<br><b>Website:<\/b> <br><b>Wikipedia:<\/b> <br><b>Telefon:<\/b> ", "tessellate": -1, "extrude": 0, "visibility": -1 }, "geometry": { "type": "Point", "coordinates": [ 7.3855399, 49.5457293 ] } },
{ "type": "Feature", "properties": { "Name": "Mittelberg", "description": "<b>Kategorie:<\/b> Natur & Landschaft — Natur-Feature (alle)<br><b>Distanz:<\/b> 2021 m<br><b>Website:<\/b> <br><b>Wikipedia:<\/b> <br><b>Telefon:<\/b> ", "tessellate": -1, "extrude": 0, "visibility": -1 }, "geometry": { "type": "Point", "coordinates": [ 7.3338689, 49.5658512 ] } },
{ "type": "Feature", "properties": { "Name": "Blick auf Burg Lichtenberg & Steinbruch", "description": "<b>Kategorie:<\/b> Natur & Landschaft — Aussichtspunkt<br><b>Distanz:<\/b> 1911 m<br><b>Website:<\/b> <br><b>Wikipedia:<\/b> <br><b>Telefon:<\/b> ", "tessellate": -1, "extrude": 0, "visibility": -1 }, "geometry": { "type": "Point", "coordinates": [ 7.3322732, 49.5502618 ] } }
]
}
