{
"type": "FeatureCollection",
"name": "merged",
"features": [
{ "type": "Feature", "properties": { "Name": "JH 429 — Mosel-Jugendherberge", "description": "<b>JH Nr:</b> 429<br><b>Name:</b> Mosel-Jugendherberge<br><b>Ort:</b> Traben-Trarbach", "tessellate": -1, "extrude": 0, "visibility": -1 }, "geometry": { "type": "Point", "coordinates": [ 7.1274241, 49.9592986 ] } },
{ "type": "Feature", "properties": { "Name": "Ruderclub Traben-Trarbach 1881 e. V", "description": "<b>Kategorie:<\/b> Bildungsinfrastruktur — Gemeindezentrum<br><b>Distanz:<\/b>  872 m<br><b>Website:<\/b> <br><b>Wikipedia:<\/b> <br><b>Telefon:<\/b> ", "tessellate": -1, "extrude": 0, "visibility": -1 }, "geometry": { "type": "Point", "coordinates": [ 7.1293168, 49.951553 ] } },
{ "type": "Feature", "properties": { "Name": "Stadtbücherei Traben-Trarbach", "description": "<b>Kategorie:<\/b> Bildungsinfrastruktur — Bibliothek<br><b>Distanz:<\/b> 1583 m<br><b>Website:<\/b> <br><b>Wikipedia:<\/b> <br><b>Telefon:<\/b> ", "tessellate": -1, "extrude": 0, "visibility": -1 }, "geometry": { "type": "Point", "coordinates": [ 7.113107, 49.9484723 ] } },
{ "type": "Feature", "properties": { "Name": "Hafen Traben-Trarbach", "description": "<b>Kategorie:<\/b> Freizeit & Sport — Yachthafen<br><b>Distanz:<\/b>  861 m<br><b>Website:<\/b> <br><b>Wikipedia:<\/b> <br><b>Telefon:<\/b> +49 6541 2300", "tessellate": -1, "extrude": 0, "visibility": -1 }, "geometry": { "type": "Point", "coordinates": [ 7.1308656, 49.9667119 ] } },
{ "type": "Feature", "properties": { "Name": "Tourist-Information Traben-Trarbach", "description": "<b>Kategorie:<\/b> Information — Besucherinformation<br><b>Distanz:<\/b> 1078 m<br><b>Website:<\/b> <br><b>Wikipedia:<\/b> <br><b>Telefon:<\/b> ", "tessellate": -1, "extrude": 0, "visibility": -1 }, "geometry": { "type": "Point", "coordinates": [ 7.1187122, 49.9514039 ] } },
{ "type": "Feature", "properties": { "Name": "Festung Mont Royal", "description": "<b>Kategorie:<\/b> Information — Besucherinformation<br><b>Distanz:<\/b> 1703 m<br><b>Website:<\/b> <br><b>Wikipedia:<\/b> <br><b>Telefon:<\/b> ", "tessellate": -1, "extrude": 0, "visibility": -1 }, "geometry": { "type": "Point", "coordinates": [ 7.1138855, 49.971878 ] } },
{ "type": "Feature", "properties": { "Name": "Kasernen", "description": "<b>Kategorie:<\/b> Information — Besucherinformation<br><b>Distanz:<\/b> 1959 m<br><b>Website:<\/b> <br><b>Wikipedia:<\/b> <br><b>Telefon:<\/b> ", "tessellate": -1, "extrude": 0, "visibility": -1 }, "geometry": { "type": "Point", "coordinates": [ 7.1169557, 49.9755687 ] } },
{ "type": "Feature", "properties": { "Name": "Stadtteil Traben", "description": "<b>Kategorie:<\/b> Information — Besucherinformation<br><b>Distanz:<\/b> 1057 m<br><b>Website:<\/b> <br><b>Wikipedia:<\/b> <br><b>Telefon:<\/b> ", "tessellate": -1, "extrude": 0, "visibility": -1 }, "geometry": { "type": "Point", "coordinates": [ 7.1194092, 49.9513271 ] } },
{ "type": "Feature", "properties": { "Name": "Ehemaliges Oberamtsgebäude", "description": "<b>Kategorie:<\/b> Information — Besucherinformation<br><b>Distanz:<\/b> 1613 m<br><b>Website:<\/b> <br><b>Wikipedia:<\/b> <br><b>Telefon:<\/b> ", "tessellate": -1, "extrude": 0, "visibility": -1 }, "geometry": { "type": "Point", "coordinates": [ 7.1117351, 49.9489121 ] } },
{ "type": "Feature", "properties": { "Name": "Lauschtour Traben-Trarbach", "description": "<b>Kategorie:<\/b> Information — Besucherinformation<br><b>Distanz:<\/b> 1072 m<br><b>Website:<\/b> <br><b>Wikipedia:<\/b> <br><b>Telefon:<\/b> ", "tessellate": -1, "extrude": 0, "visibility": -1 }, "geometry": { "type": "Point", "coordinates": [ 7.119142, 49.9512764 ] } },
{ "type": "Feature", "properties": { "Name": "Moselsteig-Etappenort Traben-Trarbach", "description": "<b>Kategorie:<\/b> Information — Besucherinformation<br><b>Distanz:<\/b> 1511 m<br><b>Website:<\/b> <br><b>Wikipedia:<\/b> <br><b>Telefon:<\/b> ", "tessellate": -1, "extrude": 0, "visibility": -1 }, "geometry": { "type": "Point", "coordinates": [ 7.1129005, 49.9494556 ] } },
{ "type": "Feature", "properties": { "Name": "Nord-Hornwerk \"Eifel\"", "description": "<b>Kategorie:<\/b> Information — Besucherinformation<br><b>Distanz:<\/b> 2417 m<br><b>Website:<\/b> <br><b>Wikipedia:<\/b> <br><b>Telefon:<\/b> ", "tessellate": -1, "extrude": 0, "visibility": -1 }, "geometry": { "type": "Point", "coordinates": [ 7.113202, 49.9789984 ] } },
{ "type": "Feature", "properties": { "Name": "Kaponierre", "description": "<b>Kategorie:<\/b> Information — Besucherinformation<br><b>Distanz:<\/b> 2443 m<br><b>Website:<\/b> <br><b>Wikipedia:<\/b> <br><b>Telefon:<\/b> ", "tessellate": -1, "extrude": 0, "visibility": -1 }, "geometry": { "type": "Point", "coordinates": [ 7.1133876, 49.9793188 ] } },
{ "type": "Feature", "properties": { "Name": "Nordwest-Bollwerk", "description": "<b>Kategorie:<\/b> Information — Besucherinformation<br><b>Distanz:<\/b> 2285 m<br><b>Website:<\/b> <br><b>Wikipedia:<\/b> <br><b>Telefon:<\/b> ", "tessellate": -1, "extrude": 0, "visibility": -1 }, "geometry": { "type": "Point", "coordinates": [ 7.1141302, 49.9779722 ] } },
{ "type": "Feature", "properties": { "Name": "Ost-Bollturm", "description": "<b>Kategorie:<\/b> Information — Besucherinformation<br><b>Distanz:<\/b> 1969 m<br><b>Website:<\/b> <br><b>Wikipedia:<\/b> <br><b>Telefon:<\/b> ", "tessellate": -1, "extrude": 0, "visibility": -1 }, "geometry": { "type": "Point", "coordinates": [ 7.1173017, 49.9757551 ] } },
{ "type": "Feature", "properties": { "Name": "Mauer", "description": "<b>Kategorie:<\/b> Information — Besucherinformation<br><b>Distanz:<\/b> 2197 m<br><b>Website:<\/b> <br><b>Wikipedia:<\/b> <br><b>Telefon:<\/b> ", "tessellate": -1, "extrude": 0, "visibility": -1 }, "geometry": { "type": "Point", "coordinates": [ 7.1170785, 49.9778898 ] } },
{ "type": "Feature", "properties": { "Name": "Wasserbrunnen", "description": "<b>Kategorie:<\/b> Information — Besucherinformation<br><b>Distanz:<\/b> 1930 m<br><b>Website:<\/b> <br><b>Wikipedia:<\/b> <br><b>Telefon:<\/b> ", "tessellate": -1, "extrude": 0, "visibility": -1 }, "geometry": { "type": "Point", "coordinates": [ 7.1140634, 49.9743591 ] } },
{ "type": "Feature", "properties": { "Name": "\"Stumpfer Turm\"", "description": "<b>Kategorie:<\/b> Information — Besucherinformation<br><b>Distanz:<\/b> 1637 m<br><b>Website:<\/b> <br><b>Wikipedia:<\/b> <br><b>Telefon:<\/b> ", "tessellate": -1, "extrude": 0, "visibility": -1 }, "geometry": { "type": "Point", "coordinates": [ 7.1134985, 49.9476415 ] } },
{ "type": "Feature", "properties": { "Name": "Die Burg von Starkenburg", "description": "<b>Kategorie:<\/b> Information — Besucherinformation<br><b>Distanz:<\/b>  785 m<br><b>Website:<\/b> <br><b>Wikipedia:<\/b> <br><b>Telefon:<\/b> ", "tessellate": -1, "extrude": 0, "visibility": -1 }, "geometry": { "type": "Point", "coordinates": [ 7.1383512, 49.9596304 ] } },
{ "type": "Feature", "properties": { "Name": "Zollturm-Steig", "description": "<b>Kategorie:<\/b> Information — Besucherinformation<br><b>Distanz:<\/b>  877 m<br><b>Website:<\/b> <br><b>Wikipedia:<\/b> <br><b>Telefon:<\/b> ", "tessellate": -1, "extrude": 0, "visibility": -1 }, "geometry": { "type": "Point", "coordinates": [ 7.1388575, 49.9620784 ] } },
{ "type": "Feature", "properties": { "Name": "Weinkulturlandschaft Zollturmsteig", "description": "<b>Kategorie:<\/b> Information — Besucherinformation<br><b>Distanz:<\/b> 1062 m<br><b>Website:<\/b> <br><b>Wikipedia:<\/b> <br><b>Telefon:<\/b> ", "tessellate": -1, "extrude": 0, "visibility": -1 }, "geometry": { "type": "Point", "coordinates": [ 7.1382276, 49.9658212 ] } },
{ "type": "Feature", "properties": { "Name": "Mittelmosel-Museum", "description": "<b>Kategorie:<\/b> Kultur & Geschichte — Museum<br><b>Distanz:<\/b> 1589 m<br><b>Website:<\/b> <br><b>Wikipedia:<\/b> <br><b>Telefon:<\/b> ", "tessellate": -1, "extrude": 0, "visibility": -1 }, "geometry": { "type": "Point", "coordinates": [ 7.1122997, 49.9488601 ] } },
{ "type": "Feature", "properties": { "Name": "Glockenspiel am Alten Stadtturm", "description": "<b>Kategorie:<\/b> Kultur & Geschichte — Attraktion<br><b>Distanz:<\/b> 1633 m<br><b>Website:<\/b> <br><b>Wikipedia:<\/b> <br><b>Telefon:<\/b> ", "tessellate": -1, "extrude": 0, "visibility": -1 }, "geometry": { "type": "Point", "coordinates": [ 7.1115261, 49.9487947 ] } },
{ "type": "Feature", "properties": { "Name": "Rosali", "description": "<b>Kategorie:<\/b> Kultur & Geschichte — Galerie<br><b>Distanz:<\/b> 1009 m<br><b>Website:<\/b> https:\/\/rosali.info\/<br><b>Wikipedia:<\/b> <br><b>Telefon:<\/b> ", "tessellate": -1, "extrude": 0, "visibility": -1 }, "geometry": { "type": "Point", "coordinates": [ 7.1213172, 49.9511241 ] } },
{ "type": "Feature", "properties": { "Name": "Aequinox Sonnenuhr", "description": "<b>Kategorie:<\/b> Kultur & Geschichte — Attraktion<br><b>Distanz:<\/b> 1300 m<br><b>Website:<\/b> <br><b>Wikipedia:<\/b> <br><b>Telefon:<\/b> ", "tessellate": -1, "extrude": 0, "visibility": -1 }, "geometry": { "type": "Point", "coordinates": [ 7.1159273, 49.9502634 ] } },
{ "type": "Feature", "properties": { "Name": "Haus der Ikonen", "description": "<b>Kategorie:<\/b> Kultur & Geschichte — Museum<br><b>Distanz:<\/b> 1639 m<br><b>Website:<\/b> https:\/\/www.haus-der-ikonen.de\/<br><b>Wikipedia:<\/b> <br><b>Telefon:<\/b> +49 6541 812408", "tessellate": -1, "extrude": 0, "visibility": -1 }, "geometry": { "type": "Point", "coordinates": [ 7.1115419, 49.9487062 ] } },
{ "type": "Feature", "properties": { "Name": "Aequinox Sonnenuhr", "description": "<b>Kategorie:<\/b> Kultur & Geschichte — Attraktion<br><b>Distanz:<\/b> 1565 m<br><b>Website:<\/b> <br><b>Wikipedia:<\/b> <br><b>Telefon:<\/b> ", "tessellate": -1, "extrude": 0, "visibility": -1 }, "geometry": { "type": "Point", "coordinates": [ 7.1121615, 49.9492451 ] } },
{ "type": "Feature", "properties": { "Name": "Schuh-Styling-Museum", "description": "<b>Kategorie:<\/b> Kultur & Geschichte — Museum<br><b>Distanz:<\/b> 1146 m<br><b>Website:<\/b> https:\/\/www.schuhstylingmuseum.com\/<br><b>Wikipedia:<\/b> <br><b>Telefon:<\/b> ", "tessellate": -1, "extrude": 0, "visibility": -1 }, "geometry": { "type": "Point", "coordinates": [ 7.1170673, 49.9514503 ] } },
{ "type": "Feature", "properties": { "Name": "Galerie Heidi Bogner", "description": "<b>Kategorie:<\/b> Kultur & Geschichte — Galerie<br><b>Distanz:<\/b> 1180 m<br><b>Website:<\/b> https:\/\/www.heidi-bogner.de\/<br><b>Wikipedia:<\/b> <br><b>Telefon:<\/b> +49 6541 4540", "tessellate": -1, "extrude": 0, "visibility": -1 }, "geometry": { "type": "Point", "coordinates": [ 7.119559, 49.9499807 ] } },
{ "type": "Feature", "properties": { "Name": "Zeitreise-Museum", "description": "<b>Kategorie:<\/b> Kultur & Geschichte — Museum<br><b>Distanz:<\/b> 1604 m<br><b>Website:<\/b> <br><b>Wikipedia:<\/b> <br><b>Telefon:<\/b> +49 6541 8145866", "tessellate": -1, "extrude": 0, "visibility": -1 }, "geometry": { "type": "Point", "coordinates": [ 7.1122326, 49.9487213 ] } },
{ "type": "Feature", "properties": { "Name": "Ehemalige Sendeanlage Mont Royal", "description": "<b>Kategorie:<\/b> Kultur & Geschichte — Attraktion<br><b>Distanz:<\/b>  900 m<br><b>Website:<\/b> <br><b>Wikipedia:<\/b> <br><b>Telefon:<\/b> ", "tessellate": -1, "extrude": 0, "visibility": -1 }, "geometry": { "type": "Point", "coordinates": [ 7.1196993, 49.9656713 ] } },
{ "type": "Feature", "properties": { "Name": "Rabenwerk", "description": "<b>Kategorie:<\/b> Natur & Landschaft — Aussichtspunkt<br><b>Distanz:<\/b> 1830 m<br><b>Website:<\/b> <br><b>Wikipedia:<\/b> <br><b>Telefon:<\/b> ", "tessellate": -1, "extrude": 0, "visibility": -1 }, "geometry": { "type": "Point", "coordinates": [ 7.1098309, 49.9712123 ] } },
{ "type": "Feature", "properties": { "Name": "Kriegerdenkmal", "description": "<b>Kategorie:<\/b> Natur & Landschaft — Aussichtspunkt<br><b>Distanz:<\/b> 1636 m<br><b>Website:<\/b> <br><b>Wikipedia:<\/b> <br><b>Telefon:<\/b> ", "tessellate": -1, "extrude": 0, "visibility": -1 }, "geometry": { "type": "Point", "coordinates": [ 7.1133531, 49.947722 ] } },
{ "type": "Feature", "properties": { "Name": "Wolfer Kanzel", "description": "<b>Kategorie:<\/b> Natur & Landschaft — Aussichtspunkt<br><b>Distanz:<\/b> 2169 m<br><b>Website:<\/b> <br><b>Wikipedia:<\/b> <br><b>Telefon:<\/b> ", "tessellate": -1, "extrude": 0, "visibility": -1 }, "geometry": { "type": "Point", "coordinates": [ 7.1119632, 49.9760561 ] } },
{ "type": "Feature", "properties": { "Name": "Moselblick von Mont Royal", "description": "<b>Kategorie:<\/b> Natur & Landschaft — Aussichtspunkt<br><b>Distanz:<\/b> 2456 m<br><b>Website:<\/b> <br><b>Wikipedia:<\/b> <br><b>Telefon:<\/b> ", "tessellate": -1, "extrude": 0, "visibility": -1 }, "geometry": { "type": "Point", "coordinates": [ 7.1149342, 49.9798569 ] } },
{ "type": "Feature", "properties": { "Name": "Schöne Aussicht", "description": "<b>Kategorie:<\/b> Natur & Landschaft — Aussichtspunkt<br><b>Distanz:<\/b>  779 m<br><b>Website:<\/b> <br><b>Wikipedia:<\/b> <br><b>Telefon:<\/b> ", "tessellate": -1, "extrude": 0, "visibility": -1 }, "geometry": { "type": "Point", "coordinates": [ 7.1382513, 49.9588042 ] } },
{ "type": "Feature", "properties": { "Name": "Eulenwerk", "description": "<b>Kategorie:<\/b> Natur & Landschaft — Aussichtspunkt<br><b>Distanz:<\/b> 1658 m<br><b>Website:<\/b> <br><b>Wikipedia:<\/b> <br><b>Telefon:<\/b> ", "tessellate": -1, "extrude": 0, "visibility": -1 }, "geometry": { "type": "Point", "coordinates": [ 7.1209032, 49.9736058 ] } },
{ "type": "Feature", "properties": { "Name": "Königsberg", "description": "<b>Kategorie:<\/b> Natur & Landschaft — Aussichtspunkt<br><b>Distanz:<\/b> 1165 m<br><b>Website:<\/b> <br><b>Wikipedia:<\/b> <br><b>Telefon:<\/b> ", "tessellate": -1, "extrude": 0, "visibility": -1 }, "geometry": { "type": "Point", "coordinates": [ 7.1111805, 49.959445 ] } },
{ "type": "Feature", "properties": { "Name": "XXL Bank Panoramablick", "description": "<b>Kategorie:<\/b> Natur & Landschaft — Aussichtspunkt<br><b>Distanz:<\/b> 1172 m<br><b>Website:<\/b> https:\/\/www.traben-trarbach.de\/de\/xxl-bank-panoramablick.html<br><b>Wikipedia:<\/b> <br><b>Telefon:<\/b> ", "tessellate": -1, "extrude": 0, "visibility": -1 }, "geometry": { "type": "Point", "coordinates": [ 7.1127301, 49.95469 ] } },
{ "type": "Feature", "properties": { "Name": "Unheller Köpchen", "description": "<b>Kategorie:<\/b> Natur & Landschaft — Aussichtspunkt<br><b>Distanz:<\/b> 2470 m<br><b>Website:<\/b> <br><b>Wikipedia:<\/b> <br><b>Telefon:<\/b> ", "tessellate": -1, "extrude": 0, "visibility": -1 }, "geometry": { "type": "Point", "coordinates": [ 7.1159971, 49.9383503 ] } },
{ "type": "Feature", "properties": { "Name": "Hoferberg", "description": "<b>Kategorie:<\/b> Natur & Landschaft — Natur-Feature (alle)<br><b>Distanz:<\/b> 2162 m<br><b>Website:<\/b> <br><b>Wikipedia:<\/b> <br><b>Telefon:<\/b> ", "tessellate": -1, "extrude": 0, "visibility": -1 }, "geometry": { "type": "Point", "coordinates": [ 7.1527066, 49.9698764 ] } },
{ "type": "Feature", "properties": { "Name": "Mont Royal", "description": "<b>Kategorie:<\/b> Natur & Landschaft — Natur-Feature (alle)<br><b>Distanz:<\/b>  966 m<br><b>Website:<\/b> <br><b>Wikipedia:<\/b> de:Mont Royal (Berg)<br><b>Telefon:<\/b> ", "tessellate": -1, "extrude": 0, "visibility": -1 }, "geometry": { "type": "Point", "coordinates": [ 7.1168626, 49.9646835 ] } },
{ "type": "Feature", "properties": { "Name": "Schinderhannes-Höhle", "description": "<b>Kategorie:<\/b> Natur & Landschaft — Natur-Feature (alle)<br><b>Distanz:<\/b> 2035 m<br><b>Website:<\/b> <br><b>Wikipedia:<\/b> <br><b>Telefon:<\/b> ", "tessellate": -1, "extrude": 0, "visibility": -1 }, "geometry": { "type": "Point", "coordinates": [ 7.145719, 49.9732805 ] } }
]
}
