{"type": "FeatureCollection", "features": [{"type": "Feature", "properties": {"Name": "JH 437 — Jugendherberge Burg Blankenheim", "description": "<b>JH Nr:</b> 437<br><b>Name:</b> Jugendherberge Burg Blankenheim<br><b>Ort:</b> Blankenheim", "timestamp": null, "begin": null, "end": null, "altitudeMode": null, "tessellate": -1, "extrude": 0, "visibility": -1, "drawOrder": null, "icon": null, "category_group": "JH"}, "geometry": {"type": "Point", "coordinates": [6.6515139, 50.4380231]}}, {"type": "Feature", "properties": {"Name": "Gemeindebücherei Blankenheim", "description": "<b>Kategorie:</b> Bildungsinfrastruktur — Bibliothek<br><b>Distanz:</b>  188 m<br><b>Website:</b> https://www.blankenheim.de/de/leben/bildung/buecherei/<br><b>Wikipedia:</b> <br><b>Telefon:</b> ", "timestamp": null, "begin": null, "end": null, "altitudeMode": null, "tessellate": -1, "extrude": 0, "visibility": -1, "drawOrder": null, "icon": null, "category_group": "Bildungsinfrastruktur"}, "geometry": {"type": "Point", "coordinates": [6.6501978, 50.4365599]}}, {"type": "Feature", "properties": {"Name": "Österreichische Schanzen (I)", "description": "<b>Kategorie:</b> Information — Besucherinformation<br><b>Distanz:</b> 2236 m<br><b>Website:</b> <br><b>Wikipedia:</b> <br><b>Telefon:</b> ", "timestamp": null, "begin": null, "end": null, "altitudeMode": null, "tessellate": -1, "extrude": 0, "visibility": -1, "drawOrder": null, "icon": null, "category_group": "Information"}, "geometry": {"type": "Point", "coordinates": [6.6292889, 50.4237842]}}, {"type": "Feature", "properties": {"Name": "Die Süntel-Buche auf dem Hügelgrab", "description": "<b>Kategorie:</b> Information — Besucherinformation<br><b>Distanz:</b> 2415 m<br><b>Website:</b> <br><b>Wikipedia:</b> <br><b>Telefon:</b> ", "timestamp": null, "begin": null, "end": null, "altitudeMode": null, "tessellate": -1, "extrude": 0, "visibility": -1, "drawOrder": null, "icon": null, "category_group": "Information"}, "geometry": {"type": "Point", "coordinates": [6.6203611, 50.4293424]}}, {"type": "Feature", "properties": {"Name": "Der Tiergartentunnel von Burg Blankenheim", "description": "<b>Kategorie:</b> Information — Besucherinformation<br><b>Distanz:</b>  161 m<br><b>Website:</b> <br><b>Wikipedia:</b> <br><b>Telefon:</b> ", "timestamp": null, "begin": null, "end": null, "altitudeMode": null, "tessellate": -1, "extrude": 0, "visibility": -1, "drawOrder": null, "icon": null, "category_group": "Information"}, "geometry": {"type": "Point", "coordinates": [6.6511968, 50.4394563]}}, {"type": "Feature", "properties": {"Name": "Eifeler Quellenpfad", "description": "<b>Kategorie:</b> Information — Besucherinformation<br><b>Distanz:</b> 2740 m<br><b>Website:</b> <br><b>Wikipedia:</b> <br><b>Telefon:</b> ", "timestamp": null, "begin": null, "end": null, "altitudeMode": null, "tessellate": -1, "extrude": 0, "visibility": -1, "drawOrder": null, "icon": null, "category_group": "Information"}, "geometry": {"type": "Point", "coordinates": [6.6198257, 50.4520653]}}, {"type": "Feature", "properties": {"Name": "Haubachtal (Ost)", "description": "<b>Kategorie:</b> Information — Besucherinformation<br><b>Distanz:</b> 2750 m<br><b>Website:</b> <br><b>Wikipedia:</b> <br><b>Telefon:</b> ", "timestamp": null, "begin": null, "end": null, "altitudeMode": null, "tessellate": -1, "extrude": 0, "visibility": -1, "drawOrder": null, "icon": null, "category_group": "Information"}, "geometry": {"type": "Point", "coordinates": [6.6196705, 50.4520796]}}, {"type": "Feature", "properties": {"Name": "Naturschutzgebiet Haubachtal", "description": "<b>Kategorie:</b> Information — Besucherinformation<br><b>Distanz:</b> 2734 m<br><b>Website:</b> <br><b>Wikipedia:</b> <br><b>Telefon:</b> ", "timestamp": null, "begin": null, "end": null, "altitudeMode": null, "tessellate": -1, "extrude": 0, "visibility": -1, "drawOrder": null, "icon": null, "category_group": "Information"}, "geometry": {"type": "Point", "coordinates": [6.61946, 50.4516276]}}, {"type": "Feature", "properties": {"Name": "Naturschutzgebiet Haubachtal", "description": "<b>Kategorie:</b> Information — Besucherinformation<br><b>Distanz:</b> 2376 m<br><b>Website:</b> <br><b>Wikipedia:</b> <br><b>Telefon:</b> ", "timestamp": null, "begin": null, "end": null, "altitudeMode": null, "tessellate": -1, "extrude": 0, "visibility": -1, "drawOrder": null, "icon": null, "category_group": "Information"}, "geometry": {"type": "Point", "coordinates": [6.6268602, 50.4524675]}}, {"type": "Feature", "properties": {"Name": "Stahlbuschseifen (Ost)", "description": "<b>Kategorie:</b> Information — Besucherinformation<br><b>Distanz:</b> 2364 m<br><b>Website:</b> <br><b>Wikipedia:</b> <br><b>Telefon:</b> ", "timestamp": null, "begin": null, "end": null, "altitudeMode": null, "tessellate": -1, "extrude": 0, "visibility": -1, "drawOrder": null, "icon": null, "category_group": "Information"}, "geometry": {"type": "Point", "coordinates": [6.6397778, 50.457911]}}, {"type": "Feature", "properties": {"Name": "Stahlbuschseifen (West)", "description": "<b>Kategorie:</b> Information — Besucherinformation<br><b>Distanz:</b> 2392 m<br><b>Website:</b> <br><b>Wikipedia:</b> <br><b>Telefon:</b> ", "timestamp": null, "begin": null, "end": null, "altitudeMode": null, "tessellate": -1, "extrude": 0, "visibility": -1, "drawOrder": null, "icon": null, "category_group": "Information"}, "geometry": {"type": "Point", "coordinates": [6.62679, 50.4526269]}}, {"type": "Feature", "properties": {"Name": "Leben braucht Licht", "description": "<b>Kategorie:</b> Information — Besucherinformation<br><b>Distanz:</b> 1765 m<br><b>Website:</b> <br><b>Wikipedia:</b> <br><b>Telefon:</b> ", "timestamp": null, "begin": null, "end": null, "altitudeMode": null, "tessellate": -1, "extrude": 0, "visibility": -1, "drawOrder": null, "icon": null, "category_group": "Information"}, "geometry": {"type": "Point", "coordinates": [6.6604867, 50.4232294]}}, {"type": "Feature", "properties": {"Name": "Brotpfadhütte", "description": "<b>Kategorie:</b> Information — Besucherinformation<br><b>Distanz:</b> 2490 m<br><b>Website:</b> <br><b>Wikipedia:</b> <br><b>Telefon:</b> ", "timestamp": null, "begin": null, "end": null, "altitudeMode": null, "tessellate": -1, "extrude": 0, "visibility": -1, "drawOrder": null, "icon": null, "category_group": "Information"}, "geometry": {"type": "Point", "coordinates": [6.6595009, 50.4162234]}}, {"type": "Feature", "properties": {"Name": "Seidenbachtal", "description": "<b>Kategorie:</b> Information — Besucherinformation<br><b>Distanz:</b> 2699 m<br><b>Website:</b> <br><b>Wikipedia:</b> <br><b>Telefon:</b> ", "timestamp": null, "begin": null, "end": null, "altitudeMode": null, "tessellate": -1, "extrude": 0, "visibility": -1, "drawOrder": null, "icon": null, "category_group": "Information"}, "geometry": {"type": "Point", "coordinates": [6.6180557, 50.4265397]}}, {"type": "Feature", "properties": {"Name": "Eifelblick zur Hohen Acht", "description": "<b>Kategorie:</b> Information — Besucherinformation<br><b>Distanz:</b>  774 m<br><b>Website:</b> <br><b>Wikipedia:</b> <br><b>Telefon:</b> ", "timestamp": null, "begin": null, "end": null, "altitudeMode": null, "tessellate": -1, "extrude": 0, "visibility": -1, "drawOrder": null, "icon": null, "category_group": "Information"}, "geometry": {"type": "Point", "coordinates": [6.6469403, 50.4317051]}}, {"type": "Feature", "properties": {"Name": "Touristinfo", "description": "<b>Kategorie:</b> Information — Besucherinformation<br><b>Distanz:</b>  158 m<br><b>Website:</b> https://www.blankenheim.de/<br><b>Wikipedia:</b> <br><b>Telefon:</b> ", "timestamp": null, "begin": null, "end": null, "altitudeMode": null, "tessellate": -1, "extrude": 0, "visibility": -1, "drawOrder": null, "icon": null, "category_group": "Information"}, "geometry": {"type": "Point", "coordinates": [6.6497161, 50.4371869]}}, {"type": "Feature", "properties": {"Name": "Ehemaliger Barockgarten", "description": "<b>Kategorie:</b> Information — Besucherinformation<br><b>Distanz:</b>  159 m<br><b>Website:</b> <br><b>Wikipedia:</b> <br><b>Telefon:</b> ", "timestamp": null, "begin": null, "end": null, "altitudeMode": null, "tessellate": -1, "extrude": 0, "visibility": -1, "drawOrder": null, "icon": null, "category_group": "Information"}, "geometry": {"type": "Point", "coordinates": [6.651154, 50.4394347]}}, {"type": "Feature", "properties": {"Name": "Naturbelebnis", "description": "<b>Kategorie:</b> Information — Besucherinformation<br><b>Distanz:</b>  172 m<br><b>Website:</b> <br><b>Wikipedia:</b> <br><b>Telefon:</b> ", "timestamp": null, "begin": null, "end": null, "altitudeMode": null, "tessellate": -1, "extrude": 0, "visibility": -1, "drawOrder": null, "icon": null, "category_group": "Information"}, "geometry": {"type": "Point", "coordinates": [6.6524306, 50.4365934]}}, {"type": "Feature", "properties": {"Name": "Süntelbuche", "description": "<b>Kategorie:</b> Information — Besucherinformation<br><b>Distanz:</b> 2408 m<br><b>Website:</b> https://www.naturpark-schaetze.de/<br><b>Wikipedia:</b> <br><b>Telefon:</b> ", "timestamp": null, "begin": null, "end": null, "altitudeMode": null, "tessellate": -1, "extrude": 0, "visibility": -1, "drawOrder": null, "icon": null, "category_group": "Information"}, "geometry": {"type": "Point", "coordinates": [6.6204495, 50.4293553]}}, {"type": "Feature", "properties": {"Name": "Blättermemory", "description": "<b>Kategorie:</b> Information — Besucherinformation<br><b>Distanz:</b>  302 m<br><b>Website:</b> <br><b>Wikipedia:</b> <br><b>Telefon:</b> ", "timestamp": null, "begin": null, "end": null, "altitudeMode": null, "tessellate": -1, "extrude": 0, "visibility": -1, "drawOrder": null, "icon": null, "category_group": "Information"}, "geometry": {"type": "Point", "coordinates": [6.6501188, 50.4405861]}}, {"type": "Feature", "properties": {"Name": "Tierspuren", "description": "<b>Kategorie:</b> Information — Besucherinformation<br><b>Distanz:</b>  353 m<br><b>Website:</b> <br><b>Wikipedia:</b> <br><b>Telefon:</b> ", "timestamp": null, "begin": null, "end": null, "altitudeMode": null, "tessellate": -1, "extrude": 0, "visibility": -1, "drawOrder": null, "icon": null, "category_group": "Information"}, "geometry": {"type": "Point", "coordinates": [6.6497824, 50.4409954]}}, {"type": "Feature", "properties": {"Name": "Tierweitsprung", "description": "<b>Kategorie:</b> Information — Besucherinformation<br><b>Distanz:</b>  695 m<br><b>Website:</b> <br><b>Wikipedia:</b> <br><b>Telefon:</b> ", "timestamp": null, "begin": null, "end": null, "altitudeMode": null, "tessellate": -1, "extrude": 0, "visibility": -1, "drawOrder": null, "icon": null, "category_group": "Information"}, "geometry": {"type": "Point", "coordinates": [6.6479234, 50.4438308]}}, {"type": "Feature", "properties": {"Name": "Baumdetektive", "description": "<b>Kategorie:</b> Information — Besucherinformation<br><b>Distanz:</b>  968 m<br><b>Website:</b> <br><b>Wikipedia:</b> <br><b>Telefon:</b> ", "timestamp": null, "begin": null, "end": null, "altitudeMode": null, "tessellate": -1, "extrude": 0, "visibility": -1, "drawOrder": null, "icon": null, "category_group": "Information"}, "geometry": {"type": "Point", "coordinates": [6.6462095, 50.4460368]}}, {"type": "Feature", "properties": {"Name": "Töne und Farben Sinne erleben", "description": "<b>Kategorie:</b> Information — Besucherinformation<br><b>Distanz:</b> 1073 m<br><b>Website:</b> <br><b>Wikipedia:</b> <br><b>Telefon:</b> ", "timestamp": null, "begin": null, "end": null, "altitudeMode": null, "tessellate": -1, "extrude": 0, "visibility": -1, "drawOrder": null, "icon": null, "category_group": "Information"}, "geometry": {"type": "Point", "coordinates": [6.63727, 50.4412457]}}, {"type": "Feature", "properties": {"Name": "Wer bin Ich?", "description": "<b>Kategorie:</b> Information — Besucherinformation<br><b>Distanz:</b> 1045 m<br><b>Website:</b> <br><b>Wikipedia:</b> <br><b>Telefon:</b> ", "timestamp": null, "begin": null, "end": null, "altitudeMode": null, "tessellate": -1, "extrude": 0, "visibility": -1, "drawOrder": null, "icon": null, "category_group": "Information"}, "geometry": {"type": "Point", "coordinates": [6.6375306, 50.4409412]}}, {"type": "Feature", "properties": {"Name": "Vogeldomino Quiz", "description": "<b>Kategorie:</b> Information — Besucherinformation<br><b>Distanz:</b> 1200 m<br><b>Website:</b> <br><b>Wikipedia:</b> <br><b>Telefon:</b> ", "timestamp": null, "begin": null, "end": null, "altitudeMode": null, "tessellate": -1, "extrude": 0, "visibility": -1, "drawOrder": null, "icon": null, "category_group": "Information"}, "geometry": {"type": "Point", "coordinates": [6.6361908, 50.4425719]}}, {"type": "Feature", "properties": {"Name": "Baumgeschichten", "description": "<b>Kategorie:</b> Information — Besucherinformation<br><b>Distanz:</b> 1156 m<br><b>Website:</b> <br><b>Wikipedia:</b> <br><b>Telefon:</b> ", "timestamp": null, "begin": null, "end": null, "altitudeMode": null, "tessellate": -1, "extrude": 0, "visibility": -1, "drawOrder": null, "icon": null, "category_group": "Information"}, "geometry": {"type": "Point", "coordinates": [6.6423042, 50.4465936]}}, {"type": "Feature", "properties": {"Name": "Schillertsberg", "description": "<b>Kategorie:</b> Information — Besucherinformation<br><b>Distanz:</b> 1278 m<br><b>Website:</b> <br><b>Wikipedia:</b> <br><b>Telefon:</b> ", "timestamp": null, "begin": null, "end": null, "altitudeMode": null, "tessellate": -1, "extrude": 0, "visibility": -1, "drawOrder": null, "icon": null, "category_group": "Information"}, "geometry": {"type": "Point", "coordinates": [6.6566478, 50.4270076]}}, {"type": "Feature", "properties": {"Name": "Katholischer Kindergarten - St. Mariä Himmelfahrt", "description": "<b>Kategorie:</b> Kinder & Jugend — Kindergarten<br><b>Distanz:</b>  634 m<br><b>Website:</b> https://profinos.de/st-mariae-himmelfahrt<br><b>Wikipedia:</b> <br><b>Telefon:</b> +49 2449 9199949", "timestamp": null, "begin": null, "end": null, "altitudeMode": null, "tessellate": -1, "extrude": 0, "visibility": -1, "drawOrder": null, "icon": null, "category_group": "Kinder & Jugend"}, "geometry": {"type": "Point", "coordinates": [6.6429239, 50.4395655]}}, {"type": "Feature", "properties": {"Name": "McDonald's PlayPlace", "description": "<b>Kategorie:</b> Kinder & Jugend — Spielplatz<br><b>Distanz:</b> 1936 m<br><b>Website:</b> <br><b>Wikipedia:</b> <br><b>Telefon:</b> ", "timestamp": null, "begin": null, "end": null, "altitudeMode": null, "tessellate": -1, "extrude": 0, "visibility": -1, "drawOrder": null, "icon": null, "category_group": "Kinder & Jugend"}, "geometry": {"type": "Point", "coordinates": [6.669902, 50.4508684]}}, {"type": "Feature", "properties": {"Name": "Ahrquelle", "description": "<b>Kategorie:</b> Kultur & Geschichte — Attraktion<br><b>Distanz:</b>  146 m<br><b>Website:</b> <br><b>Wikipedia:</b> de:Ahr<br><b>Telefon:</b> ", "timestamp": null, "begin": null, "end": null, "altitudeMode": null, "tessellate": -1, "extrude": 0, "visibility": -1, "drawOrder": null, "icon": null, "category_group": "Kultur & Geschichte"}, "geometry": {"type": "Point", "coordinates": [6.6494645, 50.4381461]}}, {"type": "Feature", "properties": {"Name": "Eifelmuseum Blankenheim", "description": "<b>Kategorie:</b> Kultur & Geschichte — Museum<br><b>Distanz:</b>  155 m<br><b>Website:</b> <br><b>Wikipedia:</b> de:Eifelmuseum Blankenheim<br><b>Telefon:</b> ", "timestamp": null, "begin": null, "end": null, "altitudeMode": null, "tessellate": -1, "extrude": 0, "visibility": -1, "drawOrder": null, "icon": null, "category_group": "Kultur & Geschichte"}, "geometry": {"type": "Point", "coordinates": [6.6496432, 50.437314]}}, {"type": "Feature", "properties": {"Name": "Silvia Kock", "description": "<b>Kategorie:</b> Kultur & Geschichte — Galerie<br><b>Distanz:</b>  239 m<br><b>Website:</b> https://silvia-kock.de/<br><b>Wikipedia:</b> <br><b>Telefon:</b> ", "timestamp": null, "begin": null, "end": null, "altitudeMode": null, "tessellate": -1, "extrude": 0, "visibility": -1, "drawOrder": null, "icon": null, "category_group": "Kultur & Geschichte"}, "geometry": {"type": "Point", "coordinates": [6.6483058, 50.4386802]}}, {"type": "Feature", "properties": {"Name": "Schillertsberg", "description": "<b>Kategorie:</b> Natur & Landschaft — Natur-Feature (alle)<br><b>Distanz:</b> 1291 m<br><b>Website:</b> <br><b>Wikipedia:</b> <br><b>Telefon:</b> ", "timestamp": null, "begin": null, "end": null, "altitudeMode": null, "tessellate": -1, "extrude": 0, "visibility": -1, "drawOrder": null, "icon": null, "category_group": "Natur & Landschaft"}, "geometry": {"type": "Point", "coordinates": [6.6569583, 50.4269472]}}, {"type": "Feature", "properties": {"Name": "Blankenheimer Wunschbaum", "description": "<b>Kategorie:</b> Natur & Landschaft — Natur-Feature (alle)<br><b>Distanz:</b>  121 m<br><b>Website:</b> <br><b>Wikipedia:</b> <br><b>Telefon:</b> ", "timestamp": null, "begin": null, "end": null, "altitudeMode": null, "tessellate": -1, "extrude": 0, "visibility": -1, "drawOrder": null, "icon": null, "category_group": "Natur & Landschaft"}, "geometry": {"type": "Point", "coordinates": [6.6500231, 50.4375021]}}]}