{"type": "FeatureCollection", "features": [{"type": "Feature", "properties": {"Name": "JH 402 — Eifelmaar-Jugendherberge", "description": "<b>JH Nr:</b> 402<br><b>Name:</b> Eifelmaar-Jugendherberge<br><b>Ort:</b> Daun", "timestamp": null, "begin": null, "end": null, "altitudeMode": null, "tessellate": -1, "extrude": 0, "visibility": -1, "drawOrder": null, "icon": null, "category_group": "JH"}, "geometry": {"type": "Point", "coordinates": [6.8346274, 50.1859877]}}, {"type": "Feature", "properties": {"Name": "Forum Daun", "description": "<b>Kategorie:</b> Bildungsinfrastruktur — Gemeindezentrum<br><b>Distanz:</b> 1395 m<br><b>Website:</b> <br><b>Wikipedia:</b> <br><b>Telefon:</b> ", "timestamp": null, "begin": null, "end": null, "altitudeMode": null, "tessellate": -1, "extrude": 0, "visibility": -1, "drawOrder": null, "icon": null, "category_group": "Bildungsinfrastruktur"}, "geometry": {"type": "Point", "coordinates": [6.830209, 50.1982045]}}, {"type": "Feature", "properties": {"Name": "Volkshochschule Daun", "description": "<b>Kategorie:</b> Bildungsinfrastruktur — Hochschule<br><b>Distanz:</b> 1643 m<br><b>Website:</b> https://www.vhs-daun.de/<br><b>Wikipedia:</b> <br><b>Telefon:</b> ", "timestamp": null, "begin": null, "end": null, "altitudeMode": null, "tessellate": -1, "extrude": 0, "visibility": -1, "drawOrder": null, "icon": null, "category_group": "Bildungsinfrastruktur"}, "geometry": {"type": "Point", "coordinates": [6.8272213, 50.1999785]}}, {"type": "Feature", "properties": {"Name": "Schwimmbad am Gemündener Maar", "description": "<b>Kategorie:</b> Freizeit & Sport — Wasserpark<br><b>Distanz:</b>  904 m<br><b>Website:</b> https://www.dauner-bäder.de/gemuendener-maar/<br><b>Wikipedia:</b> <br><b>Telefon:</b> +49 6592 2520", "timestamp": null, "begin": null, "end": null, "altitudeMode": null, "tessellate": -1, "extrude": 0, "visibility": -1, "drawOrder": null, "icon": null, "category_group": "Freizeit & Sport"}, "geometry": {"type": "Point", "coordinates": [6.8383444, 50.1782211]}}, {"type": "Feature", "properties": {"Name": "Touristinfo Daun", "description": "<b>Kategorie:</b> Information — Besucherinformation<br><b>Distanz:</b> 1379 m<br><b>Website:</b> https://www.gesundland-vulkaneifel.de/service/tourist-informationen/daun.html<br><b>Wikipedia:</b> <br><b>Telefon:</b> +49 6592 95130", "timestamp": null, "begin": null, "end": null, "altitudeMode": null, "tessellate": -1, "extrude": 0, "visibility": -1, "drawOrder": null, "icon": null, "category_group": "Information"}, "geometry": {"type": "Point", "coordinates": [6.8300657, 50.1980368]}}, {"type": "Feature", "properties": {"Name": "Wanderwege um die Maare", "description": "<b>Kategorie:</b> Information — Besucherinformation<br><b>Distanz:</b> 2577 m<br><b>Website:</b> <br><b>Wikipedia:</b> <br><b>Telefon:</b> ", "timestamp": null, "begin": null, "end": null, "altitudeMode": null, "tessellate": -1, "extrude": 0, "visibility": -1, "drawOrder": null, "icon": null, "category_group": "Information"}, "geometry": {"type": "Point", "coordinates": [6.8557397, 50.1671966]}}, {"type": "Feature", "properties": {"Name": "Informationstafel", "description": "<b>Kategorie:</b> Information — Besucherinformation<br><b>Distanz:</b> 2879 m<br><b>Website:</b> <br><b>Wikipedia:</b> <br><b>Telefon:</b> ", "timestamp": null, "begin": null, "end": null, "altitudeMode": null, "tessellate": -1, "extrude": 0, "visibility": -1, "drawOrder": null, "icon": null, "category_group": "Information"}, "geometry": {"type": "Point", "coordinates": [6.8679261, 50.1714064]}}, {"type": "Feature", "properties": {"Name": "Daun, Wehrbüsch", "description": "<b>Kategorie:</b> Information — Besucherinformation<br><b>Distanz:</b>  647 m<br><b>Website:</b> <br><b>Wikipedia:</b> <br><b>Telefon:</b> ", "timestamp": null, "begin": null, "end": null, "altitudeMode": null, "tessellate": -1, "extrude": 0, "visibility": -1, "drawOrder": null, "icon": null, "category_group": "Information"}, "geometry": {"type": "Point", "coordinates": [6.827384, 50.1894785]}}, {"type": "Feature", "properties": {"Name": "Weinfelder Maar/L64", "description": "<b>Kategorie:</b> Information — Besucherinformation<br><b>Distanz:</b> 1869 m<br><b>Website:</b> <br><b>Wikipedia:</b> <br><b>Telefon:</b> ", "timestamp": null, "begin": null, "end": null, "altitudeMode": null, "tessellate": -1, "extrude": 0, "visibility": -1, "drawOrder": null, "icon": null, "category_group": "Information"}, "geometry": {"type": "Point", "coordinates": [6.852366, 50.1736361]}}, {"type": "Feature", "properties": {"Name": "Naturschutzgebiet Dauner Maare", "description": "<b>Kategorie:</b> Information — Besucherinformation<br><b>Distanz:</b> 1500 m<br><b>Website:</b> <br><b>Wikipedia:</b> <br><b>Telefon:</b> ", "timestamp": null, "begin": null, "end": null, "altitudeMode": null, "tessellate": -1, "extrude": 0, "visibility": -1, "drawOrder": null, "icon": null, "category_group": "Information"}, "geometry": {"type": "Point", "coordinates": [6.8520798, 50.178483]}}, {"type": "Feature", "properties": {"Name": "Kirche ohne Dorf", "description": "<b>Kategorie:</b> Information — Besucherinformation<br><b>Distanz:</b> 1407 m<br><b>Website:</b> <br><b>Wikipedia:</b> <br><b>Telefon:</b> ", "timestamp": null, "begin": null, "end": null, "altitudeMode": null, "tessellate": -1, "extrude": 0, "visibility": -1, "drawOrder": null, "icon": null, "category_group": "Information"}, "geometry": {"type": "Point", "coordinates": [6.8509904, 50.1789384]}}, {"type": "Feature", "properties": {"Name": "Naturschutzgebiet Dauner Maare", "description": "<b>Kategorie:</b> Information — Besucherinformation<br><b>Distanz:</b> 1850 m<br><b>Website:</b> <br><b>Wikipedia:</b> <br><b>Telefon:</b> ", "timestamp": null, "begin": null, "end": null, "altitudeMode": null, "tessellate": -1, "extrude": 0, "visibility": -1, "drawOrder": null, "icon": null, "category_group": "Information"}, "geometry": {"type": "Point", "coordinates": [6.8520349, 50.1736726]}}, {"type": "Feature", "properties": {"Name": "Flugrevier Maar", "description": "<b>Kategorie:</b> Information — Besucherinformation<br><b>Distanz:</b> 2293 m<br><b>Website:</b> <br><b>Wikipedia:</b> <br><b>Telefon:</b> ", "timestamp": null, "begin": null, "end": null, "altitudeMode": null, "tessellate": -1, "extrude": 0, "visibility": -1, "drawOrder": null, "icon": null, "category_group": "Information"}, "geometry": {"type": "Point", "coordinates": [6.8583152, 50.1720763]}}, {"type": "Feature", "properties": {"Name": "Das Schalkenmehrener Maar -- ein \"natürlicher\" See", "description": "<b>Kategorie:</b> Information — Besucherinformation<br><b>Distanz:</b> 2760 m<br><b>Website:</b> <br><b>Wikipedia:</b> <br><b>Telefon:</b> ", "timestamp": null, "begin": null, "end": null, "altitudeMode": null, "tessellate": -1, "extrude": 0, "visibility": -1, "drawOrder": null, "icon": null, "category_group": "Information"}, "geometry": {"type": "Point", "coordinates": [6.8594813, 50.1669918]}}, {"type": "Feature", "properties": {"Name": "Der Mensch in der Natur - Landschaft", "description": "<b>Kategorie:</b> Information — Besucherinformation<br><b>Distanz:</b> 2129 m<br><b>Website:</b> <br><b>Wikipedia:</b> <br><b>Telefon:</b> ", "timestamp": null, "begin": null, "end": null, "altitudeMode": null, "tessellate": -1, "extrude": 0, "visibility": -1, "drawOrder": null, "icon": null, "category_group": "Information"}, "geometry": {"type": "Point", "coordinates": [6.8587897, 50.1747723]}}, {"type": "Feature", "properties": {"Name": "Schalkenmehrener Maare", "description": "<b>Kategorie:</b> Information — Besucherinformation<br><b>Distanz:</b> 1869 m<br><b>Website:</b> <br><b>Wikipedia:</b> <br><b>Telefon:</b> ", "timestamp": null, "begin": null, "end": null, "altitudeMode": null, "tessellate": -1, "extrude": 0, "visibility": -1, "drawOrder": null, "icon": null, "category_group": "Information"}, "geometry": {"type": "Point", "coordinates": [6.8528691, 50.1739373]}}, {"type": "Feature", "properties": {"Name": "nördl. Weinfelder Maar", "description": "<b>Kategorie:</b> Information — Besucherinformation<br><b>Distanz:</b> 1386 m<br><b>Website:</b> <br><b>Wikipedia:</b> <br><b>Telefon:</b> ", "timestamp": null, "begin": null, "end": null, "altitudeMode": null, "tessellate": -1, "extrude": 0, "visibility": -1, "drawOrder": null, "icon": null, "category_group": "Information"}, "geometry": {"type": "Point", "coordinates": [6.850605, 50.1789192]}}, {"type": "Feature", "properties": {"Name": "Kosmosradweg", "description": "<b>Kategorie:</b> Information — Besucherinformation<br><b>Distanz:</b>  135 m<br><b>Website:</b> <br><b>Wikipedia:</b> <br><b>Telefon:</b> ", "timestamp": null, "begin": null, "end": null, "altitudeMode": null, "tessellate": -1, "extrude": 0, "visibility": -1, "drawOrder": null, "icon": null, "category_group": "Information"}, "geometry": {"type": "Point", "coordinates": [6.8327482, 50.1858233]}}, {"type": "Feature", "properties": {"Name": "Regenrückhaltebecken Josenbach", "description": "<b>Kategorie:</b> Information — Besucherinformation<br><b>Distanz:</b> 2118 m<br><b>Website:</b> <br><b>Wikipedia:</b> <br><b>Telefon:</b> ", "timestamp": null, "begin": null, "end": null, "altitudeMode": null, "tessellate": -1, "extrude": 0, "visibility": -1, "drawOrder": null, "icon": null, "category_group": "Information"}, "geometry": {"type": "Point", "coordinates": [6.8278791, 50.2045346]}}, {"type": "Feature", "properties": {"Name": "Kinderradweg", "description": "<b>Kategorie:</b> Information — Besucherinformation<br><b>Distanz:</b>  949 m<br><b>Website:</b> <br><b>Wikipedia:</b> <br><b>Telefon:</b> ", "timestamp": null, "begin": null, "end": null, "altitudeMode": null, "tessellate": -1, "extrude": 0, "visibility": -1, "drawOrder": null, "icon": null, "category_group": "Information"}, "geometry": {"type": "Point", "coordinates": [6.8407095, 50.1935695]}}, {"type": "Feature", "properties": {"Name": "Fledermäuse", "description": "<b>Kategorie:</b> Information — Besucherinformation<br><b>Distanz:</b> 1364 m<br><b>Website:</b> <br><b>Wikipedia:</b> <br><b>Telefon:</b> ", "timestamp": null, "begin": null, "end": null, "altitudeMode": null, "tessellate": -1, "extrude": 0, "visibility": -1, "drawOrder": null, "icon": null, "category_group": "Information"}, "geometry": {"type": "Point", "coordinates": [6.8529317, 50.1824897]}}, {"type": "Feature", "properties": {"Name": "Fledermäuse - Verstecktes Leben im Tunnel", "description": "<b>Kategorie:</b> Information — Besucherinformation<br><b>Distanz:</b> 2172 m<br><b>Website:</b> <br><b>Wikipedia:</b> <br><b>Telefon:</b> ", "timestamp": null, "begin": null, "end": null, "altitudeMode": null, "tessellate": -1, "extrude": 0, "visibility": -1, "drawOrder": null, "icon": null, "category_group": "Information"}, "geometry": {"type": "Point", "coordinates": [6.8630369, 50.1790172]}}, {"type": "Feature", "properties": {"Name": "Vulkaneifel", "description": "<b>Kategorie:</b> Information — Besucherinformation<br><b>Distanz:</b> 1281 m<br><b>Website:</b> <br><b>Wikipedia:</b> <br><b>Telefon:</b> ", "timestamp": null, "begin": null, "end": null, "altitudeMode": null, "tessellate": -1, "extrude": 0, "visibility": -1, "drawOrder": null, "icon": null, "category_group": "Information"}, "geometry": {"type": "Point", "coordinates": [6.8419723, 50.1754819]}}, {"type": "Feature", "properties": {"Name": "Gemündener Maar", "description": "<b>Kategorie:</b> Information — Besucherinformation<br><b>Distanz:</b>  902 m<br><b>Website:</b> <br><b>Wikipedia:</b> <br><b>Telefon:</b> ", "timestamp": null, "begin": null, "end": null, "altitudeMode": null, "tessellate": -1, "extrude": 0, "visibility": -1, "drawOrder": null, "icon": null, "category_group": "Information"}, "geometry": {"type": "Point", "coordinates": [6.8328926, 50.1779519]}}, {"type": "Feature", "properties": {"Name": "Unteres Winkelbachtal", "description": "<b>Kategorie:</b> Information — Besucherinformation<br><b>Distanz:</b> 1875 m<br><b>Website:</b> <br><b>Wikipedia:</b> <br><b>Telefon:</b> ", "timestamp": null, "begin": null, "end": null, "altitudeMode": null, "tessellate": -1, "extrude": 0, "visibility": -1, "drawOrder": null, "icon": null, "category_group": "Information"}, "geometry": {"type": "Point", "coordinates": [6.8229429, 50.1708951]}}, {"type": "Feature", "properties": {"Name": "Rosenberg", "description": "<b>Kategorie:</b> Information — Besucherinformation<br><b>Distanz:</b> 1475 m<br><b>Website:</b> <br><b>Wikipedia:</b> <br><b>Telefon:</b> ", "timestamp": null, "begin": null, "end": null, "altitudeMode": null, "tessellate": -1, "extrude": 0, "visibility": -1, "drawOrder": null, "icon": null, "category_group": "Information"}, "geometry": {"type": "Point", "coordinates": [6.816643, 50.1925194]}}, {"type": "Feature", "properties": {"Name": "Daun, St. Laurentiusschule", "description": "<b>Kategorie:</b> Information — Besucherinformation<br><b>Distanz:</b> 1044 m<br><b>Website:</b> <br><b>Wikipedia:</b> <br><b>Telefon:</b> ", "timestamp": null, "begin": null, "end": null, "altitudeMode": null, "tessellate": -1, "extrude": 0, "visibility": -1, "drawOrder": null, "icon": null, "category_group": "Information"}, "geometry": {"type": "Point", "coordinates": [6.8260305, 50.193576]}}, {"type": "Feature", "properties": {"Name": "Daun, Alter Neunkirchener Weg", "description": "<b>Kategorie:</b> Information — Besucherinformation<br><b>Distanz:</b> 1902 m<br><b>Website:</b> <br><b>Wikipedia:</b> <br><b>Telefon:</b> ", "timestamp": null, "begin": null, "end": null, "altitudeMode": null, "tessellate": -1, "extrude": 0, "visibility": -1, "drawOrder": null, "icon": null, "category_group": "Information"}, "geometry": {"type": "Point", "coordinates": [6.8148949, 50.1974693]}}, {"type": "Feature", "properties": {"Name": "Daun: Parkplatz Wehrbüsch", "description": "<b>Kategorie:</b> Information — Besucherinformation<br><b>Distanz:</b> 1044 m<br><b>Website:</b> <br><b>Wikipedia:</b> <br><b>Telefon:</b> ", "timestamp": null, "begin": null, "end": null, "altitudeMode": null, "tessellate": -1, "extrude": 0, "visibility": -1, "drawOrder": null, "icon": null, "category_group": "Information"}, "geometry": {"type": "Point", "coordinates": [6.8260305, 50.193576]}}, {"type": "Feature", "properties": {"Name": "Daun, St. Laurentiusschule", "description": "<b>Kategorie:</b> Information — Besucherinformation<br><b>Distanz:</b> 1044 m<br><b>Website:</b> <br><b>Wikipedia:</b> <br><b>Telefon:</b> ", "timestamp": null, "begin": null, "end": null, "altitudeMode": null, "tessellate": -1, "extrude": 0, "visibility": -1, "drawOrder": null, "icon": null, "category_group": "Information"}, "geometry": {"type": "Point", "coordinates": [6.8260204, 50.1935705]}}, {"type": "Feature", "properties": {"Name": "Daun, Philosophenweg", "description": "<b>Kategorie:</b> Information — Besucherinformation<br><b>Distanz:</b>  638 m<br><b>Website:</b> <br><b>Wikipedia:</b> <br><b>Telefon:</b> ", "timestamp": null, "begin": null, "end": null, "altitudeMode": null, "tessellate": -1, "extrude": 0, "visibility": -1, "drawOrder": null, "icon": null, "category_group": "Information"}, "geometry": {"type": "Point", "coordinates": [6.8283127, 50.1900467]}}, {"type": "Feature", "properties": {"Name": "Philosophenweg", "description": "<b>Kategorie:</b> Information — Besucherinformation<br><b>Distanz:</b>  637 m<br><b>Website:</b> <br><b>Wikipedia:</b> <br><b>Telefon:</b> ", "timestamp": null, "begin": null, "end": null, "altitudeMode": null, "tessellate": -1, "extrude": 0, "visibility": -1, "drawOrder": null, "icon": null, "category_group": "Information"}, "geometry": {"type": "Point", "coordinates": [6.8279669, 50.1897961]}}, {"type": "Feature", "properties": {"Name": "Daun: südl. Kurpark", "description": "<b>Kategorie:</b> Information — Besucherinformation<br><b>Distanz:</b>  558 m<br><b>Website:</b> <br><b>Wikipedia:</b> <br><b>Telefon:</b> ", "timestamp": null, "begin": null, "end": null, "altitudeMode": null, "tessellate": -1, "extrude": 0, "visibility": -1, "drawOrder": null, "icon": null, "category_group": "Information"}, "geometry": {"type": "Point", "coordinates": [6.8335607, 50.1810177]}}, {"type": "Feature", "properties": {"Name": "Parkplatz Gemündener Maar", "description": "<b>Kategorie:</b> Information — Besucherinformation<br><b>Distanz:</b>  859 m<br><b>Website:</b> <br><b>Wikipedia:</b> <br><b>Telefon:</b> ", "timestamp": null, "begin": null, "end": null, "altitudeMode": null, "tessellate": -1, "extrude": 0, "visibility": -1, "drawOrder": null, "icon": null, "category_group": "Information"}, "geometry": {"type": "Point", "coordinates": [6.8329906, 50.1783328]}}, {"type": "Feature", "properties": {"Name": "Daun: Wehbüsch-Kapelle", "description": "<b>Kategorie:</b> Information — Besucherinformation<br><b>Distanz:</b>  799 m<br><b>Website:</b> <br><b>Wikipedia:</b> <br><b>Telefon:</b> ", "timestamp": null, "begin": null, "end": null, "altitudeMode": null, "tessellate": -1, "extrude": 0, "visibility": -1, "drawOrder": null, "icon": null, "category_group": "Information"}, "geometry": {"type": "Point", "coordinates": [6.8254856, 50.1901232]}}, {"type": "Feature", "properties": {"Name": "Daun, Kurpark/Lieser", "description": "<b>Kategorie:</b> Information — Besucherinformation<br><b>Distanz:</b>  250 m<br><b>Website:</b> <br><b>Wikipedia:</b> <br><b>Telefon:</b> ", "timestamp": null, "begin": null, "end": null, "altitudeMode": null, "tessellate": -1, "extrude": 0, "visibility": -1, "drawOrder": null, "icon": null, "category_group": "Information"}, "geometry": {"type": "Point", "coordinates": [6.8311727, 50.1863379]}}, {"type": "Feature", "properties": {"Name": "Daun: südl. Wehrbüsch-Kapelle", "description": "<b>Kategorie:</b> Information — Besucherinformation<br><b>Distanz:</b>  741 m<br><b>Website:</b> <br><b>Wikipedia:</b> <br><b>Telefon:</b> ", "timestamp": null, "begin": null, "end": null, "altitudeMode": null, "tessellate": -1, "extrude": 0, "visibility": -1, "drawOrder": null, "icon": null, "category_group": "Information"}, "geometry": {"type": "Point", "coordinates": [6.8255166, 50.1891808]}}, {"type": "Feature", "properties": {"Name": "Daun, Kurpark/Mineralbrunnen", "description": "<b>Kategorie:</b> Information — Besucherinformation<br><b>Distanz:</b>  153 m<br><b>Website:</b> <br><b>Wikipedia:</b> <br><b>Telefon:</b> ", "timestamp": null, "begin": null, "end": null, "altitudeMode": null, "tessellate": -1, "extrude": 0, "visibility": -1, "drawOrder": null, "icon": null, "category_group": "Information"}, "geometry": {"type": "Point", "coordinates": [6.8324945, 50.1858715]}}, {"type": "Feature", "properties": {"Name": "Schalkenmehrener Maar/Freibad", "description": "<b>Kategorie:</b> Information — Besucherinformation<br><b>Distanz:</b> 2579 m<br><b>Website:</b> <br><b>Wikipedia:</b> <br><b>Telefon:</b> ", "timestamp": null, "begin": null, "end": null, "altitudeMode": null, "tessellate": -1, "extrude": 0, "visibility": -1, "drawOrder": null, "icon": null, "category_group": "Information"}, "geometry": {"type": "Point", "coordinates": [6.85576, 50.1671816]}}, {"type": "Feature", "properties": {"Name": "Schalkenmehren, Maarstraße", "description": "<b>Kategorie:</b> Information — Besucherinformation<br><b>Distanz:</b> 2859 m<br><b>Website:</b> <br><b>Wikipedia:</b> <br><b>Telefon:</b> ", "timestamp": null, "begin": null, "end": null, "altitudeMode": null, "tessellate": -1, "extrude": 0, "visibility": -1, "drawOrder": null, "icon": null, "category_group": "Information"}, "geometry": {"type": "Point", "coordinates": [6.8597374, 50.1659633]}}, {"type": "Feature", "properties": {"Name": "Informationstafel Der Vulcano Pfad", "description": "<b>Kategorie:</b> Information — Besucherinformation<br><b>Distanz:</b> 3060 m<br><b>Website:</b> www.geopark-vulkaneifel.de<br><b>Wikipedia:</b> <br><b>Telefon:</b> ", "timestamp": null, "begin": null, "end": null, "altitudeMode": null, "tessellate": -1, "extrude": 0, "visibility": -1, "drawOrder": null, "icon": null, "category_group": "Information"}, "geometry": {"type": "Point", "coordinates": [6.8695668, 50.1700662]}}, {"type": "Feature", "properties": {"Name": "Kinderradweg Daun/Gerolstein", "description": "<b>Kategorie:</b> Information — Besucherinformation<br><b>Distanz:</b> 2190 m<br><b>Website:</b> <br><b>Wikipedia:</b> <br><b>Telefon:</b> ", "timestamp": null, "begin": null, "end": null, "altitudeMode": null, "tessellate": -1, "extrude": 0, "visibility": -1, "drawOrder": null, "icon": null, "category_group": "Information"}, "geometry": {"type": "Point", "coordinates": [6.8632904, 50.1789925]}}, {"type": "Feature", "properties": {"Name": "Hotzendrees", "description": "<b>Kategorie:</b> Information — Besucherinformation<br><b>Distanz:</b> 1462 m<br><b>Website:</b> <br><b>Wikipedia:</b> <br><b>Telefon:</b> ", "timestamp": null, "begin": null, "end": null, "altitudeMode": null, "tessellate": -1, "extrude": 0, "visibility": -1, "drawOrder": null, "icon": null, "category_group": "Information"}, "geometry": {"type": "Point", "coordinates": [6.8319969, 50.1990262]}}, {"type": "Feature", "properties": {"Name": "Deutsche Vulkanstraße", "description": "<b>Kategorie:</b> Information — Besucherinformation<br><b>Distanz:</b>  840 m<br><b>Website:</b> <br><b>Wikipedia:</b> <br><b>Telefon:</b> ", "timestamp": null, "begin": null, "end": null, "altitudeMode": null, "tessellate": -1, "extrude": 0, "visibility": -1, "drawOrder": null, "icon": null, "category_group": "Information"}, "geometry": {"type": "Point", "coordinates": [6.8329736, 50.1785129]}}, {"type": "Feature", "properties": {"Name": "Maar-Erlebnisroute", "description": "<b>Kategorie:</b> Information — Besucherinformation<br><b>Distanz:</b> 1145 m<br><b>Website:</b> <br><b>Wikipedia:</b> <br><b>Telefon:</b> ", "timestamp": null, "begin": null, "end": null, "altitudeMode": null, "tessellate": -1, "extrude": 0, "visibility": -1, "drawOrder": null, "icon": null, "category_group": "Information"}, "geometry": {"type": "Point", "coordinates": [6.8306968, 50.1760082]}}, {"type": "Feature", "properties": {"Name": "Blubberblasen in der Eifel", "description": "<b>Kategorie:</b> Information — Besucherinformation<br><b>Distanz:</b>  561 m<br><b>Website:</b> <br><b>Wikipedia:</b> <br><b>Telefon:</b> ", "timestamp": null, "begin": null, "end": null, "altitudeMode": null, "tessellate": -1, "extrude": 0, "visibility": -1, "drawOrder": null, "icon": null, "category_group": "Information"}, "geometry": {"type": "Point", "coordinates": [6.8334844, 50.1809953]}}, {"type": "Feature", "properties": {"Name": "Querschnitt der Maare", "description": "<b>Kategorie:</b> Information — Besucherinformation<br><b>Distanz:</b>  803 m<br><b>Website:</b> <br><b>Wikipedia:</b> <br><b>Telefon:</b> ", "timestamp": null, "begin": null, "end": null, "altitudeMode": null, "tessellate": -1, "extrude": 0, "visibility": -1, "drawOrder": null, "icon": null, "category_group": "Information"}, "geometry": {"type": "Point", "coordinates": [6.8333048, 50.1788184]}}, {"type": "Feature", "properties": {"Name": "Trinkstelle im Kurpark", "description": "<b>Kategorie:</b> Information — Besucherinformation<br><b>Distanz:</b>  164 m<br><b>Website:</b> <br><b>Wikipedia:</b> <br><b>Telefon:</b> ", "timestamp": null, "begin": null, "end": null, "altitudeMode": null, "tessellate": -1, "extrude": 0, "visibility": -1, "drawOrder": null, "icon": null, "category_group": "Information"}, "geometry": {"type": "Point", "coordinates": [6.8330671, 50.1849076]}}, {"type": "Feature", "properties": {"Name": "Abenteuerspielplatz", "description": "<b>Kategorie:</b> Kinder & Jugend — Spielplatz<br><b>Distanz:</b> 1400 m<br><b>Website:</b> <br><b>Wikipedia:</b> <br><b>Telefon:</b> ", "timestamp": null, "begin": null, "end": null, "altitudeMode": null, "tessellate": -1, "extrude": 0, "visibility": -1, "drawOrder": null, "icon": null, "category_group": "Kinder & Jugend"}, "geometry": {"type": "Point", "coordinates": [6.8191232, 50.1782832]}}, {"type": "Feature", "properties": {"Name": "Falknerei", "description": "<b>Kategorie:</b> Kultur & Geschichte — Attraktion<br><b>Distanz:</b> 2175 m<br><b>Website:</b> <br><b>Wikipedia:</b> <br><b>Telefon:</b> ", "timestamp": null, "begin": null, "end": null, "altitudeMode": null, "tessellate": -1, "extrude": 0, "visibility": -1, "drawOrder": null, "icon": null, "category_group": "Kultur & Geschichte"}, "geometry": {"type": "Point", "coordinates": [6.8045223, 50.1830189]}}, {"type": "Feature", "properties": {"Name": "Sommerrodelbahn", "description": "<b>Kategorie:</b> Kultur & Geschichte — Attraktion<br><b>Distanz:</b> 1958 m<br><b>Website:</b> <br><b>Wikipedia:</b> <br><b>Telefon:</b> ", "timestamp": null, "begin": null, "end": null, "altitudeMode": null, "tessellate": -1, "extrude": 0, "visibility": -1, "drawOrder": null, "icon": null, "category_group": "Kultur & Geschichte"}, "geometry": {"type": "Point", "coordinates": [6.8076141, 50.1829924]}}, {"type": "Feature", "properties": {"Name": "Heimwebereimuseum", "description": "<b>Kategorie:</b> Kultur & Geschichte — Museum<br><b>Distanz:</b> 2877 m<br><b>Website:</b> <br><b>Wikipedia:</b> <br><b>Telefon:</b> ", "timestamp": null, "begin": null, "end": null, "altitudeMode": null, "tessellate": -1, "extrude": 0, "visibility": -1, "drawOrder": null, "icon": null, "category_group": "Kultur & Geschichte"}, "geometry": {"type": "Point", "coordinates": [6.8607411, 50.1662926]}}, {"type": "Feature", "properties": {"Name": "Schalkenmehrener Maar", "description": "<b>Kategorie:</b> Natur & Landschaft — Aussichtspunkt<br><b>Distanz:</b> 2064 m<br><b>Website:</b> <br><b>Wikipedia:</b> <br><b>Telefon:</b> ", "timestamp": null, "begin": null, "end": null, "altitudeMode": null, "tessellate": -1, "extrude": 0, "visibility": -1, "drawOrder": null, "icon": null, "category_group": "Natur & Landschaft"}, "geometry": {"type": "Point", "coordinates": [6.8524434, 50.1713749]}}, {"type": "Feature", "properties": {"Name": "Blick auf Kurpark Daun", "description": "<b>Kategorie:</b> Natur & Landschaft — Aussichtspunkt<br><b>Distanz:</b>  424 m<br><b>Website:</b> <br><b>Wikipedia:</b> <br><b>Telefon:</b> ", "timestamp": null, "begin": null, "end": null, "altitudeMode": null, "tessellate": -1, "extrude": 0, "visibility": -1, "drawOrder": null, "icon": null, "category_group": "Natur & Landschaft"}, "geometry": {"type": "Point", "coordinates": [6.8289631, 50.1871424]}}, {"type": "Feature", "properties": {"Name": "Dunaris-Quelle", "description": "<b>Kategorie:</b> Natur & Landschaft — Natur-Feature (alle)<br><b>Distanz:</b>  165 m<br><b>Website:</b> <br><b>Wikipedia:</b> <br><b>Telefon:</b> ", "timestamp": null, "begin": null, "end": null, "altitudeMode": null, "tessellate": -1, "extrude": 0, "visibility": -1, "drawOrder": null, "icon": null, "category_group": "Natur & Landschaft"}, "geometry": {"type": "Point", "coordinates": [6.8330806, 50.1848841]}}, {"type": "Feature", "properties": {"Name": "Priorfels", "description": "<b>Kategorie:</b> Natur & Landschaft — Natur-Feature (alle)<br><b>Distanz:</b> 1352 m<br><b>Website:</b> <br><b>Wikipedia:</b> <br><b>Telefon:</b> ", "timestamp": null, "begin": null, "end": null, "altitudeMode": null, "tessellate": -1, "extrude": 0, "visibility": -1, "drawOrder": null, "icon": null, "category_group": "Natur & Landschaft"}, "geometry": {"type": "Point", "coordinates": [6.8469138, 50.1767339]}}, {"type": "Feature", "properties": {"Name": "Mäuseberg", "description": "<b>Kategorie:</b> Natur & Landschaft — Natur-Feature (alle)<br><b>Distanz:</b> 1293 m<br><b>Website:</b> <br><b>Wikipedia:</b> <br><b>Telefon:</b> ", "timestamp": null, "begin": null, "end": null, "altitudeMode": null, "tessellate": -1, "extrude": 0, "visibility": -1, "drawOrder": null, "icon": null, "category_group": "Natur & Landschaft"}, "geometry": {"type": "Point", "coordinates": [6.8421963, 50.1754274]}}, {"type": "Feature", "properties": {"Name": "Maarkreuz", "description": "<b>Kategorie:</b> Natur & Landschaft — Aussichtspunkt<br><b>Distanz:</b> 2121 m<br><b>Website:</b> <br><b>Wikipedia:</b> <br><b>Telefon:</b> ", "timestamp": null, "begin": null, "end": null, "altitudeMode": null, "tessellate": -1, "extrude": 0, "visibility": -1, "drawOrder": null, "icon": null, "category_group": "Natur & Landschaft"}, "geometry": {"type": "Point", "coordinates": [6.8585901, 50.1747185]}}, {"type": "Feature", "properties": {"Name": "Eifel Blick", "description": "<b>Kategorie:</b> Natur & Landschaft — Aussichtspunkt<br><b>Distanz:</b> 1552 m<br><b>Website:</b> <br><b>Wikipedia:</b> <br><b>Telefon:</b> ", "timestamp": null, "begin": null, "end": null, "altitudeMode": null, "tessellate": -1, "extrude": 0, "visibility": -1, "drawOrder": null, "icon": null, "category_group": "Natur & Landschaft"}, "geometry": {"type": "Point", "coordinates": [6.8324976, 50.1721024]}}, {"type": "Feature", "properties": {"Name": "Josenbachdrees", "description": "<b>Kategorie:</b> Natur & Landschaft — Natur-Feature (alle)<br><b>Distanz:</b> 2254 m<br><b>Website:</b> <br><b>Wikipedia:</b> <br><b>Telefon:</b> ", "timestamp": null, "begin": null, "end": null, "altitudeMode": null, "tessellate": -1, "extrude": 0, "visibility": -1, "drawOrder": null, "icon": null, "category_group": "Natur & Landschaft"}, "geometry": {"type": "Point", "coordinates": [6.8275567, 50.2057343]}}, {"type": "Feature", "properties": {"Name": "Mineralquelle Winkelbachtal", "description": "<b>Kategorie:</b> Natur & Landschaft — Natur-Feature (alle)<br><b>Distanz:</b> 1984 m<br><b>Website:</b> <br><b>Wikipedia:</b> <br><b>Telefon:</b> ", "timestamp": null, "begin": null, "end": null, "altitudeMode": null, "tessellate": -1, "extrude": 0, "visibility": -1, "drawOrder": null, "icon": null, "category_group": "Natur & Landschaft"}, "geometry": {"type": "Point", "coordinates": [6.8310621, 50.1682988]}}, {"type": "Feature", "properties": {"Name": "Hotzendrees", "description": "<b>Kategorie:</b> Natur & Landschaft — Natur-Feature (alle)<br><b>Distanz:</b> 1465 m<br><b>Website:</b> <br><b>Wikipedia:</b> <br><b>Telefon:</b> ", "timestamp": null, "begin": null, "end": null, "altitudeMode": null, "tessellate": -1, "extrude": 0, "visibility": -1, "drawOrder": null, "icon": null, "category_group": "Natur & Landschaft"}, "geometry": {"type": "Point", "coordinates": [6.8319994, 50.199054]}}, {"type": "Feature", "properties": {"Name": "Firmerich", "description": "<b>Kategorie:</b> Natur & Landschaft — Natur-Feature (alle)<br><b>Distanz:</b> 1579 m<br><b>Website:</b> <br><b>Wikipedia:</b> <br><b>Telefon:</b> ", "timestamp": null, "begin": null, "end": null, "altitudeMode": null, "tessellate": -1, "extrude": 0, "visibility": -1, "drawOrder": null, "icon": null, "category_group": "Natur & Landschaft"}, "geometry": {"type": "Point", "coordinates": [6.8440486, 50.1988346]}}, {"type": "Feature", "properties": {"Name": "Vulkanfeld Westeifel", "description": "<b>Kategorie:</b> Natur & Landschaft — Natur-Feature (alle)<br><b>Distanz:</b> 1478 m<br><b>Website:</b> <br><b>Wikipedia:</b> <br><b>Telefon:</b> ", "timestamp": null, "begin": null, "end": null, "altitudeMode": null, "tessellate": -1, "extrude": 0, "visibility": -1, "drawOrder": null, "icon": null, "category_group": "Natur & Landschaft"}, "geometry": {"type": "Point", "coordinates": [6.8498069, 50.1769539]}}, {"type": "Feature", "properties": {"Name": "Gemündener Maar", "description": "<b>Kategorie:</b> Natur & Landschaft — Natur-Feature (alle)<br><b>Distanz:</b>  880 m<br><b>Website:</b> <br><b>Wikipedia:</b> <br><b>Telefon:</b> ", "timestamp": null, "begin": null, "end": null, "altitudeMode": null, "tessellate": -1, "extrude": 0, "visibility": -1, "drawOrder": null, "icon": null, "category_group": "Natur & Landschaft"}, "geometry": {"type": "Point", "coordinates": [6.8361032, 50.1781349]}}]}