{"type": "FeatureCollection", "features": [{"type": "Feature", "properties": {"Name": "JH 406 — Hunsrück-Jugendherberge", "description": "<b>JH Nr:</b> 406<br><b>Name:</b> Hunsrück-Jugendherberge<br><b>Ort:</b> Hermeskeil", "timestamp": null, "begin": null, "end": null, "altitudeMode": null, "tessellate": -1, "extrude": 0, "visibility": -1, "drawOrder": null, "icon": null, "category_group": "JH"}, "geometry": {"type": "Point", "coordinates": [6.9431815, 49.6544843]}}, {"type": "Feature", "properties": {"Name": "Stadtbücherei Hermeskeil", "description": "<b>Kategorie:</b> Bildungsinfrastruktur — Bibliothek<br><b>Distanz:</b>  235 m<br><b>Website:</b> <br><b>Wikipedia:</b> <br><b>Telefon:</b> +49 6503 809201", "timestamp": null, "begin": null, "end": null, "altitudeMode": null, "tessellate": -1, "extrude": 0, "visibility": -1, "drawOrder": null, "icon": null, "category_group": "Bildungsinfrastruktur"}, "geometry": {"type": "Point", "coordinates": [6.9462197, 49.6552503]}}, {"type": "Feature", "properties": {"Name": "Kulturkloster Hermeskeil", "description": "<b>Kategorie:</b> Bildungsinfrastruktur — Gemeindezentrum<br><b>Distanz:</b>  557 m<br><b>Website:</b> <br><b>Wikipedia:</b> <br><b>Telefon:</b> ", "timestamp": null, "begin": null, "end": null, "altitudeMode": null, "tessellate": -1, "extrude": 0, "visibility": -1, "drawOrder": null, "icon": null, "category_group": "Bildungsinfrastruktur"}, "geometry": {"type": "Point", "coordinates": [6.9357883, 49.655914]}}, {"type": "Feature", "properties": {"Name": "RK Hermeskeil", "description": "<b>Kategorie:</b> Bildungsinfrastruktur — Gemeindezentrum<br><b>Distanz:</b>  640 m<br><b>Website:</b> <br><b>Wikipedia:</b> <br><b>Telefon:</b> ", "timestamp": null, "begin": null, "end": null, "altitudeMode": null, "tessellate": -1, "extrude": 0, "visibility": -1, "drawOrder": null, "icon": null, "category_group": "Bildungsinfrastruktur"}, "geometry": {"type": "Point", "coordinates": [6.951433, 49.6523706]}}, {"type": "Feature", "properties": {"Name": "sport lounge.", "description": "<b>Kategorie:</b> Freizeit & Sport — Sportzentrum<br><b>Distanz:</b>  579 m<br><b>Website:</b> <br><b>Wikipedia:</b> <br><b>Telefon:</b> ", "timestamp": null, "begin": null, "end": null, "altitudeMode": null, "tessellate": -1, "extrude": 0, "visibility": -1, "drawOrder": null, "icon": null, "category_group": "Freizeit & Sport"}, "geometry": {"type": "Point", "coordinates": [6.9362615, 49.6571112]}}, {"type": "Feature", "properties": {"Name": "Tourist Information Hermeskeil", "description": "<b>Kategorie:</b> Information — Besucherinformation<br><b>Distanz:</b>  232 m<br><b>Website:</b> <br><b>Wikipedia:</b> <br><b>Telefon:</b> +49 6503 9535-0", "timestamp": null, "begin": null, "end": null, "altitudeMode": null, "tessellate": -1, "extrude": 0, "visibility": -1, "drawOrder": null, "icon": null, "category_group": "Information"}, "geometry": {"type": "Point", "coordinates": [6.9459511, 49.6555496]}}, {"type": "Feature", "properties": {"Name": "Gedenkstätte KZ Hinzert", "description": "<b>Kategorie:</b> Information — Besucherinformation<br><b>Distanz:</b> 1923 m<br><b>Website:</b> <br><b>Wikipedia:</b> <br><b>Telefon:</b> ", "timestamp": null, "begin": null, "end": null, "altitudeMode": null, "tessellate": -1, "extrude": 0, "visibility": -1, "drawOrder": null, "icon": null, "category_group": "Information"}, "geometry": {"type": "Point", "coordinates": [6.9231209, 49.6658575]}}, {"type": "Feature", "properties": {"Name": "Erbeskopf / Hunsrück", "description": "<b>Kategorie:</b> Information — Besucherinformation<br><b>Distanz:</b> 1614 m<br><b>Website:</b> <br><b>Wikipedia:</b> <br><b>Telefon:</b> ", "timestamp": null, "begin": null, "end": null, "altitudeMode": null, "tessellate": -1, "extrude": 0, "visibility": -1, "drawOrder": null, "icon": null, "category_group": "Information"}, "geometry": {"type": "Point", "coordinates": [6.9267202, 49.6446611]}}, {"type": "Feature", "properties": {"Name": "Grabhügelgruppe Steinerwald", "description": "<b>Kategorie:</b> Information — Besucherinformation<br><b>Distanz:</b> 1516 m<br><b>Website:</b> <br><b>Wikipedia:</b> <br><b>Telefon:</b> ", "timestamp": null, "begin": null, "end": null, "altitudeMode": null, "tessellate": -1, "extrude": 0, "visibility": -1, "drawOrder": null, "icon": null, "category_group": "Information"}, "geometry": {"type": "Point", "coordinates": [6.9497092, 49.6415285]}}, {"type": "Feature", "properties": {"Name": "Ein bewegtes Zeitalter", "description": "<b>Kategorie:</b> Information — Besucherinformation<br><b>Distanz:</b>  791 m<br><b>Website:</b> <br><b>Wikipedia:</b> <br><b>Telefon:</b> ", "timestamp": null, "begin": null, "end": null, "altitudeMode": null, "tessellate": -1, "extrude": 0, "visibility": -1, "drawOrder": null, "icon": null, "category_group": "Information"}, "geometry": {"type": "Point", "coordinates": [6.9498441, 49.660132]}}, {"type": "Feature", "properties": {"Name": "Dampflokmuseum", "description": "<b>Kategorie:</b> Kultur & Geschichte — Museum<br><b>Distanz:</b>  919 m<br><b>Website:</b> https://www.dampflokmuseum-hermeskeil.de/<br><b>Wikipedia:</b> <br><b>Telefon:</b> ", "timestamp": null, "begin": null, "end": null, "altitudeMode": null, "tessellate": -1, "extrude": 0, "visibility": -1, "drawOrder": null, "icon": null, "category_group": "Kultur & Geschichte"}, "geometry": {"type": "Point", "coordinates": [6.9313217, 49.6574965]}}, {"type": "Feature", "properties": {"Name": "2 Mammutbäume", "description": "<b>Kategorie:</b> Natur & Landschaft — Natur-Feature (alle)<br><b>Distanz:</b> 1383 m<br><b>Website:</b> https://kulturdb.de/einobjekt.php?id=25069<br><b>Wikipedia:</b> <br><b>Telefon:</b> ", "timestamp": null, "begin": null, "end": null, "altitudeMode": null, "tessellate": -1, "extrude": 0, "visibility": -1, "drawOrder": null, "icon": null, "category_group": "Natur & Landschaft"}, "geometry": {"type": "Point", "coordinates": [6.952169, 49.6435033]}}]}