{"type": "FeatureCollection", "features": [{"type": "Feature", "properties": {"Name": "JH 483 — Jugendherberge Grävenwiesbach", "description": "<b>JH Nr:</b> 483<br><b>Name:</b> Jugendherberge Grävenwiesbach<br><b>Ort:</b> Grävenwiesbach", "timestamp": null, "begin": null, "end": null, "altitudeMode": null, "tessellate": -1, "extrude": 0, "visibility": -1, "drawOrder": null, "icon": null, "category_group": "JH"}, "geometry": {"type": "Point", "coordinates": [8.4634671, 50.3940764]}}, {"type": "Feature", "properties": {"Name": "Lehmkauthalle", "description": "<b>Kategorie:</b> Bildungsinfrastruktur — Gemeindezentrum<br><b>Distanz:</b>  715 m<br><b>Website:</b> <br><b>Telefon:</b> ", "timestamp": null, "begin": null, "end": null, "altitudeMode": null, "tessellate": -1, "extrude": 0, "visibility": -1, "drawOrder": null, "icon": null, "category_group": "Bildungsinfrastruktur"}, "geometry": {"type": "Point", "coordinates": [8.4551015, 50.3905096]}}, {"type": "Feature", "properties": {"Name": "Köhlerspfad Hasselborn", "description": "<b>Kategorie:</b> Information — Besucherinformation<br><b>Distanz:</b> 2291 m<br><b>Website:</b> <br><b>Telefon:</b> ", "timestamp": null, "begin": null, "end": null, "altitudeMode": null, "tessellate": -1, "extrude": 0, "visibility": -1, "drawOrder": null, "icon": null, "category_group": "Information"}, "geometry": {"type": "Point", "coordinates": [8.4879966, 50.4074415]}}, {"type": "Feature", "properties": {"Name": "Wanderwege Waldsolms", "description": "<b>Kategorie:</b> Information — Besucherinformation<br><b>Distanz:</b> 2807 m<br><b>Website:</b> <br><b>Telefon:</b> ", "timestamp": null, "begin": null, "end": null, "altitudeMode": null, "tessellate": -1, "extrude": 0, "visibility": -1, "drawOrder": null, "icon": null, "category_group": "Information"}, "geometry": {"type": "Point", "coordinates": [8.4966809, 50.4077364]}}, {"type": "Feature", "properties": {"Name": "Panoramaweg", "description": "<b>Kategorie:</b> Information — Besucherinformation<br><b>Distanz:</b> 3022 m<br><b>Website:</b> <br><b>Telefon:</b> ", "timestamp": null, "begin": null, "end": null, "altitudeMode": null, "tessellate": -1, "extrude": 0, "visibility": -1, "drawOrder": null, "icon": null, "category_group": "Information"}, "geometry": {"type": "Point", "coordinates": [8.4975021, 50.4103641]}}, {"type": "Feature", "properties": {"Name": "Panoramaweg", "description": "<b>Kategorie:</b> Information — Besucherinformation<br><b>Distanz:</b> 3179 m<br><b>Website:</b> <br><b>Telefon:</b> ", "timestamp": null, "begin": null, "end": null, "altitudeMode": null, "tessellate": -1, "extrude": 0, "visibility": -1, "drawOrder": null, "icon": null, "category_group": "Information"}, "geometry": {"type": "Point", "coordinates": [8.4977199, 50.4124662]}}, {"type": "Feature", "properties": {"Name": "Forstmeister-Siegfried-Eiche", "description": "<b>Kategorie:</b> Kultur & Geschichte — Attraktion<br><b>Distanz:</b> 2031 m<br><b>Website:</b> <br><b>Telefon:</b> ", "timestamp": null, "begin": null, "end": null, "altitudeMode": null, "tessellate": -1, "extrude": 0, "visibility": -1, "drawOrder": null, "icon": null, "category_group": "Kultur & Geschichte"}, "geometry": {"type": "Point", "coordinates": [8.4697163, 50.4119031]}}, {"type": "Feature", "properties": {"Name": "Hoheberg", "description": "<b>Kategorie:</b> Natur & Landschaft — Natur-Feature (alle)<br><b>Distanz:</b> 2631 m<br><b>Website:</b> <br><b>Telefon:</b> ", "timestamp": null, "begin": null, "end": null, "altitudeMode": null, "tessellate": -1, "extrude": 0, "visibility": -1, "drawOrder": null, "icon": null, "category_group": "Natur & Landschaft"}, "geometry": {"type": "Point", "coordinates": [8.47848, 50.3724533]}}, {"type": "Feature", "properties": {"Name": "Hardtküppel", "description": "<b>Kategorie:</b> Natur & Landschaft — Natur-Feature (alle)<br><b>Distanz:</b> 1792 m<br><b>Website:</b> <br><b>Telefon:</b> ", "timestamp": null, "begin": null, "end": null, "altitudeMode": null, "tessellate": -1, "extrude": 0, "visibility": -1, "drawOrder": null, "icon": null, "category_group": "Natur & Landschaft"}, "geometry": {"type": "Point", "coordinates": [8.4568754, 50.3785187]}}, {"type": "Feature", "properties": {"Name": "Gähenstoß", "description": "<b>Kategorie:</b> Natur & Landschaft — Natur-Feature (alle)<br><b>Distanz:</b> 2779 m<br><b>Website:</b> <br><b>Telefon:</b> ", "timestamp": null, "begin": null, "end": null, "altitudeMode": null, "tessellate": -1, "extrude": 0, "visibility": -1, "drawOrder": null, "icon": null, "category_group": "Natur & Landschaft"}, "geometry": {"type": "Point", "coordinates": [8.4854522, 50.4147418]}}, {"type": "Feature", "properties": {"Name": "Gänsrod", "description": "<b>Kategorie:</b> Natur & Landschaft — Natur-Feature (alle)<br><b>Distanz:</b> 2355 m<br><b>Website:</b> <br><b>Telefon:</b> ", "timestamp": null, "begin": null, "end": null, "altitudeMode": null, "tessellate": -1, "extrude": 0, "visibility": -1, "drawOrder": null, "icon": null, "category_group": "Natur & Landschaft"}, "geometry": {"type": "Point", "coordinates": [8.4964227, 50.3962904]}}]}