{"type": "FeatureCollection", "features": [{"type": "Feature", "properties": {"Name": "JH 45 — Jugendherberge Bautzen „Gerberbastei“", "description": "<b>JH Nr:</b> 45<br><b>Name:</b> Jugendherberge Bautzen „Gerberbastei“<br><b>Ort:</b> Bautzen", "timestamp": null, "begin": null, "end": null, "altitudeMode": null, "tessellate": -1, "extrude": 0, "visibility": -1, "drawOrder": null, "icon": null, "category_group": "JH"}, "geometry": {"type": "Point", "coordinates": [14.424481, 51.1835033]}}, {"type": "Feature", "properties": {"Name": "Kinder- und Jugendbibliothek", "description": "<b>Kategorie:</b> Bildungsinfrastruktur — Bibliothek<br><b>Distanz:</b>  306 m<br><b>Website:</b> <br><b>Wikipedia:</b> <br><b>Telefon:</b> ", "timestamp": null, "begin": null, "end": null, "altitudeMode": null, "tessellate": -1, "extrude": 0, "visibility": -1, "drawOrder": null, "icon": null, "category_group": "Bildungsinfrastruktur"}, "geometry": {"type": "Point", "coordinates": [14.4276283, 51.1815942]}}, {"type": "Feature", "properties": {"Name": "Serbska centralna biblioteka - Sorbische Zentralbibliothek", "description": "<b>Kategorie:</b> Bildungsinfrastruktur — Bibliothek<br><b>Distanz:</b>  961 m<br><b>Website:</b> <br><b>Wikipedia:</b> <br><b>Telefon:</b> ", "timestamp": null, "begin": null, "end": null, "altitudeMode": null, "tessellate": -1, "extrude": 0, "visibility": -1, "drawOrder": null, "icon": null, "category_group": "Bildungsinfrastruktur"}, "geometry": {"type": "Point", "coordinates": [14.4287396, 51.1753057]}}, {"type": "Feature", "properties": {"Name": "Domowina", "description": "<b>Kategorie:</b> Bildungsinfrastruktur — Gemeindezentrum<br><b>Distanz:</b>  686 m<br><b>Website:</b> https://www.domowina.de/<br><b>Wikipedia:</b> de:Domowina<br><b>Telefon:</b> ", "timestamp": null, "begin": null, "end": null, "altitudeMode": null, "tessellate": -1, "extrude": 0, "visibility": -1, "drawOrder": null, "icon": null, "category_group": "Bildungsinfrastruktur"}, "geometry": {"type": "Point", "coordinates": [14.4294114, 51.1781791]}}, {"type": "Feature", "properties": {"Name": "FAW Akademie Bautzen", "description": "<b>Kategorie:</b> Bildungsinfrastruktur — Schule<br><b>Distanz:</b> 2526 m<br><b>Website:</b> https://www.faw.de/standorte/bautzen/<br><b>Wikipedia:</b> <br><b>Telefon:</b> +49 3591 617960", "timestamp": null, "begin": null, "end": null, "altitudeMode": null, "tessellate": -1, "extrude": 0, "visibility": -1, "drawOrder": null, "icon": null, "category_group": "Bildungsinfrastruktur"}, "geometry": {"type": "Point", "coordinates": [14.4588385, 51.1904343]}}, {"type": "Feature", "properties": {"Name": "Anerkannte Schulgesellschaft", "description": "<b>Kategorie:</b> Bildungsinfrastruktur — Schule<br><b>Distanz:</b> 1661 m<br><b>Website:</b> https://asg-bildungszentrum-dresden.de/standorte/bautzen<br><b>Wikipedia:</b> <br><b>Telefon:</b> +49 3591 358696", "timestamp": null, "begin": null, "end": null, "altitudeMode": null, "tessellate": -1, "extrude": 0, "visibility": -1, "drawOrder": null, "icon": null, "category_group": "Bildungsinfrastruktur"}, "geometry": {"type": "Point", "coordinates": [14.4205343, 51.1688029]}}, {"type": "Feature", "properties": {"Name": "Berufsförderungswerk Dresden", "description": "<b>Kategorie:</b> Bildungsinfrastruktur — Schule<br><b>Distanz:</b> 1736 m<br><b>Website:</b> https://www.bfw-dresden.de<br><b>Wikipedia:</b> <br><b>Telefon:</b> +49 3591 530368", "timestamp": null, "begin": null, "end": null, "altitudeMode": null, "tessellate": -1, "extrude": 0, "visibility": -1, "drawOrder": null, "icon": null, "category_group": "Bildungsinfrastruktur"}, "geometry": {"type": "Point", "coordinates": [14.4201397, 51.1681581]}}, {"type": "Feature", "properties": {"Name": "Anglerverein Bautzen 1965", "description": "<b>Kategorie:</b> Freizeit & Sport — Yachthafen<br><b>Distanz:</b> 2521 m<br><b>Website:</b> <br><b>Wikipedia:</b> <br><b>Telefon:</b> ", "timestamp": null, "begin": null, "end": null, "altitudeMode": null, "tessellate": -1, "extrude": 0, "visibility": -1, "drawOrder": null, "icon": null, "category_group": "Freizeit & Sport"}, "geometry": {"type": "Point", "coordinates": [14.4357027, 51.2050059]}}, {"type": "Feature", "properties": {"Name": "Sun Point", "description": "<b>Kategorie:</b> Freizeit & Sport — Sportzentrum<br><b>Distanz:</b>  453 m<br><b>Website:</b> https://www.kaufda.de/<br><b>Wikipedia:</b> <br><b>Telefon:</b> +49 3591 32724", "timestamp": null, "begin": null, "end": null, "altitudeMode": null, "tessellate": -1, "extrude": 0, "visibility": -1, "drawOrder": null, "icon": null, "category_group": "Freizeit & Sport"}, "geometry": {"type": "Point", "coordinates": [14.4252873, 51.1794684]}}, {"type": "Feature", "properties": {"Name": "Fitness Studio Andena", "description": "<b>Kategorie:</b> Freizeit & Sport — Sportzentrum<br><b>Distanz:</b> 2298 m<br><b>Website:</b> <br><b>Wikipedia:</b> <br><b>Telefon:</b> ", "timestamp": null, "begin": null, "end": null, "altitudeMode": null, "tessellate": -1, "extrude": 0, "visibility": -1, "drawOrder": null, "icon": null, "category_group": "Freizeit & Sport"}, "geometry": {"type": "Point", "coordinates": [14.4548724, 51.1757247]}}, {"type": "Feature", "properties": {"Name": "GO-IN Aktiv Leben", "description": "<b>Kategorie:</b> Freizeit & Sport — Sportzentrum<br><b>Distanz:</b> 1859 m<br><b>Website:</b> https://go-in-bautzen.de<br><b>Wikipedia:</b> <br><b>Telefon:</b> +49 3591 5327400", "timestamp": null, "begin": null, "end": null, "altitudeMode": null, "tessellate": -1, "extrude": 0, "visibility": -1, "drawOrder": null, "icon": null, "category_group": "Freizeit & Sport"}, "geometry": {"type": "Point", "coordinates": [14.4215765, 51.166918]}}, {"type": "Feature", "properties": {"Name": "World of Bowling", "description": "<b>Kategorie:</b> Freizeit & Sport — Sportzentrum<br><b>Distanz:</b> 2158 m<br><b>Website:</b> <br><b>Wikipedia:</b> <br><b>Telefon:</b> ", "timestamp": null, "begin": null, "end": null, "altitudeMode": null, "tessellate": -1, "extrude": 0, "visibility": -1, "drawOrder": null, "icon": null, "category_group": "Freizeit & Sport"}, "geometry": {"type": "Point", "coordinates": [14.4268958, 51.1641915]}}, {"type": "Feature", "properties": {"Name": "Lasertag Bautzen", "description": "<b>Kategorie:</b> Freizeit & Sport — Sportzentrum<br><b>Distanz:</b> 1698 m<br><b>Website:</b> https://lasertagbautzen.de/<br><b>Wikipedia:</b> <br><b>Telefon:</b> +49 3591 6808858", "timestamp": null, "begin": null, "end": null, "altitudeMode": null, "tessellate": -1, "extrude": 0, "visibility": -1, "drawOrder": null, "icon": null, "category_group": "Freizeit & Sport"}, "geometry": {"type": "Point", "coordinates": [14.4192137, 51.1686226]}}, {"type": "Feature", "properties": {"Name": "Tourist-Information Bautzen/Budyšin", "description": "<b>Kategorie:</b> Information — Besucherinformation<br><b>Distanz:</b>  212 m<br><b>Website:</b> <br><b>Wikipedia:</b> <br><b>Telefon:</b> ", "timestamp": null, "begin": null, "end": null, "altitudeMode": null, "tessellate": -1, "extrude": 0, "visibility": -1, "drawOrder": null, "icon": null, "category_group": "Information"}, "geometry": {"type": "Point", "coordinates": [14.4241771, 51.1816122]}}, {"type": "Feature", "properties": {"Name": "Mühlbastei", "description": "<b>Kategorie:</b> Information — Besucherinformation<br><b>Distanz:</b>  355 m<br><b>Website:</b> <br><b>Wikipedia:</b> <br><b>Telefon:</b> ", "timestamp": null, "begin": null, "end": null, "altitudeMode": null, "tessellate": -1, "extrude": 0, "visibility": -1, "drawOrder": null, "icon": null, "category_group": "Information"}, "geometry": {"type": "Point", "coordinates": [14.4200478, 51.181964]}}, {"type": "Feature", "properties": {"Name": "Serbska kulturna informacija - Sorbische Kulturinformation", "description": "<b>Kategorie:</b> Information — Besucherinformation<br><b>Distanz:</b>  660 m<br><b>Website:</b> http://ski.sorben.com<br><b>Wikipedia:</b> <br><b>Telefon:</b> ", "timestamp": null, "begin": null, "end": null, "altitudeMode": null, "tessellate": -1, "extrude": 0, "visibility": -1, "drawOrder": null, "icon": null, "category_group": "Information"}, "geometry": {"type": "Point", "coordinates": [14.4288235, 51.1782432]}}, {"type": "Feature", "properties": {"Name": "Bärwalder See", "description": "<b>Kategorie:</b> Information — Besucherinformation<br><b>Distanz:</b> 1633 m<br><b>Website:</b> <br><b>Wikipedia:</b> <br><b>Telefon:</b> ", "timestamp": null, "begin": null, "end": null, "altitudeMode": null, "tessellate": -1, "extrude": 0, "visibility": -1, "drawOrder": null, "icon": null, "category_group": "Information"}, "geometry": {"type": "Point", "coordinates": [14.4290498, 51.1978803]}}, {"type": "Feature", "properties": {"Name": "Pegel Bautzen 1", "description": "<b>Kategorie:</b> Information — Besucherinformation<br><b>Distanz:</b> 2069 m<br><b>Website:</b> https://www.umwelt.sachsen.de/umwelt/infosysteme/hwims/portal/mobile/wasserstand-pegel-10000100<br><b>Wikipedia:</b> <br><b>Telefon:</b> ", "timestamp": null, "begin": null, "end": null, "altitudeMode": null, "tessellate": -1, "extrude": 0, "visibility": -1, "drawOrder": null, "icon": null, "category_group": "Information"}, "geometry": {"type": "Point", "coordinates": [14.4084433, 51.1679023]}}, {"type": "Feature", "properties": {"Name": "Stadt Bautzen", "description": "<b>Kategorie:</b> Information — Besucherinformation<br><b>Distanz:</b>  430 m<br><b>Website:</b> <br><b>Wikipedia:</b> <br><b>Telefon:</b> ", "timestamp": null, "begin": null, "end": null, "altitudeMode": null, "tessellate": -1, "extrude": 0, "visibility": -1, "drawOrder": null, "icon": null, "category_group": "Information"}, "geometry": {"type": "Point", "coordinates": [14.4204094, 51.1806097]}}, {"type": "Feature", "properties": {"Name": "Wohnhaus Jan Arnošt und Marko Smoler", "description": "<b>Kategorie:</b> Information — Besucherinformation<br><b>Distanz:</b>  645 m<br><b>Website:</b> <br><b>Wikipedia:</b> <br><b>Telefon:</b> ", "timestamp": null, "begin": null, "end": null, "altitudeMode": null, "tessellate": -1, "extrude": 0, "visibility": -1, "drawOrder": null, "icon": null, "category_group": "Information"}, "geometry": {"type": "Point", "coordinates": [14.4170366, 51.1869202]}}, {"type": "Feature", "properties": {"Name": "Gerberbastei", "description": "<b>Kategorie:</b> Information — Besucherinformation<br><b>Distanz:</b>   13 m<br><b>Website:</b> <br><b>Wikipedia:</b> <br><b>Telefon:</b> ", "timestamp": null, "begin": null, "end": null, "altitudeMode": null, "tessellate": -1, "extrude": 0, "visibility": -1, "drawOrder": null, "icon": null, "category_group": "Information"}, "geometry": {"type": "Point", "coordinates": [14.42444, 51.1833901]}}, {"type": "Feature", "properties": {"Name": "Pulverturm", "description": "<b>Kategorie:</b> Information — Besucherinformation<br><b>Distanz:</b>  124 m<br><b>Website:</b> <br><b>Wikipedia:</b> <br><b>Telefon:</b> ", "timestamp": null, "begin": null, "end": null, "altitudeMode": null, "tessellate": -1, "extrude": 0, "visibility": -1, "drawOrder": null, "icon": null, "category_group": "Information"}, "geometry": {"type": "Point", "coordinates": [14.4227289, 51.1836443]}}, {"type": "Feature", "properties": {"Name": "Nicolaikirchruine", "description": "<b>Kategorie:</b> Information — Besucherinformation<br><b>Distanz:</b>  124 m<br><b>Website:</b> <br><b>Wikipedia:</b> <br><b>Telefon:</b> ", "timestamp": null, "begin": null, "end": null, "altitudeMode": null, "tessellate": -1, "extrude": 0, "visibility": -1, "drawOrder": null, "icon": null, "category_group": "Information"}, "geometry": {"type": "Point", "coordinates": [14.4227209, 51.1836387]}}, {"type": "Feature", "properties": {"Name": "Wendischer Turm", "description": "<b>Kategorie:</b> Information — Besucherinformation<br><b>Distanz:</b>  264 m<br><b>Website:</b> <br><b>Wikipedia:</b> <br><b>Telefon:</b> ", "timestamp": null, "begin": null, "end": null, "altitudeMode": null, "tessellate": -1, "extrude": 0, "visibility": -1, "drawOrder": null, "icon": null, "category_group": "Information"}, "geometry": {"type": "Point", "coordinates": [14.427347, 51.1819692]}}, {"type": "Feature", "properties": {"Name": "Alte Wasserkunst", "description": "<b>Kategorie:</b> Information — Besucherinformation<br><b>Distanz:</b>  393 m<br><b>Website:</b> <br><b>Wikipedia:</b> <br><b>Telefon:</b> ", "timestamp": null, "begin": null, "end": null, "altitudeMode": null, "tessellate": -1, "extrude": 0, "visibility": -1, "drawOrder": null, "icon": null, "category_group": "Information"}, "geometry": {"type": "Point", "coordinates": [14.420867, 51.1808097]}}, {"type": "Feature", "properties": {"Name": "Mühltor", "description": "<b>Kategorie:</b> Information — Besucherinformation<br><b>Distanz:</b>  393 m<br><b>Website:</b> <br><b>Wikipedia:</b> <br><b>Telefon:</b> ", "timestamp": null, "begin": null, "end": null, "altitudeMode": null, "tessellate": -1, "extrude": 0, "visibility": -1, "drawOrder": null, "icon": null, "category_group": "Information"}, "geometry": {"type": "Point", "coordinates": [14.4205964, 51.1809577]}}, {"type": "Feature", "properties": {"Name": "Michaeliskirche", "description": "<b>Kategorie:</b> Information — Besucherinformation<br><b>Distanz:</b>  362 m<br><b>Website:</b> <br><b>Wikipedia:</b> <br><b>Telefon:</b> ", "timestamp": null, "begin": null, "end": null, "altitudeMode": null, "tessellate": -1, "extrude": 0, "visibility": -1, "drawOrder": null, "icon": null, "category_group": "Information"}, "geometry": {"type": "Point", "coordinates": [14.4212143, 51.1809835]}}, {"type": "Feature", "properties": {"Name": "Ehemaliges Akzisehaus", "description": "<b>Kategorie:</b> Information — Besucherinformation<br><b>Distanz:</b>  378 m<br><b>Website:</b> <br><b>Wikipedia:</b> <br><b>Telefon:</b> ", "timestamp": null, "begin": null, "end": null, "altitudeMode": null, "tessellate": -1, "extrude": 0, "visibility": -1, "drawOrder": null, "icon": null, "category_group": "Information"}, "geometry": {"type": "Point", "coordinates": [14.4230641, 51.1802303]}}, {"type": "Feature", "properties": {"Name": "Röhrscheidtbastei", "description": "<b>Kategorie:</b> Information — Besucherinformation<br><b>Distanz:</b>  352 m<br><b>Website:</b> <br><b>Wikipedia:</b> <br><b>Telefon:</b> ", "timestamp": null, "begin": null, "end": null, "altitudeMode": null, "tessellate": -1, "extrude": 0, "visibility": -1, "drawOrder": null, "icon": null, "category_group": "Information"}, "geometry": {"type": "Point", "coordinates": [14.4225553, 51.1805888]}}, {"type": "Feature", "properties": {"Name": "Fischerpforte", "description": "<b>Kategorie:</b> Information — Besucherinformation<br><b>Distanz:</b>  351 m<br><b>Website:</b> <br><b>Wikipedia:</b> <br><b>Telefon:</b> ", "timestamp": null, "begin": null, "end": null, "altitudeMode": null, "tessellate": -1, "extrude": 0, "visibility": -1, "drawOrder": null, "icon": null, "category_group": "Information"}, "geometry": {"type": "Point", "coordinates": [14.4225502, 51.1805915]}}, {"type": "Feature", "properties": {"Name": "Mönchsbastei", "description": "<b>Kategorie:</b> Information — Besucherinformation<br><b>Distanz:</b>  339 m<br><b>Website:</b> <br><b>Wikipedia:</b> <br><b>Telefon:</b> ", "timestamp": null, "begin": null, "end": null, "altitudeMode": null, "tessellate": -1, "extrude": 0, "visibility": -1, "drawOrder": null, "icon": null, "category_group": "Information"}, "geometry": {"type": "Point", "coordinates": [14.4219468, 51.1809127]}}, {"type": "Feature", "properties": {"Name": "Stadtmauerdurchgang", "description": "<b>Kategorie:</b> Information — Besucherinformation<br><b>Distanz:</b>  315 m<br><b>Website:</b> <br><b>Wikipedia:</b> <br><b>Telefon:</b> ", "timestamp": null, "begin": null, "end": null, "altitudeMode": null, "tessellate": -1, "extrude": 0, "visibility": -1, "drawOrder": null, "icon": null, "category_group": "Information"}, "geometry": {"type": "Point", "coordinates": [14.4201602, 51.1827005]}}, {"type": "Feature", "properties": {"Name": "Burgwasserturm", "description": "<b>Kategorie:</b> Information — Besucherinformation<br><b>Distanz:</b>  389 m<br><b>Website:</b> <br><b>Wikipedia:</b> <br><b>Telefon:</b> ", "timestamp": null, "begin": null, "end": null, "altitudeMode": null, "tessellate": -1, "extrude": 0, "visibility": -1, "drawOrder": null, "icon": null, "category_group": "Information"}, "geometry": {"type": "Point", "coordinates": [14.4190522, 51.1827543]}}, {"type": "Feature", "properties": {"Name": "Jakobsweg", "description": "<b>Kategorie:</b> Information — Besucherinformation<br><b>Distanz:</b>  248 m<br><b>Website:</b> <br><b>Wikipedia:</b> <br><b>Telefon:</b> ", "timestamp": null, "begin": null, "end": null, "altitudeMode": null, "tessellate": -1, "extrude": 0, "visibility": -1, "drawOrder": null, "icon": null, "category_group": "Information"}, "geometry": {"type": "Point", "coordinates": [14.4213482, 51.184547]}}, {"type": "Feature", "properties": {"Name": "Hammermühlenbrücke", "description": "<b>Kategorie:</b> Information — Besucherinformation<br><b>Distanz:</b>  247 m<br><b>Website:</b> <br><b>Wikipedia:</b> <br><b>Telefon:</b> ", "timestamp": null, "begin": null, "end": null, "altitudeMode": null, "tessellate": -1, "extrude": 0, "visibility": -1, "drawOrder": null, "icon": null, "category_group": "Information"}, "geometry": {"type": "Point", "coordinates": [14.4213588, 51.1845427]}}, {"type": "Feature", "properties": {"Name": "Seidau", "description": "<b>Kategorie:</b> Information — Besucherinformation<br><b>Distanz:</b>  224 m<br><b>Website:</b> <br><b>Wikipedia:</b> <br><b>Telefon:</b> ", "timestamp": null, "begin": null, "end": null, "altitudeMode": null, "tessellate": -1, "extrude": 0, "visibility": -1, "drawOrder": null, "icon": null, "category_group": "Information"}, "geometry": {"type": "Point", "coordinates": [14.4214999, 51.1842259]}}, {"type": "Feature", "properties": {"Name": "Gasthof zum Schwan", "description": "<b>Kategorie:</b> Information — Besucherinformation<br><b>Distanz:</b>  295 m<br><b>Website:</b> <br><b>Wikipedia:</b> <br><b>Telefon:</b> ", "timestamp": null, "begin": null, "end": null, "altitudeMode": null, "tessellate": -1, "extrude": 0, "visibility": -1, "drawOrder": null, "icon": null, "category_group": "Information"}, "geometry": {"type": "Point", "coordinates": [14.4209138, 51.184905]}}, {"type": "Feature", "properties": {"Name": "Denkmal Hammermühle", "description": "<b>Kategorie:</b> Information — Besucherinformation<br><b>Distanz:</b>  271 m<br><b>Website:</b> <br><b>Wikipedia:</b> <br><b>Telefon:</b> ", "timestamp": null, "begin": null, "end": null, "altitudeMode": null, "tessellate": -1, "extrude": 0, "visibility": -1, "drawOrder": null, "icon": null, "category_group": "Information"}, "geometry": {"type": "Point", "coordinates": [14.4211132, 51.1847094]}}, {"type": "Feature", "properties": {"Name": "Denkmal Via Regia", "description": "<b>Kategorie:</b> Information — Besucherinformation<br><b>Distanz:</b>  267 m<br><b>Website:</b> <br><b>Wikipedia:</b> <br><b>Telefon:</b> ", "timestamp": null, "begin": null, "end": null, "altitudeMode": null, "tessellate": -1, "extrude": 0, "visibility": -1, "drawOrder": null, "icon": null, "category_group": "Information"}, "geometry": {"type": "Point", "coordinates": [14.4211528, 51.1846814]}}, {"type": "Feature", "properties": {"Name": "Prangerhaus", "description": "<b>Kategorie:</b> Information — Besucherinformation<br><b>Distanz:</b>  374 m<br><b>Website:</b> <br><b>Wikipedia:</b> <br><b>Telefon:</b> ", "timestamp": null, "begin": null, "end": null, "altitudeMode": null, "tessellate": -1, "extrude": 0, "visibility": -1, "drawOrder": null, "icon": null, "category_group": "Information"}, "geometry": {"type": "Point", "coordinates": [14.419704, 51.1850066]}}, {"type": "Feature", "properties": {"Name": "Vorstädtisches Wohnhaus", "description": "<b>Kategorie:</b> Information — Besucherinformation<br><b>Distanz:</b>  337 m<br><b>Website:</b> <br><b>Wikipedia:</b> <br><b>Telefon:</b> ", "timestamp": null, "begin": null, "end": null, "altitudeMode": null, "tessellate": -1, "extrude": 0, "visibility": -1, "drawOrder": null, "icon": null, "category_group": "Information"}, "geometry": {"type": "Point", "coordinates": [14.4202438, 51.1849386]}}, {"type": "Feature", "properties": {"Name": "Talsperre Bautzen", "description": "<b>Kategorie:</b> Information — Besucherinformation<br><b>Distanz:</b> 2331 m<br><b>Website:</b> <br><b>Wikipedia:</b> <br><b>Telefon:</b> ", "timestamp": null, "begin": null, "end": null, "altitudeMode": null, "tessellate": -1, "extrude": 0, "visibility": -1, "drawOrder": null, "icon": null, "category_group": "Information"}, "geometry": {"type": "Point", "coordinates": [14.4466988, 51.1990914]}}, {"type": "Feature", "properties": {"Name": "Protschenberg", "description": "<b>Kategorie:</b> Information — Besucherinformation<br><b>Distanz:</b>  538 m<br><b>Website:</b> <br><b>Wikipedia:</b> <br><b>Telefon:</b> ", "timestamp": null, "begin": null, "end": null, "altitudeMode": null, "tessellate": -1, "extrude": 0, "visibility": -1, "drawOrder": null, "icon": null, "category_group": "Information"}, "geometry": {"type": "Point", "coordinates": [14.4169981, 51.1845949]}}, {"type": "Feature", "properties": {"Name": "Schule Seidau", "description": "<b>Kategorie:</b> Information — Besucherinformation<br><b>Distanz:</b>  557 m<br><b>Website:</b> <br><b>Wikipedia:</b> <br><b>Telefon:</b> ", "timestamp": null, "begin": null, "end": null, "altitudeMode": null, "tessellate": -1, "extrude": 0, "visibility": -1, "drawOrder": null, "icon": null, "category_group": "Information"}, "geometry": {"type": "Point", "coordinates": [14.4178069, 51.1862187]}}, {"type": "Feature", "properties": {"Name": "Street of the rich", "description": "<b>Kategorie:</b> Information — Besucherinformation<br><b>Distanz:</b>  332 m<br><b>Website:</b> <br><b>Wikipedia:</b> <br><b>Telefon:</b> ", "timestamp": null, "begin": null, "end": null, "altitudeMode": null, "tessellate": -1, "extrude": 0, "visibility": -1, "drawOrder": null, "icon": null, "category_group": "Information"}, "geometry": {"type": "Point", "coordinates": [14.4273232, 51.1811167]}}, {"type": "Feature", "properties": {"Name": "Reichenturm", "description": "<b>Kategorie:</b> Information — Besucherinformation<br><b>Distanz:</b>  336 m<br><b>Website:</b> <br><b>Wikipedia:</b> <br><b>Telefon:</b> ", "timestamp": null, "begin": null, "end": null, "altitudeMode": null, "tessellate": -1, "extrude": 0, "visibility": -1, "drawOrder": null, "icon": null, "category_group": "Information"}, "geometry": {"type": "Point", "coordinates": [14.4273943, 51.1811035]}}, {"type": "Feature", "properties": {"Name": "Reichenturm täglich geöffnet", "description": "<b>Kategorie:</b> Information — Besucherinformation<br><b>Distanz:</b>  331 m<br><b>Website:</b> <br><b>Wikipedia:</b> <br><b>Telefon:</b> ", "timestamp": null, "begin": null, "end": null, "altitudeMode": null, "tessellate": -1, "extrude": 0, "visibility": -1, "drawOrder": null, "icon": null, "category_group": "Information"}, "geometry": {"type": "Point", "coordinates": [14.427331, 51.1811365]}}, {"type": "Feature", "properties": {"Name": "Liebfrauenkirche", "description": "<b>Kategorie:</b> Information — Besucherinformation<br><b>Distanz:</b>  430 m<br><b>Website:</b> <br><b>Wikipedia:</b> <br><b>Telefon:</b> ", "timestamp": null, "begin": null, "end": null, "altitudeMode": null, "tessellate": -1, "extrude": 0, "visibility": -1, "drawOrder": null, "icon": null, "category_group": "Information"}, "geometry": {"type": "Point", "coordinates": [14.4288483, 51.1807914]}}, {"type": "Feature", "properties": {"Name": "Röm.-Kath. Dompfarrei", "description": "<b>Kategorie:</b> Information — Besucherinformation<br><b>Distanz:</b>  144 m<br><b>Website:</b> <br><b>Wikipedia:</b> <br><b>Telefon:</b> ", "timestamp": null, "begin": null, "end": null, "altitudeMode": null, "tessellate": -1, "extrude": 0, "visibility": -1, "drawOrder": null, "icon": null, "category_group": "Information"}, "geometry": {"type": "Point", "coordinates": [14.4237949, 51.1822849]}}, {"type": "Feature", "properties": {"Name": "Ev.-Luth. Kirchgemeinde St. Petri Bautzen", "description": "<b>Kategorie:</b> Information — Besucherinformation<br><b>Distanz:</b>  153 m<br><b>Website:</b> <br><b>Wikipedia:</b> <br><b>Telefon:</b> ", "timestamp": null, "begin": null, "end": null, "altitudeMode": null, "tessellate": -1, "extrude": 0, "visibility": -1, "drawOrder": null, "icon": null, "category_group": "Information"}, "geometry": {"type": "Point", "coordinates": [14.4233643, 51.1823265]}}, {"type": "Feature", "properties": {"Name": "Via Sacra", "description": "<b>Kategorie:</b> Information — Besucherinformation<br><b>Distanz:</b>  150 m<br><b>Website:</b> <br><b>Wikipedia:</b> <br><b>Telefon:</b> ", "timestamp": null, "begin": null, "end": null, "altitudeMode": null, "tessellate": -1, "extrude": 0, "visibility": -1, "drawOrder": null, "icon": null, "category_group": "Information"}, "geometry": {"type": "Point", "coordinates": [14.4234582, 51.1823171]}}, {"type": "Feature", "properties": {"Name": "Dom St. Peri", "description": "<b>Kategorie:</b> Information — Besucherinformation<br><b>Distanz:</b>  150 m<br><b>Website:</b> <br><b>Wikipedia:</b> <br><b>Telefon:</b> ", "timestamp": null, "begin": null, "end": null, "altitudeMode": null, "tessellate": -1, "extrude": 0, "visibility": -1, "drawOrder": null, "icon": null, "category_group": "Information"}, "geometry": {"type": "Point", "coordinates": [14.4234439, 51.1823256]}}, {"type": "Feature", "properties": {"Name": "Der Paridom", "description": "<b>Kategorie:</b> Information — Besucherinformation<br><b>Distanz:</b>  149 m<br><b>Website:</b> <br><b>Wikipedia:</b> <br><b>Telefon:</b> ", "timestamp": null, "begin": null, "end": null, "altitudeMode": null, "tessellate": -1, "extrude": 0, "visibility": -1, "drawOrder": null, "icon": null, "category_group": "Information"}, "geometry": {"type": "Point", "coordinates": [14.4233891, 51.1823543]}}, {"type": "Feature", "properties": {"Name": "Denn bei dir ist die Quelle des Lebens", "description": "<b>Kategorie:</b> Information — Besucherinformation<br><b>Distanz:</b>  140 m<br><b>Website:</b> <br><b>Wikipedia:</b> <br><b>Telefon:</b> ", "timestamp": null, "begin": null, "end": null, "altitudeMode": null, "tessellate": -1, "extrude": 0, "visibility": -1, "drawOrder": null, "icon": null, "category_group": "Information"}, "geometry": {"type": "Point", "coordinates": [14.4235799, 51.182384]}}, {"type": "Feature", "properties": {"Name": "Stadt Bautzen", "description": "<b>Kategorie:</b> Information — Besucherinformation<br><b>Distanz:</b>  221 m<br><b>Website:</b> <br><b>Wikipedia:</b> <br><b>Telefon:</b> ", "timestamp": null, "begin": null, "end": null, "altitudeMode": null, "tessellate": -1, "extrude": 0, "visibility": -1, "drawOrder": null, "icon": null, "category_group": "Information"}, "geometry": {"type": "Point", "coordinates": [14.4235656, 51.1816034]}}, {"type": "Feature", "properties": {"Name": "Alte Wasserkunst", "description": "<b>Kategorie:</b> Information — Besucherinformation<br><b>Distanz:</b>  408 m<br><b>Website:</b> <br><b>Wikipedia:</b> <br><b>Telefon:</b> ", "timestamp": null, "begin": null, "end": null, "altitudeMode": null, "tessellate": -1, "extrude": 0, "visibility": -1, "drawOrder": null, "icon": null, "category_group": "Information"}, "geometry": {"type": "Point", "coordinates": [14.4207699, 51.1806798]}}, {"type": "Feature", "properties": {"Name": "Spielplatz Wendischer Kirchhof", "description": "<b>Kategorie:</b> Information — Besucherinformation<br><b>Distanz:</b>  345 m<br><b>Website:</b> <br><b>Wikipedia:</b> <br><b>Telefon:</b> ", "timestamp": null, "begin": null, "end": null, "altitudeMode": null, "tessellate": -1, "extrude": 0, "visibility": -1, "drawOrder": null, "icon": null, "category_group": "Information"}, "geometry": {"type": "Point", "coordinates": [14.4216034, 51.180986]}}, {"type": "Feature", "properties": {"Name": "Sorbische Musik 8", "description": "<b>Kategorie:</b> Information — Besucherinformation<br><b>Distanz:</b>  386 m<br><b>Website:</b> <br><b>Wikipedia:</b> <br><b>Telefon:</b> ", "timestamp": null, "begin": null, "end": null, "altitudeMode": null, "tessellate": -1, "extrude": 0, "visibility": -1, "drawOrder": null, "icon": null, "category_group": "Information"}, "geometry": {"type": "Point", "coordinates": [14.4231949, 51.1801314]}}, {"type": "Feature", "properties": {"Name": "Lauenturm - Lawska wěža", "description": "<b>Kategorie:</b> Information — Besucherinformation<br><b>Distanz:</b>  389 m<br><b>Website:</b> <br><b>Wikipedia:</b> <br><b>Telefon:</b> ", "timestamp": null, "begin": null, "end": null, "altitudeMode": null, "tessellate": -1, "extrude": 0, "visibility": -1, "drawOrder": null, "icon": null, "category_group": "Information"}, "geometry": {"type": "Point", "coordinates": [14.4236185, 51.1800569]}}, {"type": "Feature", "properties": {"Name": "Epigramm I", "description": "<b>Kategorie:</b> Information — Besucherinformation<br><b>Distanz:</b>  246 m<br><b>Website:</b> <br><b>Wikipedia:</b> <br><b>Telefon:</b> ", "timestamp": null, "begin": null, "end": null, "altitudeMode": null, "tessellate": -1, "extrude": 0, "visibility": -1, "drawOrder": null, "icon": null, "category_group": "Information"}, "geometry": {"type": "Point", "coordinates": [14.4217464, 51.1821128]}}, {"type": "Feature", "properties": {"Name": "Wasserturm 15", "description": "<b>Kategorie:</b> Information — Besucherinformation<br><b>Distanz:</b>  248 m<br><b>Website:</b> <br><b>Wikipedia:</b> <br><b>Telefon:</b> ", "timestamp": null, "begin": null, "end": null, "altitudeMode": null, "tessellate": -1, "extrude": 0, "visibility": -1, "drawOrder": null, "icon": null, "category_group": "Information"}, "geometry": {"type": "Point", "coordinates": [14.4217109, 51.1821098]}}, {"type": "Feature", "properties": {"Name": "Klosterkirche St. Marien 14", "description": "<b>Kategorie:</b> Information — Besucherinformation<br><b>Distanz:</b>  249 m<br><b>Website:</b> <br><b>Wikipedia:</b> <br><b>Telefon:</b> ", "timestamp": null, "begin": null, "end": null, "altitudeMode": null, "tessellate": -1, "extrude": 0, "visibility": -1, "drawOrder": null, "icon": null, "category_group": "Information"}, "geometry": {"type": "Point", "coordinates": [14.4217074, 51.1821099]}}, {"type": "Feature", "properties": {"Name": "Mönchshof zu Bautzen", "description": "<b>Kategorie:</b> Information — Besucherinformation<br><b>Distanz:</b>  314 m<br><b>Website:</b> <br><b>Wikipedia:</b> <br><b>Telefon:</b> ", "timestamp": null, "begin": null, "end": null, "altitudeMode": null, "tessellate": -1, "extrude": 0, "visibility": -1, "drawOrder": null, "icon": null, "category_group": "Information"}, "geometry": {"type": "Point", "coordinates": [14.4211485, 51.1816177]}}, {"type": "Feature", "properties": {"Name": "Heringstraße", "description": "<b>Kategorie:</b> Information — Besucherinformation<br><b>Distanz:</b>  319 m<br><b>Website:</b> <br><b>Wikipedia:</b> <br><b>Telefon:</b> ", "timestamp": null, "begin": null, "end": null, "altitudeMode": null, "tessellate": -1, "extrude": 0, "visibility": -1, "drawOrder": null, "icon": null, "category_group": "Information"}, "geometry": {"type": "Point", "coordinates": [14.4216985, 51.1812392]}}, {"type": "Feature", "properties": {"Name": "Frieden von Bautzen 1018", "description": "<b>Kategorie:</b> Information — Besucherinformation<br><b>Distanz:</b>  313 m<br><b>Website:</b> <br><b>Wikipedia:</b> <br><b>Telefon:</b> ", "timestamp": null, "begin": null, "end": null, "altitudeMode": null, "tessellate": -1, "extrude": 0, "visibility": -1, "drawOrder": null, "icon": null, "category_group": "Information"}, "geometry": {"type": "Point", "coordinates": [14.4200159, 51.1834989]}}, {"type": "Feature", "properties": {"Name": "Matthiasturm", "description": "<b>Kategorie:</b> Information — Besucherinformation<br><b>Distanz:</b>  239 m<br><b>Website:</b> <br><b>Wikipedia:</b> <br><b>Telefon:</b> ", "timestamp": null, "begin": null, "end": null, "altitudeMode": null, "tessellate": -1, "extrude": 0, "visibility": -1, "drawOrder": null, "icon": null, "category_group": "Information"}, "geometry": {"type": "Point", "coordinates": [14.4210748, 51.1833566]}}, {"type": "Feature", "properties": {"Name": "Denkmal des Sigismund Jagiello", "description": "<b>Kategorie:</b> Information — Besucherinformation<br><b>Distanz:</b>  243 m<br><b>Website:</b> <br><b>Wikipedia:</b> <br><b>Telefon:</b> ", "timestamp": null, "begin": null, "end": null, "altitudeMode": null, "tessellate": -1, "extrude": 0, "visibility": -1, "drawOrder": null, "icon": null, "category_group": "Information"}, "geometry": {"type": "Point", "coordinates": [14.4210208, 51.1833575]}}, {"type": "Feature", "properties": {"Name": "Hofrichterhaus", "description": "<b>Kategorie:</b> Information — Besucherinformation<br><b>Distanz:</b>  294 m<br><b>Website:</b> <br><b>Wikipedia:</b> <br><b>Telefon:</b> ", "timestamp": null, "begin": null, "end": null, "altitudeMode": null, "tessellate": -1, "extrude": 0, "visibility": -1, "drawOrder": null, "icon": null, "category_group": "Information"}, "geometry": {"type": "Point", "coordinates": [14.4202782, 51.1835691]}}, {"type": "Feature", "properties": {"Name": "Domstift 2", "description": "<b>Kategorie:</b> Information — Besucherinformation<br><b>Distanz:</b>  111 m<br><b>Website:</b> <br><b>Wikipedia:</b> <br><b>Telefon:</b> ", "timestamp": null, "begin": null, "end": null, "altitudeMode": null, "tessellate": -1, "extrude": 0, "visibility": -1, "drawOrder": null, "icon": null, "category_group": "Information"}, "geometry": {"type": "Point", "coordinates": [14.4234021, 51.1827753]}}, {"type": "Feature", "properties": {"Name": "Domschatzkammer St. Peri", "description": "<b>Kategorie:</b> Information — Besucherinformation<br><b>Distanz:</b>  112 m<br><b>Website:</b> <br><b>Wikipedia:</b> <br><b>Telefon:</b> ", "timestamp": null, "begin": null, "end": null, "altitudeMode": null, "tessellate": -1, "extrude": 0, "visibility": -1, "drawOrder": null, "icon": null, "category_group": "Information"}, "geometry": {"type": "Point", "coordinates": [14.4233548, 51.1827896]}}, {"type": "Feature", "properties": {"Name": "Spielplatz Vor der Fischerpforte", "description": "<b>Kategorie:</b> Information — Besucherinformation<br><b>Distanz:</b>  431 m<br><b>Website:</b> <br><b>Wikipedia:</b> <br><b>Telefon:</b> ", "timestamp": null, "begin": null, "end": null, "altitudeMode": null, "tessellate": -1, "extrude": 0, "visibility": -1, "drawOrder": null, "icon": null, "category_group": "Information"}, "geometry": {"type": "Point", "coordinates": [14.4214389, 51.180136]}}, {"type": "Feature", "properties": {"Name": "Jablonec nad Nisou", "description": "<b>Kategorie:</b> Information — Besucherinformation<br><b>Distanz:</b>  413 m<br><b>Website:</b> <br><b>Wikipedia:</b> <br><b>Telefon:</b> ", "timestamp": null, "begin": null, "end": null, "altitudeMode": null, "tessellate": -1, "extrude": 0, "visibility": -1, "drawOrder": null, "icon": null, "category_group": "Information"}, "geometry": {"type": "Point", "coordinates": [14.4200873, 51.1810354]}}, {"type": "Feature", "properties": {"Name": "Alte Handelswege", "description": "<b>Kategorie:</b> Information — Besucherinformation<br><b>Distanz:</b>  433 m<br><b>Website:</b> <br><b>Wikipedia:</b> <br><b>Telefon:</b> ", "timestamp": null, "begin": null, "end": null, "altitudeMode": null, "tessellate": -1, "extrude": 0, "visibility": -1, "drawOrder": null, "icon": null, "category_group": "Information"}, "geometry": {"type": "Point", "coordinates": [14.4205148, 51.1805206]}}, {"type": "Feature", "properties": {"Name": "Fitnessanlage", "description": "<b>Kategorie:</b> Information — Besucherinformation<br><b>Distanz:</b>  421 m<br><b>Website:</b> <br><b>Wikipedia:</b> <br><b>Telefon:</b> ", "timestamp": null, "begin": null, "end": null, "altitudeMode": null, "tessellate": -1, "extrude": 0, "visibility": -1, "drawOrder": null, "icon": null, "category_group": "Information"}, "geometry": {"type": "Point", "coordinates": [14.4186433, 51.1826053]}}, {"type": "Feature", "properties": {"Name": "Turnbar", "description": "<b>Kategorie:</b> Information — Besucherinformation<br><b>Distanz:</b>  424 m<br><b>Website:</b> <br><b>Wikipedia:</b> <br><b>Telefon:</b> ", "timestamp": null, "begin": null, "end": null, "altitudeMode": null, "tessellate": -1, "extrude": 0, "visibility": -1, "drawOrder": null, "icon": null, "category_group": "Information"}, "geometry": {"type": "Point", "coordinates": [14.4185915, 51.1826204]}}, {"type": "Feature", "properties": {"Name": "Bund-Länder-Programm Lebendige Zentren", "description": "<b>Kategorie:</b> Information — Besucherinformation<br><b>Distanz:</b>  431 m<br><b>Website:</b> <br><b>Wikipedia:</b> <br><b>Telefon:</b> ", "timestamp": null, "begin": null, "end": null, "altitudeMode": null, "tessellate": -1, "extrude": 0, "visibility": -1, "drawOrder": null, "icon": null, "category_group": "Information"}, "geometry": {"type": "Point", "coordinates": [14.418457, 51.1827136]}}, {"type": "Feature", "properties": {"Name": "Akzisehaus", "description": "<b>Kategorie:</b> Information — Besucherinformation<br><b>Distanz:</b>  695 m<br><b>Website:</b> <br><b>Wikipedia:</b> <br><b>Telefon:</b> ", "timestamp": null, "begin": null, "end": null, "altitudeMode": null, "tessellate": -1, "extrude": 0, "visibility": -1, "drawOrder": null, "icon": null, "category_group": "Information"}, "geometry": {"type": "Point", "coordinates": [14.4230812, 51.1773302]}}, {"type": "Feature", "properties": {"Name": "Ortenburg", "description": "<b>Kategorie:</b> Information — Besucherinformation<br><b>Distanz:</b>  303 m<br><b>Website:</b> <br><b>Wikipedia:</b> <br><b>Telefon:</b> ", "timestamp": null, "begin": null, "end": null, "altitudeMode": null, "tessellate": -1, "extrude": 0, "visibility": -1, "drawOrder": null, "icon": null, "category_group": "Information"}, "geometry": {"type": "Point", "coordinates": [14.420179, 51.1832245]}}, {"type": "Feature", "properties": {"Name": "Sehr geehrte Besucherinnen und Besucher,", "description": "<b>Kategorie:</b> Information — Besucherinformation<br><b>Distanz:</b>  374 m<br><b>Website:</b> <br><b>Wikipedia:</b> <br><b>Telefon:</b> ", "timestamp": null, "begin": null, "end": null, "altitudeMode": null, "tessellate": -1, "extrude": 0, "visibility": -1, "drawOrder": null, "icon": null, "category_group": "Information"}, "geometry": {"type": "Point", "coordinates": [14.4211651, 51.1808737]}}, {"type": "Feature", "properties": {"Name": "33Friedensbrücke, 32c Sorbisches National-Ensemble", "description": "<b>Kategorie:</b> Information — Besucherinformation<br><b>Distanz:</b>  442 m<br><b>Website:</b> <br><b>Wikipedia:</b> <br><b>Telefon:</b> ", "timestamp": null, "begin": null, "end": null, "altitudeMode": null, "tessellate": -1, "extrude": 0, "visibility": -1, "drawOrder": null, "icon": null, "category_group": "Information"}, "geometry": {"type": "Point", "coordinates": [14.4225221, 51.1797302]}}, {"type": "Feature", "properties": {"Name": "4 Rathus", "description": "<b>Kategorie:</b> Information — Besucherinformation<br><b>Distanz:</b>  219 m<br><b>Website:</b> <br><b>Wikipedia:</b> <br><b>Telefon:</b> ", "timestamp": null, "begin": null, "end": null, "altitudeMode": null, "tessellate": -1, "extrude": 0, "visibility": -1, "drawOrder": null, "icon": null, "category_group": "Information"}, "geometry": {"type": "Point", "coordinates": [14.4237403, 51.1815914]}}, {"type": "Feature", "properties": {"Name": "Stadt Bautzen / Budyšin", "description": "<b>Kategorie:</b> Information — Besucherinformation<br><b>Distanz:</b>  211 m<br><b>Website:</b> <br><b>Wikipedia:</b> <br><b>Telefon:</b> ", "timestamp": null, "begin": null, "end": null, "altitudeMode": null, "tessellate": -1, "extrude": 0, "visibility": -1, "drawOrder": null, "icon": null, "category_group": "Information"}, "geometry": {"type": "Point", "coordinates": [14.4240658, 51.1816231]}}, {"type": "Feature", "properties": {"Name": "St. Peter's Cathedral", "description": "<b>Kategorie:</b> Information — Besucherinformation<br><b>Distanz:</b>  145 m<br><b>Website:</b> <br><b>Wikipedia:</b> <br><b>Telefon:</b> ", "timestamp": null, "begin": null, "end": null, "altitudeMode": null, "tessellate": -1, "extrude": 0, "visibility": -1, "drawOrder": null, "icon": null, "category_group": "Information"}, "geometry": {"type": "Point", "coordinates": [14.4237084, 51.1822958]}}, {"type": "Feature", "properties": {"Name": "2a Klosterhaus", "description": "<b>Kategorie:</b> Information — Besucherinformation<br><b>Distanz:</b>  133 m<br><b>Website:</b> <br><b>Wikipedia:</b> <br><b>Telefon:</b> ", "timestamp": null, "begin": null, "end": null, "altitudeMode": null, "tessellate": -1, "extrude": 0, "visibility": -1, "drawOrder": null, "icon": null, "category_group": "Information"}, "geometry": {"type": "Point", "coordinates": [14.4231641, 51.182642]}}, {"type": "Feature", "properties": {"Name": "2 Domstift", "description": "<b>Kategorie:</b> Information — Besucherinformation<br><b>Distanz:</b>  115 m<br><b>Website:</b> <br><b>Wikipedia:</b> <br><b>Telefon:</b> ", "timestamp": null, "begin": null, "end": null, "altitudeMode": null, "tessellate": -1, "extrude": 0, "visibility": -1, "drawOrder": null, "icon": null, "category_group": "Information"}, "geometry": {"type": "Point", "coordinates": [14.4232597, 51.1828128]}}, {"type": "Feature", "properties": {"Name": "Alte Handelswege", "description": "<b>Kategorie:</b> Information — Besucherinformation<br><b>Distanz:</b>  431 m<br><b>Website:</b> <br><b>Wikipedia:</b> <br><b>Telefon:</b> ", "timestamp": null, "begin": null, "end": null, "altitudeMode": null, "tessellate": -1, "extrude": 0, "visibility": -1, "drawOrder": null, "icon": null, "category_group": "Information"}, "geometry": {"type": "Point", "coordinates": [14.42095, 51.1803345]}}, {"type": "Feature", "properties": {"Name": "Jelenia Góra", "description": "<b>Kategorie:</b> Information — Besucherinformation<br><b>Distanz:</b>  413 m<br><b>Website:</b> <br><b>Wikipedia:</b> <br><b>Telefon:</b> ", "timestamp": null, "begin": null, "end": null, "altitudeMode": null, "tessellate": -1, "extrude": 0, "visibility": -1, "drawOrder": null, "icon": null, "category_group": "Information"}, "geometry": {"type": "Point", "coordinates": [14.4200742, 51.1810328]}}, {"type": "Feature", "properties": {"Name": "Dreux", "description": "<b>Kategorie:</b> Information — Besucherinformation<br><b>Distanz:</b>  414 m<br><b>Website:</b> <br><b>Wikipedia:</b> <br><b>Telefon:</b> ", "timestamp": null, "begin": null, "end": null, "altitudeMode": null, "tessellate": -1, "extrude": 0, "visibility": -1, "drawOrder": null, "icon": null, "category_group": "Information"}, "geometry": {"type": "Point", "coordinates": [14.4200602, 51.1810299]}}, {"type": "Feature", "properties": {"Name": "Heidelberg", "description": "<b>Kategorie:</b> Information — Besucherinformation<br><b>Distanz:</b>  416 m<br><b>Website:</b> <br><b>Wikipedia:</b> <br><b>Telefon:</b> ", "timestamp": null, "begin": null, "end": null, "altitudeMode": null, "tessellate": -1, "extrude": 0, "visibility": -1, "drawOrder": null, "icon": null, "category_group": "Information"}, "geometry": {"type": "Point", "coordinates": [14.4200407, 51.1810261]}}, {"type": "Feature", "properties": {"Name": "Worms", "description": "<b>Kategorie:</b> Information — Besucherinformation<br><b>Distanz:</b>  417 m<br><b>Website:</b> <br><b>Wikipedia:</b> <br><b>Telefon:</b> ", "timestamp": null, "begin": null, "end": null, "altitudeMode": null, "tessellate": -1, "extrude": 0, "visibility": -1, "drawOrder": null, "icon": null, "category_group": "Information"}, "geometry": {"type": "Point", "coordinates": [14.4200249, 51.181023]}}, {"type": "Feature", "properties": {"Name": "Tower of the Rich", "description": "<b>Kategorie:</b> Information — Besucherinformation<br><b>Distanz:</b>  333 m<br><b>Website:</b> <br><b>Wikipedia:</b> <br><b>Telefon:</b> ", "timestamp": null, "begin": null, "end": null, "altitudeMode": null, "tessellate": -1, "extrude": 0, "visibility": -1, "drawOrder": null, "icon": null, "category_group": "Information"}, "geometry": {"type": "Point", "coordinates": [14.4273197, 51.1811077]}}, {"type": "Feature", "properties": {"Name": "Kindercafé Valentin", "description": "<b>Kategorie:</b> Kinder & Jugend — Spielplatz<br><b>Distanz:</b>  608 m<br><b>Website:</b> https://www.kindercafe-valentin.de/<br><b>Wikipedia:</b> <br><b>Telefon:</b> +49 3591 530158", "timestamp": null, "begin": null, "end": null, "altitudeMode": null, "tessellate": -1, "extrude": 0, "visibility": -1, "drawOrder": null, "icon": null, "category_group": "Kinder & Jugend"}, "geometry": {"type": "Point", "coordinates": [14.4314808, 51.1802768]}}, {"type": "Feature", "properties": {"Name": "Kinderparadies", "description": "<b>Kategorie:</b> Kinder & Jugend — Spielplatz<br><b>Distanz:</b>  354 m<br><b>Website:</b> <br><b>Wikipedia:</b> <br><b>Telefon:</b> +49 3591 43049", "timestamp": null, "begin": null, "end": null, "altitudeMode": null, "tessellate": -1, "extrude": 0, "visibility": -1, "drawOrder": null, "icon": null, "category_group": "Kinder & Jugend"}, "geometry": {"type": "Point", "coordinates": [14.4247579, 51.180331]}}, {"type": "Feature", "properties": {"Name": "Sprejnik Spiel und Familienpark", "description": "<b>Kategorie:</b> Kinder & Jugend — Spielplatz<br><b>Distanz:</b> 2191 m<br><b>Website:</b> <br><b>Wikipedia:</b> <br><b>Telefon:</b> ", "timestamp": null, "begin": null, "end": null, "altitudeMode": null, "tessellate": -1, "extrude": 0, "visibility": -1, "drawOrder": null, "icon": null, "category_group": "Kinder & Jugend"}, "geometry": {"type": "Point", "coordinates": [14.4490396, 51.195699]}}, {"type": "Feature", "properties": {"Name": "Serbski ludowy ansambl - Sorbisches National-Ensemble", "description": "<b>Kategorie:</b> Kultur & Geschichte — Theater<br><b>Distanz:</b>  409 m<br><b>Website:</b> http://www.sorbisches-national-ensemble.de<br><b>Wikipedia:</b> <br><b>Telefon:</b> +49 3591 358 0", "timestamp": null, "begin": null, "end": null, "altitudeMode": null, "tessellate": -1, "extrude": 0, "visibility": -1, "drawOrder": null, "icon": null, "category_group": "Kultur & Geschichte"}, "geometry": {"type": "Point", "coordinates": [14.4225827, 51.1800341]}}, {"type": "Feature", "properties": {"Name": "Museum Bautzen", "description": "<b>Kategorie:</b> Kultur & Geschichte — Museum<br><b>Distanz:</b>  406 m<br><b>Website:</b> https://www.bautzen.de/museum-bautzen<br><b>Wikipedia:</b> <br><b>Telefon:</b> +49 3591 498533", "timestamp": null, "begin": null, "end": null, "altitudeMode": null, "tessellate": -1, "extrude": 0, "visibility": -1, "drawOrder": null, "icon": null, "category_group": "Kultur & Geschichte"}, "geometry": {"type": "Point", "coordinates": [14.4270748, 51.1802455]}}, {"type": "Feature", "properties": {"Name": "Bautzner Senfladen", "description": "<b>Kategorie:</b> Kultur & Geschichte — Attraktion<br><b>Distanz:</b>  202 m<br><b>Website:</b> https://www.senf-stube.de/<br><b>Wikipedia:</b> <br><b>Telefon:</b> +49 3591 597118", "timestamp": null, "begin": null, "end": null, "altitudeMode": null, "tessellate": -1, "extrude": 0, "visibility": -1, "drawOrder": null, "icon": null, "category_group": "Kultur & Geschichte"}, "geometry": {"type": "Point", "coordinates": [14.4233374, 51.1818362]}}, {"type": "Feature", "properties": {"Name": "Steinhaus-Kino", "description": "<b>Kategorie:</b> Kultur & Geschichte — Kino<br><b>Distanz:</b>  577 m<br><b>Website:</b> <br><b>Wikipedia:</b> <br><b>Telefon:</b> ", "timestamp": null, "begin": null, "end": null, "altitudeMode": null, "tessellate": -1, "extrude": 0, "visibility": -1, "drawOrder": null, "icon": null, "category_group": "Kultur & Geschichte"}, "geometry": {"type": "Point", "coordinates": [14.4320425, 51.1814387]}}, {"type": "Feature", "properties": {"Name": "Domschatzkammer Bautzen", "description": "<b>Kategorie:</b> Kultur & Geschichte — Museum<br><b>Distanz:</b>   82 m<br><b>Website:</b> <br><b>Wikipedia:</b> <br><b>Telefon:</b> ", "timestamp": null, "begin": null, "end": null, "altitudeMode": null, "tessellate": -1, "extrude": 0, "visibility": -1, "drawOrder": null, "icon": null, "category_group": "Kultur & Geschichte"}, "geometry": {"type": "Point", "coordinates": [14.4235192, 51.1830873]}}, {"type": "Feature", "properties": {"Name": "Dampflokomotive 52 8056-5", "description": "<b>Kategorie:</b> Kultur & Geschichte — Attraktion<br><b>Distanz:</b> 1186 m<br><b>Website:</b> <br><b>Wikipedia:</b> <br><b>Telefon:</b> ", "timestamp": null, "begin": null, "end": null, "altitudeMode": null, "tessellate": -1, "extrude": 0, "visibility": -1, "drawOrder": null, "icon": null, "category_group": "Kultur & Geschichte"}, "geometry": {"type": "Point", "coordinates": [14.4262625, 51.1729167]}}, {"type": "Feature", "properties": {"Name": "Türme-Stern", "description": "<b>Kategorie:</b> Kultur & Geschichte — Attraktion<br><b>Distanz:</b>  288 m<br><b>Website:</b> <br><b>Wikipedia:</b> <br><b>Telefon:</b> ", "timestamp": null, "begin": null, "end": null, "altitudeMode": null, "tessellate": -1, "extrude": 0, "visibility": -1, "drawOrder": null, "icon": null, "category_group": "Kultur & Geschichte"}, "geometry": {"type": "Point", "coordinates": [14.4261674, 51.1811407]}}, {"type": "Feature", "properties": {"Name": "Oberer Schafberg", "description": "<b>Kategorie:</b> Natur & Landschaft — Natur-Feature (alle)<br><b>Distanz:</b> 2664 m<br><b>Website:</b> <br><b>Wikipedia:</b> <br><b>Telefon:</b> ", "timestamp": null, "begin": null, "end": null, "altitudeMode": null, "tessellate": -1, "extrude": 0, "visibility": -1, "drawOrder": null, "icon": null, "category_group": "Natur & Landschaft"}, "geometry": {"type": "Point", "coordinates": [14.4377947, 51.2059063]}}, {"type": "Feature", "properties": {"Name": "Protschenberg", "description": "<b>Kategorie:</b> Natur & Landschaft — Natur-Feature (alle)<br><b>Distanz:</b>  566 m<br><b>Website:</b> <br><b>Wikipedia:</b> de:Protschenberg<br><b>Telefon:</b> ", "timestamp": null, "begin": null, "end": null, "altitudeMode": null, "tessellate": -1, "extrude": 0, "visibility": -1, "drawOrder": null, "icon": null, "category_group": "Natur & Landschaft"}, "geometry": {"type": "Point", "coordinates": [14.4167273, 51.1849275]}}, {"type": "Feature", "properties": {"Name": "König Albert Eiche", "description": "<b>Kategorie:</b> Natur & Landschaft — Natur-Feature (alle)<br><b>Distanz:</b>  557 m<br><b>Website:</b> <br><b>Wikipedia:</b> <br><b>Telefon:</b> ", "timestamp": null, "begin": null, "end": null, "altitudeMode": null, "tessellate": -1, "extrude": 0, "visibility": -1, "drawOrder": null, "icon": null, "category_group": "Natur & Landschaft"}, "geometry": {"type": "Point", "coordinates": [14.4166217, 51.1842812]}}, {"type": "Feature", "properties": {"Name": "König Albert Linde", "description": "<b>Kategorie:</b> Natur & Landschaft — Natur-Feature (alle)<br><b>Distanz:</b> 2111 m<br><b>Website:</b> <br><b>Wikipedia:</b> <br><b>Telefon:</b> ", "timestamp": null, "begin": null, "end": null, "altitudeMode": null, "tessellate": -1, "extrude": 0, "visibility": -1, "drawOrder": null, "icon": null, "category_group": "Natur & Landschaft"}, "geometry": {"type": "Point", "coordinates": [14.441289, 51.1992377]}}, {"type": "Feature", "properties": {"Name": "Luthereiche", "description": "<b>Kategorie:</b> Natur & Landschaft — Natur-Feature (alle)<br><b>Distanz:</b> 2140 m<br><b>Website:</b> <br><b>Wikipedia:</b> <br><b>Telefon:</b> ", "timestamp": null, "begin": null, "end": null, "altitudeMode": null, "tessellate": -1, "extrude": 0, "visibility": -1, "drawOrder": null, "icon": null, "category_group": "Natur & Landschaft"}, "geometry": {"type": "Point", "coordinates": [14.4423976, 51.1990667]}}, {"type": "Feature", "properties": {"Name": "Reymannweg", "description": "<b>Kategorie:</b> Natur & Landschaft — Aussichtspunkt<br><b>Distanz:</b>  352 m<br><b>Website:</b> <br><b>Wikipedia:</b> <br><b>Telefon:</b> ", "timestamp": null, "begin": null, "end": null, "altitudeMode": null, "tessellate": -1, "extrude": 0, "visibility": -1, "drawOrder": null, "icon": null, "category_group": "Natur & Landschaft"}, "geometry": {"type": "Point", "coordinates": [14.4202343, 51.1818104]}}, {"type": "Feature", "properties": {"Name": "Flinz", "description": "<b>Kategorie:</b> Natur & Landschaft — Natur-Feature (alle)<br><b>Distanz:</b> 2400 m<br><b>Website:</b> <br><b>Wikipedia:</b> <br><b>Telefon:</b> ", "timestamp": null, "begin": null, "end": null, "altitudeMode": null, "tessellate": -1, "extrude": 0, "visibility": -1, "drawOrder": null, "icon": null, "category_group": "Natur & Landschaft"}, "geometry": {"type": "Point", "coordinates": [14.4494781, 51.1982442]}}, {"type": "Feature", "properties": {"Name": "Hirschberg", "description": "<b>Kategorie:</b> Natur & Landschaft — Natur-Feature (alle)<br><b>Distanz:</b> 1904 m<br><b>Website:</b> <br><b>Wikipedia:</b> <br><b>Telefon:</b> ", "timestamp": null, "begin": null, "end": null, "altitudeMode": null, "tessellate": -1, "extrude": 0, "visibility": -1, "drawOrder": null, "icon": null, "category_group": "Natur & Landschaft"}, "geometry": {"type": "Point", "coordinates": [14.4410626, 51.1970548]}}, {"type": "Feature", "properties": {"Name": "Mierschberg", "description": "<b>Kategorie:</b> Natur & Landschaft — Natur-Feature (alle)<br><b>Distanz:</b> 2854 m<br><b>Website:</b> <br><b>Wikipedia:</b> <br><b>Telefon:</b> ", "timestamp": null, "begin": null, "end": null, "altitudeMode": null, "tessellate": -1, "extrude": 0, "visibility": -1, "drawOrder": null, "icon": null, "category_group": "Natur & Landschaft"}, "geometry": {"type": "Point", "coordinates": [14.4538083, 51.2013024]}}, {"type": "Feature", "properties": {"Name": "Kirschberg", "description": "<b>Kategorie:</b> Natur & Landschaft — Natur-Feature (alle)<br><b>Distanz:</b> 1902 m<br><b>Website:</b> <br><b>Wikipedia:</b> <br><b>Telefon:</b> ", "timestamp": null, "begin": null, "end": null, "altitudeMode": null, "tessellate": -1, "extrude": 0, "visibility": -1, "drawOrder": null, "icon": null, "category_group": "Natur & Landschaft"}, "geometry": {"type": "Point", "coordinates": [14.4410468, 51.1970347]}}, {"type": "Feature", "properties": {"Name": "Hummel - Homola", "description": "<b>Kategorie:</b> Natur & Landschaft — Natur-Feature (alle)<br><b>Distanz:</b> 1282 m<br><b>Website:</b> <br><b>Wikipedia:</b> <br><b>Telefon:</b> ", "timestamp": null, "begin": null, "end": null, "altitudeMode": null, "tessellate": -1, "extrude": 0, "visibility": -1, "drawOrder": null, "icon": null, "category_group": "Natur & Landschaft"}, "geometry": {"type": "Point", "coordinates": [14.4076144, 51.1879912]}}]}