{"type": "FeatureCollection", "features": [{"type": "Feature", "properties": {"Name": "JH 434 — Euregionales Jugendgästehaus", "description": "<b>JH Nr:</b> 434<br><b>Name:</b> Euregionales Jugendgästehaus<br><b>Ort:</b> Aachen", "timestamp": null, "begin": null, "end": null, "altitudeMode": null, "tessellate": -1, "extrude": 0, "visibility": -1, "drawOrder": null, "icon": null, "category_group": "JH"}, "geometry": {"type": "Point", "coordinates": [6.0727054, 50.7525104]}}, {"type": "Feature", "properties": {"Name": "Begegnungsstätte", "description": "<b>Kategorie:</b> Bildungsinfrastruktur — Gemeindezentrum<br><b>Distanz:</b> 1575 m<br><b>Website:</b> https://www.awo-aachen.de/begegnungsstaetten<br><b>Wikipedia:</b> <br><b>Telefon:</b> ", "timestamp": null, "begin": null, "end": null, "altitudeMode": null, "tessellate": -1, "extrude": 0, "visibility": -1, "drawOrder": null, "icon": null, "category_group": "Bildungsinfrastruktur"}, "geometry": {"type": "Point", "coordinates": [6.0703145, 50.7665893]}}, {"type": "Feature", "properties": {"Name": "Knutschfleck", "description": "<b>Kategorie:</b> Bildungsinfrastruktur — Gemeindezentrum<br><b>Distanz:</b> 1986 m<br><b>Website:</b> https://www.knutschfleck-online.de/<br><b>Wikipedia:</b> <br><b>Telefon:</b> ", "timestamp": null, "begin": null, "end": null, "altitudeMode": null, "tessellate": -1, "extrude": 0, "visibility": -1, "drawOrder": null, "icon": null, "category_group": "Bildungsinfrastruktur"}, "geometry": {"type": "Point", "coordinates": [6.0750603, 50.7703005]}}, {"type": "Feature", "properties": {"Name": "Hochschulbibliothek Eupenerstr.", "description": "<b>Kategorie:</b> Bildungsinfrastruktur — Bibliothek<br><b>Distanz:</b> 1070 m<br><b>Website:</b> https://www.fh-aachen.de/hochschule/bibliothek/<br><b>Wikipedia:</b> <br><b>Telefon:</b> ", "timestamp": null, "begin": null, "end": null, "altitudeMode": null, "tessellate": -1, "extrude": 0, "visibility": -1, "drawOrder": null, "icon": null, "category_group": "Bildungsinfrastruktur"}, "geometry": {"type": "Point", "coordinates": [6.0829811, 50.7595794]}}, {"type": "Feature", "properties": {"Name": "Diözesanbibliothek", "description": "<b>Kategorie:</b> Bildungsinfrastruktur — Bibliothek<br><b>Distanz:</b>  864 m<br><b>Website:</b> <br><b>Wikipedia:</b> <br><b>Telefon:</b> ", "timestamp": null, "begin": null, "end": null, "altitudeMode": null, "tessellate": -1, "extrude": 0, "visibility": -1, "drawOrder": null, "icon": null, "category_group": "Bildungsinfrastruktur"}, "geometry": {"type": "Point", "coordinates": [6.084643, 50.7542496]}}, {"type": "Feature", "properties": {"Name": "Farbenfleck", "description": "<b>Kategorie:</b> Bildungsinfrastruktur — Kunstzentrum<br><b>Distanz:</b> 2426 m<br><b>Website:</b> https://farbenfleck.de/<br><b>Wikipedia:</b> <br><b>Telefon:</b> ", "timestamp": null, "begin": null, "end": null, "altitudeMode": null, "tessellate": -1, "extrude": 0, "visibility": -1, "drawOrder": null, "icon": null, "category_group": "Bildungsinfrastruktur"}, "geometry": {"type": "Point", "coordinates": [6.0918421, 50.770626]}}, {"type": "Feature", "properties": {"Name": "Bibliothek KatHO", "description": "<b>Kategorie:</b> Bildungsinfrastruktur — Bibliothek<br><b>Distanz:</b> 1642 m<br><b>Website:</b> <br><b>Wikipedia:</b> <br><b>Telefon:</b> ", "timestamp": null, "begin": null, "end": null, "altitudeMode": null, "tessellate": -1, "extrude": 0, "visibility": -1, "drawOrder": null, "icon": null, "category_group": "Bildungsinfrastruktur"}, "geometry": {"type": "Point", "coordinates": [6.0948482, 50.7570514]}}, {"type": "Feature", "properties": {"Name": "Mehrzweckhalle | Maria im Tann", "description": "<b>Kategorie:</b> Bildungsinfrastruktur — Gemeindezentrum<br><b>Distanz:</b> 1984 m<br><b>Website:</b> <br><b>Wikipedia:</b> <br><b>Telefon:</b> ", "timestamp": null, "begin": null, "end": null, "altitudeMode": null, "tessellate": -1, "extrude": 0, "visibility": -1, "drawOrder": null, "icon": null, "category_group": "Bildungsinfrastruktur"}, "geometry": {"type": "Point", "coordinates": [6.0501354, 50.7418866]}}, {"type": "Feature", "properties": {"Name": "Planbar", "description": "<b>Kategorie:</b> Bildungsinfrastruktur — Gemeindezentrum<br><b>Distanz:</b> 2486 m<br><b>Website:</b> <br><b>Wikipedia:</b> <br><b>Telefon:</b> ", "timestamp": null, "begin": null, "end": null, "altitudeMode": null, "tessellate": -1, "extrude": 0, "visibility": -1, "drawOrder": null, "icon": null, "category_group": "Bildungsinfrastruktur"}, "geometry": {"type": "Point", "coordinates": [6.0875455, 50.7727746]}}, {"type": "Feature", "properties": {"Name": "Rainbow Aachen", "description": "<b>Kategorie:</b> Bildungsinfrastruktur — Gemeindezentrum<br><b>Distanz:</b> 1989 m<br><b>Website:</b> https://www.rainbow-aachen.de/<br><b>Wikipedia:</b> <br><b>Telefon:</b> +49 241 4019700", "timestamp": null, "begin": null, "end": null, "altitudeMode": null, "tessellate": -1, "extrude": 0, "visibility": -1, "drawOrder": null, "icon": null, "category_group": "Bildungsinfrastruktur"}, "geometry": {"type": "Point", "coordinates": [6.075097, 50.7703252]}}, {"type": "Feature", "properties": {"Name": "Infoladen Aachen", "description": "<b>Kategorie:</b> Bildungsinfrastruktur — Bibliothek<br><b>Distanz:</b> 2645 m<br><b>Website:</b> https://infoladenaachen.noblogs.org/<br><b>Wikipedia:</b> <br><b>Telefon:</b> ", "timestamp": null, "begin": null, "end": null, "altitudeMode": null, "tessellate": -1, "extrude": 0, "visibility": -1, "drawOrder": null, "icon": null, "category_group": "Bildungsinfrastruktur"}, "geometry": {"type": "Point", "coordinates": [6.1008437, 50.7682099]}}, {"type": "Feature", "properties": {"Name": "diffus.space", "description": "<b>Kategorie:</b> Bildungsinfrastruktur — Gemeindezentrum<br><b>Distanz:</b> 3335 m<br><b>Website:</b> https://www.diffus.space/<br><b>Wikipedia:</b> <br><b>Telefon:</b> ", "timestamp": null, "begin": null, "end": null, "altitudeMode": null, "tessellate": -1, "extrude": 0, "visibility": -1, "drawOrder": null, "icon": null, "category_group": "Bildungsinfrastruktur"}, "geometry": {"type": "Point", "coordinates": [6.1064221, 50.7735198]}}, {"type": "Feature", "properties": {"Name": "FH Aachen, Bibliothek Bayernallee", "description": "<b>Kategorie:</b> Bildungsinfrastruktur — Bibliothek<br><b>Distanz:</b> 1688 m<br><b>Website:</b> <br><b>Wikipedia:</b> <br><b>Telefon:</b> ", "timestamp": null, "begin": null, "end": null, "altitudeMode": null, "tessellate": -1, "extrude": 0, "visibility": -1, "drawOrder": null, "icon": null, "category_group": "Bildungsinfrastruktur"}, "geometry": {"type": "Point", "coordinates": [6.0962439, 50.7551869]}}, {"type": "Feature", "properties": {"Name": "Bischöfliches Diözesanarchiv Aachen", "description": "<b>Kategorie:</b> Bildungsinfrastruktur — Bibliothek<br><b>Distanz:</b> 2534 m<br><b>Website:</b> https://www.bistum-aachen.de/Bischoefliches-Dioezesanarchiv/index.html<br><b>Wikipedia:</b> <br><b>Telefon:</b> +49 241 452268", "timestamp": null, "begin": null, "end": null, "altitudeMode": null, "tessellate": -1, "extrude": 0, "visibility": -1, "drawOrder": null, "icon": null, "category_group": "Bildungsinfrastruktur"}, "geometry": {"type": "Point", "coordinates": [6.0794521, 50.7748763]}}, {"type": "Feature", "properties": {"Name": "suedoase", "description": "<b>Kategorie:</b> Bildungsinfrastruktur — Gemeindezentrum<br><b>Distanz:</b> 1732 m<br><b>Website:</b> http://www.suedoase.de<br><b>Wikipedia:</b> <br><b>Telefon:</b> +49 241 33728", "timestamp": null, "begin": null, "end": null, "altitudeMode": null, "tessellate": -1, "extrude": 0, "visibility": -1, "drawOrder": null, "icon": null, "category_group": "Bildungsinfrastruktur"}, "geometry": {"type": "Point", "coordinates": [6.082039, 50.7669101]}}, {"type": "Feature", "properties": {"Name": "Schule für Gesundheits-, Kinderkranken- und Krankenpflege", "description": "<b>Kategorie:</b> Bildungsinfrastruktur — Hochschule<br><b>Distanz:</b> 1943 m<br><b>Website:</b> <br><b>Wikipedia:</b> <br><b>Telefon:</b> ", "timestamp": null, "begin": null, "end": null, "altitudeMode": null, "tessellate": -1, "extrude": 0, "visibility": -1, "drawOrder": null, "icon": null, "category_group": "Bildungsinfrastruktur"}, "geometry": {"type": "Point", "coordinates": [6.0594562, 50.7678168]}}, {"type": "Feature", "properties": {"Name": "Studio Clay", "description": "<b>Kategorie:</b> Bildungsinfrastruktur — Kunstzentrum<br><b>Distanz:</b> 2525 m<br><b>Website:</b> https://www.studioclay.de<br><b>Wikipedia:</b> <br><b>Telefon:</b> +49 241 51002814", "timestamp": null, "begin": null, "end": null, "altitudeMode": null, "tessellate": -1, "extrude": 0, "visibility": -1, "drawOrder": null, "icon": null, "category_group": "Bildungsinfrastruktur"}, "geometry": {"type": "Point", "coordinates": [6.0901049, 50.7723441]}}, {"type": "Feature", "properties": {"Name": "RV Gut Hanbruch e.V.", "description": "<b>Kategorie:</b> Freizeit & Sport — Sportzentrum<br><b>Distanz:</b> 1492 m<br><b>Website:</b> <br><b>Wikipedia:</b> <br><b>Telefon:</b> ", "timestamp": null, "begin": null, "end": null, "altitudeMode": null, "tessellate": -1, "extrude": 0, "visibility": -1, "drawOrder": null, "icon": null, "category_group": "Freizeit & Sport"}, "geometry": {"type": "Point", "coordinates": [6.0623187, 50.7641926]}}, {"type": "Feature", "properties": {"Name": "Bewegungsraum I Ärztehaus", "description": "<b>Kategorie:</b> Freizeit & Sport — Sportzentrum<br><b>Distanz:</b> 1772 m<br><b>Website:</b> <br><b>Wikipedia:</b> <br><b>Telefon:</b> ", "timestamp": null, "begin": null, "end": null, "altitudeMode": null, "tessellate": -1, "extrude": 0, "visibility": -1, "drawOrder": null, "icon": null, "category_group": "Freizeit & Sport"}, "geometry": {"type": "Point", "coordinates": [6.0770984, 50.7681935]}}, {"type": "Feature", "properties": {"Name": "Bewegungsraum II Ärztehaus", "description": "<b>Kategorie:</b> Freizeit & Sport — Sportzentrum<br><b>Distanz:</b> 1777 m<br><b>Website:</b> <br><b>Wikipedia:</b> <br><b>Telefon:</b> ", "timestamp": null, "begin": null, "end": null, "altitudeMode": null, "tessellate": -1, "extrude": 0, "visibility": -1, "drawOrder": null, "icon": null, "category_group": "Freizeit & Sport"}, "geometry": {"type": "Point", "coordinates": [6.0772853, 50.7682133]}}, {"type": "Feature", "properties": {"Name": "Wandern im Aachener Wald", "description": "<b>Kategorie:</b> Information — Besucherinformation<br><b>Distanz:</b> 2482 m<br><b>Website:</b> <br><b>Wikipedia:</b> <br><b>Telefon:</b> ", "timestamp": null, "begin": null, "end": null, "altitudeMode": null, "tessellate": -1, "extrude": 0, "visibility": -1, "drawOrder": null, "icon": null, "category_group": "Information"}, "geometry": {"type": "Point", "coordinates": [6.0389183, 50.7463273]}}, {"type": "Feature", "properties": {"Name": "Wandern im Aachener Wald", "description": "<b>Kategorie:</b> Information — Besucherinformation<br><b>Distanz:</b> 1762 m<br><b>Website:</b> <br><b>Wikipedia:</b> <br><b>Telefon:</b> ", "timestamp": null, "begin": null, "end": null, "altitudeMode": null, "tessellate": -1, "extrude": 0, "visibility": -1, "drawOrder": null, "icon": null, "category_group": "Information"}, "geometry": {"type": "Point", "coordinates": [6.0507874, 50.7600859]}}, {"type": "Feature", "properties": {"Name": "Wandern im Aachener Wald", "description": "<b>Kategorie:</b> Information — Besucherinformation<br><b>Distanz:</b> 1081 m<br><b>Website:</b> <br><b>Wikipedia:</b> <br><b>Telefon:</b> ", "timestamp": null, "begin": null, "end": null, "altitudeMode": null, "tessellate": -1, "extrude": 0, "visibility": -1, "drawOrder": null, "icon": null, "category_group": "Information"}, "geometry": {"type": "Point", "coordinates": [6.0609652, 50.7462751]}}, {"type": "Feature", "properties": {"Name": "Adamshäuschen", "description": "<b>Kategorie:</b> Information — Besucherinformation<br><b>Distanz:</b> 1506 m<br><b>Website:</b> grenzrouten.eu<br><b>Wikipedia:</b> <br><b>Telefon:</b> ", "timestamp": null, "begin": null, "end": null, "altitudeMode": null, "tessellate": -1, "extrude": 0, "visibility": -1, "drawOrder": null, "icon": null, "category_group": "Information"}, "geometry": {"type": "Point", "coordinates": [6.0514492, 50.7513778]}}, {"type": "Feature", "properties": {"Name": "Wandern im Aachener Wald", "description": "<b>Kategorie:</b> Information — Besucherinformation<br><b>Distanz:</b> 1453 m<br><b>Website:</b> <br><b>Wikipedia:</b> <br><b>Telefon:</b> ", "timestamp": null, "begin": null, "end": null, "altitudeMode": null, "tessellate": -1, "extrude": 0, "visibility": -1, "drawOrder": null, "icon": null, "category_group": "Information"}, "geometry": {"type": "Point", "coordinates": [6.0542932, 50.7466747]}}, {"type": "Feature", "properties": {"Name": "Wandern im Aachener Wald", "description": "<b>Kategorie:</b> Information — Besucherinformation<br><b>Distanz:</b> 2202 m<br><b>Website:</b> <br><b>Wikipedia:</b> <br><b>Telefon:</b> ", "timestamp": null, "begin": null, "end": null, "altitudeMode": null, "tessellate": -1, "extrude": 0, "visibility": -1, "drawOrder": null, "icon": null, "category_group": "Information"}, "geometry": {"type": "Point", "coordinates": [6.0807771, 50.7333949]}}, {"type": "Feature", "properties": {"Name": "Knotenpunkt 16", "description": "<b>Kategorie:</b> Information — Besucherinformation<br><b>Distanz:</b> 1072 m<br><b>Website:</b> <br><b>Wikipedia:</b> <br><b>Telefon:</b> ", "timestamp": null, "begin": null, "end": null, "altitudeMode": null, "tessellate": -1, "extrude": 0, "visibility": -1, "drawOrder": null, "icon": null, "category_group": "Information"}, "geometry": {"type": "Point", "coordinates": [6.0617455, 50.7458429]}}, {"type": "Feature", "properties": {"Name": "GrenzRouten: Grüne Stadtmauer", "description": "<b>Kategorie:</b> Information — Besucherinformation<br><b>Distanz:</b> 2502 m<br><b>Website:</b> <br><b>Wikipedia:</b> <br><b>Telefon:</b> ", "timestamp": null, "begin": null, "end": null, "altitudeMode": null, "tessellate": -1, "extrude": 0, "visibility": -1, "drawOrder": null, "icon": null, "category_group": "Information"}, "geometry": {"type": "Point", "coordinates": [6.038657, 50.7462671]}}, {"type": "Feature", "properties": {"Name": "Mammutbaum", "description": "<b>Kategorie:</b> Information — Besucherinformation<br><b>Distanz:</b> 2061 m<br><b>Website:</b> <br><b>Wikipedia:</b> <br><b>Telefon:</b> ", "timestamp": null, "begin": null, "end": null, "altitudeMode": null, "tessellate": -1, "extrude": 0, "visibility": -1, "drawOrder": null, "icon": null, "category_group": "Information"}, "geometry": {"type": "Point", "coordinates": [6.0896745, 50.7374326]}}, {"type": "Feature", "properties": {"Name": "Honigbiene und Imkerei", "description": "<b>Kategorie:</b> Information — Besucherinformation<br><b>Distanz:</b> 2058 m<br><b>Website:</b> <br><b>Wikipedia:</b> <br><b>Telefon:</b> ", "timestamp": null, "begin": null, "end": null, "altitudeMode": null, "tessellate": -1, "extrude": 0, "visibility": -1, "drawOrder": null, "icon": null, "category_group": "Information"}, "geometry": {"type": "Point", "coordinates": [6.0895464, 50.7374112]}}, {"type": "Feature", "properties": {"Name": "GrenzRouten: Waldschenke", "description": "<b>Kategorie:</b> Information — Besucherinformation<br><b>Distanz:</b> 1083 m<br><b>Website:</b> <br><b>Wikipedia:</b> <br><b>Telefon:</b> ", "timestamp": null, "begin": null, "end": null, "altitudeMode": null, "tessellate": -1, "extrude": 0, "visibility": -1, "drawOrder": null, "icon": null, "category_group": "Information"}, "geometry": {"type": "Point", "coordinates": [6.0612131, 50.7460672]}}, {"type": "Feature", "properties": {"Name": "Orientierungstafel Ost", "description": "<b>Kategorie:</b> Information — Besucherinformation<br><b>Distanz:</b> 2804 m<br><b>Website:</b> <br><b>Wikipedia:</b> <br><b>Telefon:</b> ", "timestamp": null, "begin": null, "end": null, "altitudeMode": null, "tessellate": -1, "extrude": 0, "visibility": -1, "drawOrder": null, "icon": null, "category_group": "Information"}, "geometry": {"type": "Point", "coordinates": [6.1069592, 50.7397467]}}, {"type": "Feature", "properties": {"Name": "GrenzRouten: Entenpfuhl", "description": "<b>Kategorie:</b> Information — Besucherinformation<br><b>Distanz:</b> 2142 m<br><b>Website:</b> <br><b>Wikipedia:</b> <br><b>Telefon:</b> ", "timestamp": null, "begin": null, "end": null, "altitudeMode": null, "tessellate": -1, "extrude": 0, "visibility": -1, "drawOrder": null, "icon": null, "category_group": "Information"}, "geometry": {"type": "Point", "coordinates": [6.0582281, 50.7355879]}}, {"type": "Feature", "properties": {"Name": "Siegel", "description": "<b>Kategorie:</b> Information — Besucherinformation<br><b>Distanz:</b> 1779 m<br><b>Website:</b> <br><b>Wikipedia:</b> <br><b>Telefon:</b> ", "timestamp": null, "begin": null, "end": null, "altitudeMode": null, "tessellate": -1, "extrude": 0, "visibility": -1, "drawOrder": null, "icon": null, "category_group": "Information"}, "geometry": {"type": "Point", "coordinates": [6.0978688, 50.7515819]}}, {"type": "Feature", "properties": {"Name": "Knotenpunkt 25", "description": "<b>Kategorie:</b> Information — Besucherinformation<br><b>Distanz:</b> 2032 m<br><b>Website:</b> <br><b>Wikipedia:</b> <br><b>Telefon:</b> ", "timestamp": null, "begin": null, "end": null, "altitudeMode": null, "tessellate": -1, "extrude": 0, "visibility": -1, "drawOrder": null, "icon": null, "category_group": "Information"}, "geometry": {"type": "Point", "coordinates": [6.0439127, 50.7526429]}}, {"type": "Feature", "properties": {"Name": "Aachener Wald/Kurwanderwege Burtscheid", "description": "<b>Kategorie:</b> Information — Besucherinformation<br><b>Distanz:</b> 1759 m<br><b>Website:</b> <br><b>Wikipedia:</b> <br><b>Telefon:</b> ", "timestamp": null, "begin": null, "end": null, "altitudeMode": null, "tessellate": -1, "extrude": 0, "visibility": -1, "drawOrder": null, "icon": null, "category_group": "Information"}, "geometry": {"type": "Point", "coordinates": [6.0976291, 50.7525745]}}, {"type": "Feature", "properties": {"Name": "Haus des Gastes", "description": "<b>Kategorie:</b> Information — Besucherinformation<br><b>Distanz:</b> 1778 m<br><b>Website:</b> <br><b>Wikipedia:</b> <br><b>Telefon:</b> ", "timestamp": null, "begin": null, "end": null, "altitudeMode": null, "tessellate": -1, "extrude": 0, "visibility": -1, "drawOrder": null, "icon": null, "category_group": "Information"}, "geometry": {"type": "Point", "coordinates": [6.0918579, 50.7628909]}}, {"type": "Feature", "properties": {"Name": "\"Entenbrot\" macht Enten tot!", "description": "<b>Kategorie:</b> Information — Besucherinformation<br><b>Distanz:</b> 1892 m<br><b>Website:</b> <br><b>Wikipedia:</b> <br><b>Telefon:</b> ", "timestamp": null, "begin": null, "end": null, "altitudeMode": null, "tessellate": -1, "extrude": 0, "visibility": -1, "drawOrder": null, "icon": null, "category_group": "Information"}, "geometry": {"type": "Point", "coordinates": [6.0952274, 50.7432868]}}, {"type": "Feature", "properties": {"Name": "Kupferbach", "description": "<b>Kategorie:</b> Information — Besucherinformation<br><b>Distanz:</b> 1952 m<br><b>Website:</b> <br><b>Wikipedia:</b> <br><b>Telefon:</b> ", "timestamp": null, "begin": null, "end": null, "altitudeMode": null, "tessellate": -1, "extrude": 0, "visibility": -1, "drawOrder": null, "icon": null, "category_group": "Information"}, "geometry": {"type": "Point", "coordinates": [6.0958697, 50.7429304]}}, {"type": "Feature", "properties": {"Name": "Wandern im Aachener Wald", "description": "<b>Kategorie:</b> Information — Besucherinformation<br><b>Distanz:</b> 2264 m<br><b>Website:</b> <br><b>Wikipedia:</b> <br><b>Telefon:</b> ", "timestamp": null, "begin": null, "end": null, "altitudeMode": null, "tessellate": -1, "extrude": 0, "visibility": -1, "drawOrder": null, "icon": null, "category_group": "Information"}, "geometry": {"type": "Point", "coordinates": [6.0406504, 50.751839]}}, {"type": "Feature", "properties": {"Name": "Knotenpunkt 17", "description": "<b>Kategorie:</b> Information — Besucherinformation<br><b>Distanz:</b> 1105 m<br><b>Website:</b> <br><b>Wikipedia:</b> <br><b>Telefon:</b> ", "timestamp": null, "begin": null, "end": null, "altitudeMode": null, "tessellate": -1, "extrude": 0, "visibility": -1, "drawOrder": null, "icon": null, "category_group": "Information"}, "geometry": {"type": "Point", "coordinates": [6.0601128, 50.7466081]}}, {"type": "Feature", "properties": {"Name": "Knotenpunkt 55", "description": "<b>Kategorie:</b> Information — Besucherinformation<br><b>Distanz:</b> 1557 m<br><b>Website:</b> <br><b>Wikipedia:</b> <br><b>Telefon:</b> ", "timestamp": null, "begin": null, "end": null, "altitudeMode": null, "tessellate": -1, "extrude": 0, "visibility": -1, "drawOrder": null, "icon": null, "category_group": "Information"}, "geometry": {"type": "Point", "coordinates": [6.0578338, 50.7421709]}}, {"type": "Feature", "properties": {"Name": "Knotenpunkt 67", "description": "<b>Kategorie:</b> Information — Besucherinformation<br><b>Distanz:</b> 1165 m<br><b>Website:</b> <br><b>Wikipedia:</b> <br><b>Telefon:</b> ", "timestamp": null, "begin": null, "end": null, "altitudeMode": null, "tessellate": -1, "extrude": 0, "visibility": -1, "drawOrder": null, "icon": null, "category_group": "Information"}, "geometry": {"type": "Point", "coordinates": [6.0567194, 50.7499188]}}, {"type": "Feature", "properties": {"Name": "Knotenpunkt 68", "description": "<b>Kategorie:</b> Information — Besucherinformation<br><b>Distanz:</b> 1475 m<br><b>Website:</b> <br><b>Wikipedia:</b> <br><b>Telefon:</b> ", "timestamp": null, "begin": null, "end": null, "altitudeMode": null, "tessellate": -1, "extrude": 0, "visibility": -1, "drawOrder": null, "icon": null, "category_group": "Information"}, "geometry": {"type": "Point", "coordinates": [6.0521758, 50.7500144]}}, {"type": "Feature", "properties": {"Name": "Knotenpunkt 46", "description": "<b>Kategorie:</b> Information — Besucherinformation<br><b>Distanz:</b> 1761 m<br><b>Website:</b> <br><b>Wikipedia:</b> <br><b>Telefon:</b> ", "timestamp": null, "begin": null, "end": null, "altitudeMode": null, "tessellate": -1, "extrude": 0, "visibility": -1, "drawOrder": null, "icon": null, "category_group": "Information"}, "geometry": {"type": "Point", "coordinates": [6.0479277, 50.7506358]}}, {"type": "Feature", "properties": {"Name": "Knotenpunkt 43", "description": "<b>Kategorie:</b> Information — Besucherinformation<br><b>Distanz:</b> 2256 m<br><b>Website:</b> <br><b>Wikipedia:</b> <br><b>Telefon:</b> ", "timestamp": null, "begin": null, "end": null, "altitudeMode": null, "tessellate": -1, "extrude": 0, "visibility": -1, "drawOrder": null, "icon": null, "category_group": "Information"}, "geometry": {"type": "Point", "coordinates": [6.0428769, 50.7452149]}}, {"type": "Feature", "properties": {"Name": "Knotenpunkt 44", "description": "<b>Kategorie:</b> Information — Besucherinformation<br><b>Distanz:</b> 1865 m<br><b>Website:</b> <br><b>Wikipedia:</b> <br><b>Telefon:</b> ", "timestamp": null, "begin": null, "end": null, "altitudeMode": null, "tessellate": -1, "extrude": 0, "visibility": -1, "drawOrder": null, "icon": null, "category_group": "Information"}, "geometry": {"type": "Point", "coordinates": [6.0480912, 50.7464202]}}, {"type": "Feature", "properties": {"Name": "Knotenpunkt 45", "description": "<b>Kategorie:</b> Information — Besucherinformation<br><b>Distanz:</b> 2207 m<br><b>Website:</b> <br><b>Wikipedia:</b> <br><b>Telefon:</b> ", "timestamp": null, "begin": null, "end": null, "altitudeMode": null, "tessellate": -1, "extrude": 0, "visibility": -1, "drawOrder": null, "icon": null, "category_group": "Information"}, "geometry": {"type": "Point", "coordinates": [6.0442983, 50.7442269]}}, {"type": "Feature", "properties": {"Name": "Knotenpunkt 15", "description": "<b>Kategorie:</b> Information — Besucherinformation<br><b>Distanz:</b> 1228 m<br><b>Website:</b> <br><b>Wikipedia:</b> <br><b>Telefon:</b> ", "timestamp": null, "begin": null, "end": null, "altitudeMode": null, "tessellate": -1, "extrude": 0, "visibility": -1, "drawOrder": null, "icon": null, "category_group": "Information"}, "geometry": {"type": "Point", "coordinates": [6.0615991, 50.7440151]}}, {"type": "Feature", "properties": {"Name": "Pelzerturm", "description": "<b>Kategorie:</b> Information — Besucherinformation<br><b>Distanz:</b> 2094 m<br><b>Website:</b> <br><b>Wikipedia:</b> de:Pelzerturm<br><b>Telefon:</b> ", "timestamp": null, "begin": null, "end": null, "altitudeMode": null, "tessellate": -1, "extrude": 0, "visibility": -1, "drawOrder": null, "icon": null, "category_group": "Information"}, "geometry": {"type": "Point", "coordinates": [6.0722792, 50.7336895]}}, {"type": "Feature", "properties": {"Name": "Knotenpunkt 42", "description": "<b>Kategorie:</b> Information — Besucherinformation<br><b>Distanz:</b> 2503 m<br><b>Website:</b> <br><b>Wikipedia:</b> <br><b>Telefon:</b> ", "timestamp": null, "begin": null, "end": null, "altitudeMode": null, "tessellate": -1, "extrude": 0, "visibility": -1, "drawOrder": null, "icon": null, "category_group": "Information"}, "geometry": {"type": "Point", "coordinates": [6.0386409, 50.7462481]}}, {"type": "Feature", "properties": {"Name": "Knotenpunkt 41", "description": "<b>Kategorie:</b> Information — Besucherinformation<br><b>Distanz:</b> 2267 m<br><b>Website:</b> <br><b>Wikipedia:</b> <br><b>Telefon:</b> ", "timestamp": null, "begin": null, "end": null, "altitudeMode": null, "tessellate": -1, "extrude": 0, "visibility": -1, "drawOrder": null, "icon": null, "category_group": "Information"}, "geometry": {"type": "Point", "coordinates": [6.0406039, 50.7518543]}}, {"type": "Feature", "properties": {"Name": "Knotenpunkt 77", "description": "<b>Kategorie:</b> Information — Besucherinformation<br><b>Distanz:</b> 1967 m<br><b>Website:</b> <br><b>Wikipedia:</b> <br><b>Telefon:</b> ", "timestamp": null, "begin": null, "end": null, "altitudeMode": null, "tessellate": -1, "extrude": 0, "visibility": -1, "drawOrder": null, "icon": null, "category_group": "Information"}, "geometry": {"type": "Point", "coordinates": [6.0448528, 50.7520185]}}, {"type": "Feature", "properties": {"Name": "Adamshäuschen", "description": "<b>Kategorie:</b> Information — Besucherinformation<br><b>Distanz:</b> 1506 m<br><b>Website:</b> grenzrouten.eu<br><b>Wikipedia:</b> <br><b>Telefon:</b> ", "timestamp": null, "begin": null, "end": null, "altitudeMode": null, "tessellate": -1, "extrude": 0, "visibility": -1, "drawOrder": null, "icon": null, "category_group": "Information"}, "geometry": {"type": "Point", "coordinates": [6.0514504, 50.7513678]}}, {"type": "Feature", "properties": {"Name": "Knotenpunkt 18", "description": "<b>Kategorie:</b> Information — Besucherinformation<br><b>Distanz:</b> 1196 m<br><b>Website:</b> <br><b>Wikipedia:</b> <br><b>Telefon:</b> ", "timestamp": null, "begin": null, "end": null, "altitudeMode": null, "tessellate": -1, "extrude": 0, "visibility": -1, "drawOrder": null, "icon": null, "category_group": "Information"}, "geometry": {"type": "Point", "coordinates": [6.0558549, 50.7513451]}}, {"type": "Feature", "properties": {"Name": "Knotenpunkt 10", "description": "<b>Kategorie:</b> Information — Besucherinformation<br><b>Distanz:</b> 1758 m<br><b>Website:</b> <br><b>Wikipedia:</b> <br><b>Telefon:</b> ", "timestamp": null, "begin": null, "end": null, "altitudeMode": null, "tessellate": -1, "extrude": 0, "visibility": -1, "drawOrder": null, "icon": null, "category_group": "Information"}, "geometry": {"type": "Point", "coordinates": [6.0508688, 50.7601098]}}, {"type": "Feature", "properties": {"Name": "Knotenpunkt 27", "description": "<b>Kategorie:</b> Information — Besucherinformation<br><b>Distanz:</b> 2299 m<br><b>Website:</b> <br><b>Wikipedia:</b> <br><b>Telefon:</b> ", "timestamp": null, "begin": null, "end": null, "altitudeMode": null, "tessellate": -1, "extrude": 0, "visibility": -1, "drawOrder": null, "icon": null, "category_group": "Information"}, "geometry": {"type": "Point", "coordinates": [6.0424414, 50.7601505]}}, {"type": "Feature", "properties": {"Name": "Knotenpunkt 28", "description": "<b>Kategorie:</b> Information — Besucherinformation<br><b>Distanz:</b> 2322 m<br><b>Website:</b> <br><b>Wikipedia:</b> <br><b>Telefon:</b> ", "timestamp": null, "begin": null, "end": null, "altitudeMode": null, "tessellate": -1, "extrude": 0, "visibility": -1, "drawOrder": null, "icon": null, "category_group": "Information"}, "geometry": {"type": "Point", "coordinates": [6.0411282, 50.7583745]}}, {"type": "Feature", "properties": {"Name": "Knotenpunkt 26", "description": "<b>Kategorie:</b> Information — Besucherinformation<br><b>Distanz:</b> 1870 m<br><b>Website:</b> <br><b>Wikipedia:</b> <br><b>Telefon:</b> ", "timestamp": null, "begin": null, "end": null, "altitudeMode": null, "tessellate": -1, "extrude": 0, "visibility": -1, "drawOrder": null, "icon": null, "category_group": "Information"}, "geometry": {"type": "Point", "coordinates": [6.0478501, 50.7583228]}}, {"type": "Feature", "properties": {"Name": "Knotenpunkt 3", "description": "<b>Kategorie:</b> Information — Besucherinformation<br><b>Distanz:</b> 2027 m<br><b>Website:</b> <br><b>Wikipedia:</b> <br><b>Telefon:</b> ", "timestamp": null, "begin": null, "end": null, "altitudeMode": null, "tessellate": -1, "extrude": 0, "visibility": -1, "drawOrder": null, "icon": null, "category_group": "Information"}, "geometry": {"type": "Point", "coordinates": [6.094345, 50.7644858]}}, {"type": "Feature", "properties": {"Name": "Knotenpunkt 8", "description": "<b>Kategorie:</b> Information — Besucherinformation<br><b>Distanz:</b>  935 m<br><b>Website:</b> <br><b>Wikipedia:</b> <br><b>Telefon:</b> ", "timestamp": null, "begin": null, "end": null, "altitudeMode": null, "tessellate": -1, "extrude": 0, "visibility": -1, "drawOrder": null, "icon": null, "category_group": "Information"}, "geometry": {"type": "Point", "coordinates": [6.0699891, 50.7607366]}}, {"type": "Feature", "properties": {"Name": "Knotenpunkt 47", "description": "<b>Kategorie:</b> Information — Besucherinformation<br><b>Distanz:</b> 1437 m<br><b>Website:</b> <br><b>Wikipedia:</b> <br><b>Telefon:</b> ", "timestamp": null, "begin": null, "end": null, "altitudeMode": null, "tessellate": -1, "extrude": 0, "visibility": -1, "drawOrder": null, "icon": null, "category_group": "Information"}, "geometry": {"type": "Point", "coordinates": [6.0606371, 50.7421044]}}, {"type": "Feature", "properties": {"Name": "Knotenpunkt 51", "description": "<b>Kategorie:</b> Information — Besucherinformation<br><b>Distanz:</b> 2166 m<br><b>Website:</b> <br><b>Wikipedia:</b> <br><b>Telefon:</b> ", "timestamp": null, "begin": null, "end": null, "altitudeMode": null, "tessellate": -1, "extrude": 0, "visibility": -1, "drawOrder": null, "icon": null, "category_group": "Information"}, "geometry": {"type": "Point", "coordinates": [6.0577244, 50.7355214]}}, {"type": "Feature", "properties": {"Name": "Knotenpunkt 48", "description": "<b>Kategorie:</b> Information — Besucherinformation<br><b>Distanz:</b> 2244 m<br><b>Website:</b> <br><b>Wikipedia:</b> <br><b>Telefon:</b> ", "timestamp": null, "begin": null, "end": null, "altitudeMode": null, "tessellate": -1, "extrude": 0, "visibility": -1, "drawOrder": null, "icon": null, "category_group": "Information"}, "geometry": {"type": "Point", "coordinates": [6.0527691, 50.7367967]}}, {"type": "Feature", "properties": {"Name": "Knotenpunkt 60", "description": "<b>Kategorie:</b> Information — Besucherinformation<br><b>Distanz:</b> 1901 m<br><b>Website:</b> <br><b>Wikipedia:</b> <br><b>Telefon:</b> ", "timestamp": null, "begin": null, "end": null, "altitudeMode": null, "tessellate": -1, "extrude": 0, "visibility": -1, "drawOrder": null, "icon": null, "category_group": "Information"}, "geometry": {"type": "Point", "coordinates": [6.0696247, 50.735539]}}, {"type": "Feature", "properties": {"Name": "Knotenpunkt 61", "description": "<b>Kategorie:</b> Information — Besucherinformation<br><b>Distanz:</b> 1884 m<br><b>Website:</b> <br><b>Wikipedia:</b> <br><b>Telefon:</b> ", "timestamp": null, "begin": null, "end": null, "altitudeMode": null, "tessellate": -1, "extrude": 0, "visibility": -1, "drawOrder": null, "icon": null, "category_group": "Information"}, "geometry": {"type": "Point", "coordinates": [6.0711831, 50.7356033]}}, {"type": "Feature", "properties": {"Name": "Knotenpunkt 69", "description": "<b>Kategorie:</b> Information — Besucherinformation<br><b>Distanz:</b> 2587 m<br><b>Website:</b> <br><b>Wikipedia:</b> <br><b>Telefon:</b> ", "timestamp": null, "begin": null, "end": null, "altitudeMode": null, "tessellate": -1, "extrude": 0, "visibility": -1, "drawOrder": null, "icon": null, "category_group": "Information"}, "geometry": {"type": "Point", "coordinates": [6.0991073, 50.736378]}}, {"type": "Feature", "properties": {"Name": "Knotenpunkt 24", "description": "<b>Kategorie:</b> Information — Besucherinformation<br><b>Distanz:</b> 2084 m<br><b>Website:</b> <br><b>Wikipedia:</b> <br><b>Telefon:</b> ", "timestamp": null, "begin": null, "end": null, "altitudeMode": null, "tessellate": -1, "extrude": 0, "visibility": -1, "drawOrder": null, "icon": null, "category_group": "Information"}, "geometry": {"type": "Point", "coordinates": [6.0974207, 50.742271]}}, {"type": "Feature", "properties": {"Name": "Knotenpunkt 23", "description": "<b>Kategorie:</b> Information — Besucherinformation<br><b>Distanz:</b> 1709 m<br><b>Website:</b> <br><b>Wikipedia:</b> <br><b>Telefon:</b> ", "timestamp": null, "begin": null, "end": null, "altitudeMode": null, "tessellate": -1, "extrude": 0, "visibility": -1, "drawOrder": null, "icon": null, "category_group": "Information"}, "geometry": {"type": "Point", "coordinates": [6.0959968, 50.74832]}}, {"type": "Feature", "properties": {"Name": "Knotenpunkt 22", "description": "<b>Kategorie:</b> Information — Besucherinformation<br><b>Distanz:</b> 1729 m<br><b>Website:</b> <br><b>Wikipedia:</b> <br><b>Telefon:</b> ", "timestamp": null, "begin": null, "end": null, "altitudeMode": null, "tessellate": -1, "extrude": 0, "visibility": -1, "drawOrder": null, "icon": null, "category_group": "Information"}, "geometry": {"type": "Point", "coordinates": [6.097035, 50.7507304]}}, {"type": "Feature", "properties": {"Name": "Knotenpunkt 20", "description": "<b>Kategorie:</b> Information — Besucherinformation<br><b>Distanz:</b> 1950 m<br><b>Website:</b> <br><b>Wikipedia:</b> <br><b>Telefon:</b> ", "timestamp": null, "begin": null, "end": null, "altitudeMode": null, "tessellate": -1, "extrude": 0, "visibility": -1, "drawOrder": null, "icon": null, "category_group": "Information"}, "geometry": {"type": "Point", "coordinates": [6.099734, 50.748888]}}, {"type": "Feature", "properties": {"Name": "Knotenpunkt 21", "description": "<b>Kategorie:</b> Information — Besucherinformation<br><b>Distanz:</b> 2116 m<br><b>Website:</b> <br><b>Wikipedia:</b> <br><b>Telefon:</b> ", "timestamp": null, "begin": null, "end": null, "altitudeMode": null, "tessellate": -1, "extrude": 0, "visibility": -1, "drawOrder": null, "icon": null, "category_group": "Information"}, "geometry": {"type": "Point", "coordinates": [6.1017727, 50.7478567]}}, {"type": "Feature", "properties": {"Name": "B 224 Stadt Aachen", "description": "<b>Kategorie:</b> Information — Besucherinformation<br><b>Distanz:</b> 2610 m<br><b>Website:</b> <br><b>Wikipedia:</b> <br><b>Telefon:</b> ", "timestamp": null, "begin": null, "end": null, "altitudeMode": null, "tessellate": -1, "extrude": 0, "visibility": -1, "drawOrder": null, "icon": null, "category_group": "Information"}, "geometry": {"type": "Point", "coordinates": [6.0409184, 50.7645009]}}, {"type": "Feature", "properties": {"Name": "Bieneninfo", "description": "<b>Kategorie:</b> Information — Besucherinformation<br><b>Distanz:</b> 2025 m<br><b>Website:</b> <br><b>Wikipedia:</b> <br><b>Telefon:</b> ", "timestamp": null, "begin": null, "end": null, "altitudeMode": null, "tessellate": -1, "extrude": 0, "visibility": -1, "drawOrder": null, "icon": null, "category_group": "Information"}, "geometry": {"type": "Point", "coordinates": [6.0888491, 50.7374631]}}, {"type": "Feature", "properties": {"Name": "Bieneninfo", "description": "<b>Kategorie:</b> Information — Besucherinformation<br><b>Distanz:</b> 2069 m<br><b>Website:</b> <br><b>Wikipedia:</b> <br><b>Telefon:</b> ", "timestamp": null, "begin": null, "end": null, "altitudeMode": null, "tessellate": -1, "extrude": 0, "visibility": -1, "drawOrder": null, "icon": null, "category_group": "Information"}, "geometry": {"type": "Point", "coordinates": [6.088534, 50.7368575]}}, {"type": "Feature", "properties": {"Name": "Pelzerturm", "description": "<b>Kategorie:</b> Information — Besucherinformation<br><b>Distanz:</b> 2099 m<br><b>Website:</b> <br><b>Wikipedia:</b> <br><b>Telefon:</b> ", "timestamp": null, "begin": null, "end": null, "altitudeMode": null, "tessellate": -1, "extrude": 0, "visibility": -1, "drawOrder": null, "icon": null, "category_group": "Information"}, "geometry": {"type": "Point", "coordinates": [6.0726366, 50.7336439]}}, {"type": "Feature", "properties": {"Name": "Knotenpunkt 76", "description": "<b>Kategorie:</b> Information — Besucherinformation<br><b>Distanz:</b> 1496 m<br><b>Website:</b> <br><b>Wikipedia:</b> <br><b>Telefon:</b> ", "timestamp": null, "begin": null, "end": null, "altitudeMode": null, "tessellate": -1, "extrude": 0, "visibility": -1, "drawOrder": null, "icon": null, "category_group": "Information"}, "geometry": {"type": "Point", "coordinates": [6.0515722, 50.7514223]}}, {"type": "Feature", "properties": {"Name": "Wandern im Aachener Wald", "description": "<b>Kategorie:</b> Information — Besucherinformation<br><b>Distanz:</b> 1658 m<br><b>Website:</b> <br><b>Wikipedia:</b> <br><b>Telefon:</b> ", "timestamp": null, "begin": null, "end": null, "altitudeMode": null, "tessellate": -1, "extrude": 0, "visibility": -1, "drawOrder": null, "icon": null, "category_group": "Information"}, "geometry": {"type": "Point", "coordinates": [6.0587145, 50.7405435]}}, {"type": "Feature", "properties": {"Name": "Knotenpunkt 51", "description": "<b>Kategorie:</b> Information — Besucherinformation<br><b>Distanz:</b> 2155 m<br><b>Website:</b> <br><b>Wikipedia:</b> <br><b>Telefon:</b> ", "timestamp": null, "begin": null, "end": null, "altitudeMode": null, "tessellate": -1, "extrude": 0, "visibility": -1, "drawOrder": null, "icon": null, "category_group": "Information"}, "geometry": {"type": "Point", "coordinates": [6.05805, 50.735519]}}, {"type": "Feature", "properties": {"Name": "Wandern im Aachener Wald", "description": "<b>Kategorie:</b> Information — Besucherinformation<br><b>Distanz:</b> 2566 m<br><b>Website:</b> <br><b>Wikipedia:</b> <br><b>Telefon:</b> ", "timestamp": null, "begin": null, "end": null, "altitudeMode": null, "tessellate": -1, "extrude": 0, "visibility": -1, "drawOrder": null, "icon": null, "category_group": "Information"}, "geometry": {"type": "Point", "coordinates": [6.0989227, 50.7365385]}}, {"type": "Feature", "properties": {"Name": "Information der Pfarrgemeinde St. Marien", "description": "<b>Kategorie:</b> Information — Besucherinformation<br><b>Distanz:</b> 1467 m<br><b>Website:</b> <br><b>Wikipedia:</b> <br><b>Telefon:</b> ", "timestamp": null, "begin": null, "end": null, "altitudeMode": null, "tessellate": -1, "extrude": 0, "visibility": -1, "drawOrder": null, "icon": null, "category_group": "Information"}, "geometry": {"type": "Point", "coordinates": [6.0844177, 50.7634092]}}, {"type": "Feature", "properties": {"Name": "Wandern im Aachener Wald", "description": "<b>Kategorie:</b> Information — Besucherinformation<br><b>Distanz:</b>  949 m<br><b>Website:</b> <br><b>Wikipedia:</b> <br><b>Telefon:</b> ", "timestamp": null, "begin": null, "end": null, "altitudeMode": null, "tessellate": -1, "extrude": 0, "visibility": -1, "drawOrder": null, "icon": null, "category_group": "Information"}, "geometry": {"type": "Point", "coordinates": [6.0736746, 50.7440052]}}, {"type": "Feature", "properties": {"Name": "Wandern im Aachener Wald", "description": "<b>Kategorie:</b> Information — Besucherinformation<br><b>Distanz:</b> 1889 m<br><b>Website:</b> <br><b>Wikipedia:</b> <br><b>Telefon:</b> ", "timestamp": null, "begin": null, "end": null, "altitudeMode": null, "tessellate": -1, "extrude": 0, "visibility": -1, "drawOrder": null, "icon": null, "category_group": "Information"}, "geometry": {"type": "Point", "coordinates": [6.0695235, 50.7356494]}}, {"type": "Feature", "properties": {"Name": "Wandern im Aachener Wald", "description": "<b>Kategorie:</b> Information — Besucherinformation<br><b>Distanz:</b> 2069 m<br><b>Website:</b> <br><b>Wikipedia:</b> <br><b>Telefon:</b> ", "timestamp": null, "begin": null, "end": null, "altitudeMode": null, "tessellate": -1, "extrude": 0, "visibility": -1, "drawOrder": null, "icon": null, "category_group": "Information"}, "geometry": {"type": "Point", "coordinates": [6.0596922, 50.7358504]}}, {"type": "Feature", "properties": {"Name": "Knotenpunkt 13", "description": "<b>Kategorie:</b> Information — Besucherinformation<br><b>Distanz:</b> 1079 m<br><b>Website:</b> <br><b>Wikipedia:</b> <br><b>Telefon:</b> ", "timestamp": null, "begin": null, "end": null, "altitudeMode": null, "tessellate": -1, "extrude": 0, "visibility": -1, "drawOrder": null, "icon": null, "category_group": "Information"}, "geometry": {"type": "Point", "coordinates": [6.061703, 50.7457714]}}, {"type": "Feature", "properties": {"Name": "Jakobsweg Info Steele", "description": "<b>Kategorie:</b> Information — Besucherinformation<br><b>Distanz:</b> 2570 m<br><b>Website:</b> <br><b>Wikipedia:</b> <br><b>Telefon:</b> ", "timestamp": null, "begin": null, "end": null, "altitudeMode": null, "tessellate": -1, "extrude": 0, "visibility": -1, "drawOrder": null, "icon": null, "category_group": "Information"}, "geometry": {"type": "Point", "coordinates": [6.0827694, 50.7747111]}}, {"type": "Feature", "properties": {"Name": "Jakobspilger Steele", "description": "<b>Kategorie:</b> Information — Besucherinformation<br><b>Distanz:</b> 2026 m<br><b>Website:</b> <br><b>Wikipedia:</b> <br><b>Telefon:</b> ", "timestamp": null, "begin": null, "end": null, "altitudeMode": null, "tessellate": -1, "extrude": 0, "visibility": -1, "drawOrder": null, "icon": null, "category_group": "Information"}, "geometry": {"type": "Point", "coordinates": [6.0753916, 50.7706368]}}, {"type": "Feature", "properties": {"Name": "GrenzRouten: Eigentlich schon tot", "description": "<b>Kategorie:</b> Information — Besucherinformation<br><b>Distanz:</b> 2078 m<br><b>Website:</b> <br><b>Wikipedia:</b> <br><b>Telefon:</b> ", "timestamp": null, "begin": null, "end": null, "altitudeMode": null, "tessellate": -1, "extrude": 0, "visibility": -1, "drawOrder": null, "icon": null, "category_group": "Information"}, "geometry": {"type": "Point", "coordinates": [6.0453561, 50.7594242]}}, {"type": "Feature", "properties": {"Name": "Wandern im Aachener Wald", "description": "<b>Kategorie:</b> Information — Besucherinformation<br><b>Distanz:</b> 3129 m<br><b>Website:</b> <br><b>Wikipedia:</b> <br><b>Telefon:</b> ", "timestamp": null, "begin": null, "end": null, "altitudeMode": null, "tessellate": -1, "extrude": 0, "visibility": -1, "drawOrder": null, "icon": null, "category_group": "Information"}, "geometry": {"type": "Point", "coordinates": [6.0999327, 50.7303209]}}, {"type": "Feature", "properties": {"Name": "GrenzRouten: Preuswald", "description": "<b>Kategorie:</b> Information — Besucherinformation<br><b>Distanz:</b> 1994 m<br><b>Website:</b> <br><b>Wikipedia:</b> <br><b>Telefon:</b> ", "timestamp": null, "begin": null, "end": null, "altitudeMode": null, "tessellate": -1, "extrude": 0, "visibility": -1, "drawOrder": null, "icon": null, "category_group": "Information"}, "geometry": {"type": "Point", "coordinates": [6.0520895, 50.740259]}}, {"type": "Feature", "properties": {"Name": "Wandern im Aachener Wald", "description": "<b>Kategorie:</b> Information — Besucherinformation<br><b>Distanz:</b> 2603 m<br><b>Website:</b> <br><b>Wikipedia:</b> <br><b>Telefon:</b> ", "timestamp": null, "begin": null, "end": null, "altitudeMode": null, "tessellate": -1, "extrude": 0, "visibility": -1, "drawOrder": null, "icon": null, "category_group": "Information"}, "geometry": {"type": "Point", "coordinates": [6.0528472, 50.7327985]}}, {"type": "Feature", "properties": {"Name": "Bronzeplatte Dom zu Aachen", "description": "<b>Kategorie:</b> Information — Besucherinformation<br><b>Distanz:</b> 2584 m<br><b>Website:</b> <br><b>Wikipedia:</b> <br><b>Telefon:</b> ", "timestamp": null, "begin": null, "end": null, "altitudeMode": null, "tessellate": -1, "extrude": 0, "visibility": -1, "drawOrder": null, "icon": null, "category_group": "Information"}, "geometry": {"type": "Point", "coordinates": [6.083012, 50.7747964]}}, {"type": "Feature", "properties": {"Name": "Kindertagesstätte Seemöwe", "description": "<b>Kategorie:</b> Kinder & Jugend — Kindergarten<br><b>Distanz:</b> 2686 m<br><b>Website:</b> https://www.kita-seemoewe.de/<br><b>Wikipedia:</b> <br><b>Telefon:</b> +49 241 9010626", "timestamp": null, "begin": null, "end": null, "altitudeMode": null, "tessellate": -1, "extrude": 0, "visibility": -1, "drawOrder": null, "icon": null, "category_group": "Kinder & Jugend"}, "geometry": {"type": "Point", "coordinates": [6.0984075, 50.7703213]}}, {"type": "Feature", "properties": {"Name": "Kindertagesstätte Bärenstark", "description": "<b>Kategorie:</b> Kinder & Jugend — Kindergarten<br><b>Distanz:</b> 1937 m<br><b>Website:</b> https://www.kita-baerenstark.de/<br><b>Wikipedia:</b> <br><b>Telefon:</b> ", "timestamp": null, "begin": null, "end": null, "altitudeMode": null, "tessellate": -1, "extrude": 0, "visibility": -1, "drawOrder": null, "icon": null, "category_group": "Kinder & Jugend"}, "geometry": {"type": "Point", "coordinates": [6.0964972, 50.761192]}}, {"type": "Feature", "properties": {"Name": "Kindertagesstätte Zwergenland", "description": "<b>Kategorie:</b> Kinder & Jugend — Kindergarten<br><b>Distanz:</b> 2414 m<br><b>Website:</b> https://www.kinderbetreuung-zwergenland.de/<br><b>Wikipedia:</b> <br><b>Telefon:</b> ", "timestamp": null, "begin": null, "end": null, "altitudeMode": null, "tessellate": -1, "extrude": 0, "visibility": -1, "drawOrder": null, "icon": null, "category_group": "Kinder & Jugend"}, "geometry": {"type": "Point", "coordinates": [6.0826912, 50.7732594]}}, {"type": "Feature", "properties": {"Name": "Kindertagesstätte Händelstraße", "description": "<b>Kategorie:</b> Kinder & Jugend — Kindergarten<br><b>Distanz:</b> 1913 m<br><b>Website:</b> <br><b>Wikipedia:</b> <br><b>Telefon:</b> ", "timestamp": null, "begin": null, "end": null, "altitudeMode": null, "tessellate": -1, "extrude": 0, "visibility": -1, "drawOrder": null, "icon": null, "category_group": "Kinder & Jugend"}, "geometry": {"type": "Point", "coordinates": [6.0598985, 50.7676689]}}, {"type": "Feature", "properties": {"Name": "Steinbergweg", "description": "<b>Kategorie:</b> Kinder & Jugend — Spielplatz<br><b>Distanz:</b> 3253 m<br><b>Website:</b> <br><b>Wikipedia:</b> <br><b>Telefon:</b> ", "timestamp": null, "begin": null, "end": null, "altitudeMode": null, "tessellate": -1, "extrude": 0, "visibility": -1, "drawOrder": null, "icon": null, "category_group": "Kinder & Jugend"}, "geometry": {"type": "Point", "coordinates": [6.0393828, 50.7727211]}}, {"type": "Feature", "properties": {"Name": "Kindertagesstätte Villa Luna", "description": "<b>Kategorie:</b> Kinder & Jugend — Kindergarten<br><b>Distanz:</b>  837 m<br><b>Website:</b> https://villaluna.de/aachen/kindergarten-aachen/<br><b>Wikipedia:</b> <br><b>Telefon:</b> +49 241 9436848", "timestamp": null, "begin": null, "end": null, "altitudeMode": null, "tessellate": -1, "extrude": 0, "visibility": -1, "drawOrder": null, "icon": null, "category_group": "Kinder & Jugend"}, "geometry": {"type": "Point", "coordinates": [6.0812996, 50.7576977]}}, {"type": "Feature", "properties": {"Name": "Kindertagesstätte Zauberschloss", "description": "<b>Kategorie:</b> Kinder & Jugend — Kindergarten<br><b>Distanz:</b> 2609 m<br><b>Website:</b> https://www.kita-zauberschloss.de/<br><b>Wikipedia:</b> <br><b>Telefon:</b> +49 241 9003173", "timestamp": null, "begin": null, "end": null, "altitudeMode": null, "tessellate": -1, "extrude": 0, "visibility": -1, "drawOrder": null, "icon": null, "category_group": "Kinder & Jugend"}, "geometry": {"type": "Point", "coordinates": [6.1012242, 50.767429]}}, {"type": "Feature", "properties": {"Name": "Montessori-Kinderhaus Reumontstraße", "description": "<b>Kategorie:</b> Kinder & Jugend — Kindergarten<br><b>Distanz:</b> 1625 m<br><b>Website:</b> <br><b>Wikipedia:</b> <br><b>Telefon:</b> ", "timestamp": null, "begin": null, "end": null, "altitudeMode": null, "tessellate": -1, "extrude": 0, "visibility": -1, "drawOrder": null, "icon": null, "category_group": "Kinder & Jugend"}, "geometry": {"type": "Point", "coordinates": [6.0794359, 50.7664775]}}, {"type": "Feature", "properties": {"Name": "Kindertagesstätte Reumontstraße", "description": "<b>Kategorie:</b> Kinder & Jugend — Kindergarten<br><b>Distanz:</b> 1637 m<br><b>Website:</b> <br><b>Wikipedia:</b> <br><b>Telefon:</b> +49 241 30819", "timestamp": null, "begin": null, "end": null, "altitudeMode": null, "tessellate": -1, "extrude": 0, "visibility": -1, "drawOrder": null, "icon": null, "category_group": "Kinder & Jugend"}, "geometry": {"type": "Point", "coordinates": [6.0790028, 50.7666729]}}, {"type": "Feature", "properties": {"Name": "Kindertagespflege Jakobstraße", "description": "<b>Kategorie:</b> Kinder & Jugend — Kinderbetreuung<br><b>Distanz:</b> 1944 m<br><b>Website:</b> <br><b>Wikipedia:</b> <br><b>Telefon:</b> +49 157 35711356", "timestamp": null, "begin": null, "end": null, "altitudeMode": null, "tessellate": -1, "extrude": 0, "visibility": -1, "drawOrder": null, "icon": null, "category_group": "Kinder & Jugend"}, "geometry": {"type": "Point", "coordinates": [6.0748299, 50.769932]}}, {"type": "Feature", "properties": {"Name": "Grenzlandtheater Aachen", "description": "<b>Kategorie:</b> Kultur & Geschichte — Theater<br><b>Distanz:</b> 2605 m<br><b>Website:</b> https://www.grenzlandtheater.de/<br><b>Wikipedia:</b> de:Grenzlandtheater Aachen<br><b>Telefon:</b> +49 241 4746111", "timestamp": null, "begin": null, "end": null, "altitudeMode": null, "tessellate": -1, "extrude": 0, "visibility": -1, "drawOrder": null, "icon": null, "category_group": "Kultur & Geschichte"}, "geometry": {"type": "Point", "coordinates": [6.0886726, 50.773622]}}, {"type": "Feature", "properties": {"Name": "Franz", "description": "<b>Kategorie:</b> Kultur & Geschichte — Theater<br><b>Distanz:</b> 2031 m<br><b>Website:</b> http://www.franz-aachen.de/<br><b>Wikipedia:</b> <br><b>Telefon:</b> ", "timestamp": null, "begin": null, "end": null, "altitudeMode": null, "tessellate": -1, "extrude": 0, "visibility": -1, "drawOrder": null, "icon": null, "category_group": "Kultur & Geschichte"}, "geometry": {"type": "Point", "coordinates": [6.0865688, 50.7685039]}}, {"type": "Feature", "properties": {"Name": "Michael Kloos plaanning and heritage consultancy", "description": "<b>Kategorie:</b> Kultur & Geschichte — Galerie<br><b>Distanz:</b> 2701 m<br><b>Website:</b> https://www.michaelkloos.de<br><b>Wikipedia:</b> <br><b>Telefon:</b> ", "timestamp": null, "begin": null, "end": null, "altitudeMode": null, "tessellate": -1, "extrude": 0, "visibility": -1, "drawOrder": null, "icon": null, "category_group": "Kultur & Geschichte"}, "geometry": {"type": "Point", "coordinates": [6.09952, 50.7698374]}}, {"type": "Feature", "properties": {"Name": "A&Z Prozitron", "description": "<b>Kategorie:</b> Kultur & Geschichte — Galerie<br><b>Distanz:</b> 2695 m<br><b>Website:</b> http://www.prozitron.com<br><b>Wikipedia:</b> <br><b>Telefon:</b> ", "timestamp": null, "begin": null, "end": null, "altitudeMode": null, "tessellate": -1, "extrude": 0, "visibility": -1, "drawOrder": null, "icon": null, "category_group": "Kultur & Geschichte"}, "geometry": {"type": "Point", "coordinates": [6.099284, 50.7698997]}}, {"type": "Feature", "properties": {"Name": "art[ist]in Ateliergalerie Andrea Milz", "description": "<b>Kategorie:</b> Kultur & Geschichte — Galerie<br><b>Distanz:</b> 2373 m<br><b>Website:</b> <br><b>Wikipedia:</b> <br><b>Telefon:</b> ", "timestamp": null, "begin": null, "end": null, "altitudeMode": null, "tessellate": -1, "extrude": 0, "visibility": -1, "drawOrder": null, "icon": null, "category_group": "Kultur & Geschichte"}, "geometry": {"type": "Point", "coordinates": [6.0782502, 50.7735486]}}, {"type": "Feature", "properties": {"Name": "Öcher Schängche", "description": "<b>Kategorie:</b> Kultur & Geschichte — Theater<br><b>Distanz:</b> 2311 m<br><b>Website:</b> https://www.oecher-schaengche.de/<br><b>Wikipedia:</b> de:Öcher Schängche<br><b>Telefon:</b> ", "timestamp": null, "begin": null, "end": null, "altitudeMode": null, "tessellate": -1, "extrude": 0, "visibility": -1, "drawOrder": null, "icon": null, "category_group": "Kultur & Geschichte"}, "geometry": {"type": "Point", "coordinates": [6.0793344, 50.7728535]}}, {"type": "Feature", "properties": {"Name": "Raum für Kultur", "description": "<b>Kategorie:</b> Kultur & Geschichte — Galerie<br><b>Distanz:</b> 2562 m<br><b>Website:</b> https://www.raum-fuer-kultur.eu<br><b>Wikipedia:</b> <br><b>Telefon:</b> +49 172 7700264", "timestamp": null, "begin": null, "end": null, "altitudeMode": null, "tessellate": -1, "extrude": 0, "visibility": -1, "drawOrder": null, "icon": null, "category_group": "Kultur & Geschichte"}, "geometry": {"type": "Point", "coordinates": [6.0922159, 50.7719346]}}, {"type": "Feature", "properties": {"Name": "Artikel 5", "description": "<b>Kategorie:</b> Kultur & Geschichte — Galerie<br><b>Distanz:</b> 2252 m<br><b>Website:</b> http://www.artikel-5.com/<br><b>Wikipedia:</b> <br><b>Telefon:</b> ", "timestamp": null, "begin": null, "end": null, "altitudeMode": null, "tessellate": -1, "extrude": 0, "visibility": -1, "drawOrder": null, "icon": null, "category_group": "Kultur & Geschichte"}, "geometry": {"type": "Point", "coordinates": [6.0909101, 50.7691328]}}, {"type": "Feature", "properties": {"Name": "Filmstudio an der RWTH Aachen e.V.", "description": "<b>Kategorie:</b> Kultur & Geschichte — Kino<br><b>Distanz:</b> 2450 m<br><b>Website:</b> https://www.filmstudio.rwth-aachen.de/<br><b>Wikipedia:</b> <br><b>Telefon:</b> +49 241 8095468", "timestamp": null, "begin": null, "end": null, "altitudeMode": null, "tessellate": -1, "extrude": 0, "visibility": -1, "drawOrder": null, "icon": null, "category_group": "Kultur & Geschichte"}, "geometry": {"type": "Point", "coordinates": [6.0849425, 50.7731156]}}, {"type": "Feature", "properties": {"Name": "Karlsschrein", "description": "<b>Kategorie:</b> Kultur & Geschichte — Attraktion<br><b>Distanz:</b> 2602 m<br><b>Website:</b> <br><b>Wikipedia:</b> <br><b>Telefon:</b> ", "timestamp": null, "begin": null, "end": null, "altitudeMode": null, "tessellate": -1, "extrude": 0, "visibility": -1, "drawOrder": null, "icon": null, "category_group": "Kultur & Geschichte"}, "geometry": {"type": "Point", "coordinates": [6.0841955, 50.7747373]}}, {"type": "Feature", "properties": {"Name": "THEATERSCHULE AACHEN E.V.", "description": "<b>Kategorie:</b> Kultur & Geschichte — Theater<br><b>Distanz:</b> 2314 m<br><b>Website:</b> http://www.theaterschule-aachen.de/index.html<br><b>Wikipedia:</b> de:Theaterschule Aachen<br><b>Telefon:</b> +49 241 4450645", "timestamp": null, "begin": null, "end": null, "altitudeMode": null, "tessellate": -1, "extrude": 0, "visibility": -1, "drawOrder": null, "icon": null, "category_group": "Kultur & Geschichte"}, "geometry": {"type": "Point", "coordinates": [6.079246, 50.7728925]}}, {"type": "Feature", "properties": {"Name": "Galerie Spatz", "description": "<b>Kategorie:</b> Kultur & Geschichte — Galerie<br><b>Distanz:</b> 2468 m<br><b>Website:</b> https://www.galeriespatz.com<br><b>Wikipedia:</b> <br><b>Telefon:</b> ", "timestamp": null, "begin": null, "end": null, "altitudeMode": null, "tessellate": -1, "extrude": 0, "visibility": -1, "drawOrder": null, "icon": null, "category_group": "Kultur & Geschichte"}, "geometry": {"type": "Point", "coordinates": [6.0817944, 50.7739285]}}, {"type": "Feature", "properties": {"Name": "RAUM FÜR KUNST", "description": "<b>Kategorie:</b> Kultur & Geschichte — Galerie<br><b>Distanz:</b> 2621 m<br><b>Website:</b> https://www.sparkasse-aachen.de/raum-fuer-kunst<br><b>Wikipedia:</b> <br><b>Telefon:</b> +49 241 4444510", "timestamp": null, "begin": null, "end": null, "altitudeMode": null, "tessellate": -1, "extrude": 0, "visibility": -1, "drawOrder": null, "icon": null, "category_group": "Kultur & Geschichte"}, "geometry": {"type": "Point", "coordinates": [6.088865, 50.7737216]}}, {"type": "Feature", "properties": {"Name": "Galerie Sebestyen", "description": "<b>Kategorie:</b> Kultur & Geschichte — Galerie<br><b>Distanz:</b> 2412 m<br><b>Website:</b> <br><b>Wikipedia:</b> <br><b>Telefon:</b> +49 241 35918", "timestamp": null, "begin": null, "end": null, "altitudeMode": null, "tessellate": -1, "extrude": 0, "visibility": -1, "drawOrder": null, "icon": null, "category_group": "Kultur & Geschichte"}, "geometry": {"type": "Point", "coordinates": [6.0787165, 50.773852]}}, {"type": "Feature", "properties": {"Name": "Pionierquelle", "description": "<b>Kategorie:</b> Natur & Landschaft — Natur-Feature (alle)<br><b>Distanz:</b> 2559 m<br><b>Website:</b> <br><b>Wikipedia:</b> <br><b>Telefon:</b> ", "timestamp": null, "begin": null, "end": null, "altitudeMode": null, "tessellate": -1, "extrude": 0, "visibility": -1, "drawOrder": null, "icon": null, "category_group": "Natur & Landschaft"}, "geometry": {"type": "Point", "coordinates": [6.098949, 50.7366479]}}, {"type": "Feature", "properties": {"Name": "Elleterberg", "description": "<b>Kategorie:</b> Natur & Landschaft — Natur-Feature (alle)<br><b>Distanz:</b> 2998 m<br><b>Website:</b> <br><b>Wikipedia:</b> <br><b>Telefon:</b> ", "timestamp": null, "begin": null, "end": null, "altitudeMode": null, "tessellate": -1, "extrude": 0, "visibility": -1, "drawOrder": null, "icon": null, "category_group": "Natur & Landschaft"}, "geometry": {"type": "Point", "coordinates": [6.0999479, 50.7318354]}}, {"type": "Feature", "properties": {"Name": "Brandenberg", "description": "<b>Kategorie:</b> Natur & Landschaft — Natur-Feature (alle)<br><b>Distanz:</b> 1594 m<br><b>Website:</b> <br><b>Wikipedia:</b> <br><b>Telefon:</b> ", "timestamp": null, "begin": null, "end": null, "altitudeMode": null, "tessellate": -1, "extrude": 0, "visibility": -1, "drawOrder": null, "icon": null, "category_group": "Natur & Landschaft"}, "geometry": {"type": "Point", "coordinates": [6.0675104, 50.7385709]}}, {"type": "Feature", "properties": {"Name": "Steineknipp", "description": "<b>Kategorie:</b> Natur & Landschaft — Natur-Feature (alle)<br><b>Distanz:</b> 2115 m<br><b>Website:</b> <br><b>Wikipedia:</b> <br><b>Telefon:</b> ", "timestamp": null, "begin": null, "end": null, "altitudeMode": null, "tessellate": -1, "extrude": 0, "visibility": -1, "drawOrder": null, "icon": null, "category_group": "Natur & Landschaft"}, "geometry": {"type": "Point", "coordinates": [6.072551, 50.7335041]}}, {"type": "Feature", "properties": {"Name": "Scherpenberg", "description": "<b>Kategorie:</b> Natur & Landschaft — Natur-Feature (alle)<br><b>Distanz:</b>  697 m<br><b>Website:</b> <br><b>Wikipedia:</b> <br><b>Telefon:</b> ", "timestamp": null, "begin": null, "end": null, "altitudeMode": null, "tessellate": -1, "extrude": 0, "visibility": -1, "drawOrder": null, "icon": null, "category_group": "Natur & Landschaft"}, "geometry": {"type": "Point", "coordinates": [6.0634894, 50.750265]}}, {"type": "Feature", "properties": {"Name": "Klausberg", "description": "<b>Kategorie:</b> Natur & Landschaft — Natur-Feature (alle)<br><b>Distanz:</b> 2617 m<br><b>Website:</b> <br><b>Wikipedia:</b> <br><b>Telefon:</b> ", "timestamp": null, "begin": null, "end": null, "altitudeMode": null, "tessellate": -1, "extrude": 0, "visibility": -1, "drawOrder": null, "icon": null, "category_group": "Natur & Landschaft"}, "geometry": {"type": "Point", "coordinates": [6.0611303, 50.7301631]}}, {"type": "Feature", "properties": {"Name": "Königsberg", "description": "<b>Kategorie:</b> Natur & Landschaft — Natur-Feature (alle)<br><b>Distanz:</b> 2955 m<br><b>Website:</b> <br><b>Wikipedia:</b> <br><b>Telefon:</b> ", "timestamp": null, "begin": null, "end": null, "altitudeMode": null, "tessellate": -1, "extrude": 0, "visibility": -1, "drawOrder": null, "icon": null, "category_group": "Natur & Landschaft"}, "geometry": {"type": "Point", "coordinates": [6.0963904, 50.7306116]}}, {"type": "Feature", "properties": {"Name": "P8;P9", "description": "<b>Kategorie:</b> Natur & Landschaft — Natur-Feature (alle)<br><b>Distanz:</b> 1988 m<br><b>Website:</b> <br><b>Wikipedia:</b> <br><b>Telefon:</b> ", "timestamp": null, "begin": null, "end": null, "altitudeMode": null, "tessellate": -1, "extrude": 0, "visibility": -1, "drawOrder": null, "icon": null, "category_group": "Natur & Landschaft"}, "geometry": {"type": "Point", "coordinates": [6.0490792, 50.7427924]}}, {"type": "Feature", "properties": {"Name": "P6", "description": "<b>Kategorie:</b> Natur & Landschaft — Natur-Feature (alle)<br><b>Distanz:</b> 1907 m<br><b>Website:</b> <br><b>Wikipedia:</b> <br><b>Telefon:</b> ", "timestamp": null, "begin": null, "end": null, "altitudeMode": null, "tessellate": -1, "extrude": 0, "visibility": -1, "drawOrder": null, "icon": null, "category_group": "Natur & Landschaft"}, "geometry": {"type": "Point", "coordinates": [6.0497396, 50.7434885]}}, {"type": "Feature", "properties": {"Name": "P1;P5", "description": "<b>Kategorie:</b> Natur & Landschaft — Natur-Feature (alle)<br><b>Distanz:</b> 1972 m<br><b>Website:</b> <br><b>Wikipedia:</b> <br><b>Telefon:</b> ", "timestamp": null, "begin": null, "end": null, "altitudeMode": null, "tessellate": -1, "extrude": 0, "visibility": -1, "drawOrder": null, "icon": null, "category_group": "Natur & Landschaft"}, "geometry": {"type": "Point", "coordinates": [6.0494953, 50.7426488]}}, {"type": "Feature", "properties": {"Name": "P3;P7", "description": "<b>Kategorie:</b> Natur & Landschaft — Natur-Feature (alle)<br><b>Distanz:</b> 1941 m<br><b>Website:</b> <br><b>Wikipedia:</b> <br><b>Telefon:</b> ", "timestamp": null, "begin": null, "end": null, "altitudeMode": null, "tessellate": -1, "extrude": 0, "visibility": -1, "drawOrder": null, "icon": null, "category_group": "Natur & Landschaft"}, "geometry": {"type": "Point", "coordinates": [6.0493787, 50.7432761]}}, {"type": "Feature", "properties": {"Name": "P2;P4", "description": "<b>Kategorie:</b> Natur & Landschaft — Natur-Feature (alle)<br><b>Distanz:</b> 1970 m<br><b>Website:</b> <br><b>Wikipedia:</b> <br><b>Telefon:</b> ", "timestamp": null, "begin": null, "end": null, "altitudeMode": null, "tessellate": -1, "extrude": 0, "visibility": -1, "drawOrder": null, "icon": null, "category_group": "Natur & Landschaft"}, "geometry": {"type": "Point", "coordinates": [6.0493614, 50.7427984]}}, {"type": "Feature", "properties": {"Name": "Ameisenstraße", "description": "<b>Kategorie:</b> Natur & Landschaft — Natur-Feature (alle)<br><b>Distanz:</b> 1974 m<br><b>Website:</b> <br><b>Wikipedia:</b> <br><b>Telefon:</b> ", "timestamp": null, "begin": null, "end": null, "altitudeMode": null, "tessellate": -1, "extrude": 0, "visibility": -1, "drawOrder": null, "icon": null, "category_group": "Natur & Landschaft"}, "geometry": {"type": "Point", "coordinates": [6.0495978, 50.7425181]}}, {"type": "Feature", "properties": {"Name": "instruction", "description": "<b>Kategorie:</b> Natur & Landschaft — Natur-Feature (alle)<br><b>Distanz:</b> 1920 m<br><b>Website:</b> <br><b>Wikipedia:</b> <br><b>Telefon:</b> ", "timestamp": null, "begin": null, "end": null, "altitudeMode": null, "tessellate": -1, "extrude": 0, "visibility": -1, "drawOrder": null, "icon": null, "category_group": "Natur & Landschaft"}, "geometry": {"type": "Point", "coordinates": [6.0496217, 50.7433816]}}, {"type": "Feature", "properties": {"Name": "Mammutbaum", "description": "<b>Kategorie:</b> Natur & Landschaft — Natur-Feature (alle)<br><b>Distanz:</b> 2069 m<br><b>Website:</b> <br><b>Wikipedia:</b> <br><b>Telefon:</b> ", "timestamp": null, "begin": null, "end": null, "altitudeMode": null, "tessellate": -1, "extrude": 0, "visibility": -1, "drawOrder": null, "icon": null, "category_group": "Natur & Landschaft"}, "geometry": {"type": "Point", "coordinates": [6.089755, 50.7373821]}}, {"type": "Feature", "properties": {"Name": "Rosenquelle II.", "description": "<b>Kategorie:</b> Natur & Landschaft — Natur-Feature (alle)<br><b>Distanz:</b> 2268 m<br><b>Website:</b> <br><b>Wikipedia:</b> de:Aachener Thermalquellen#Rosenquelle (Burtscheid)<br><b>Telefon:</b> ", "timestamp": null, "begin": null, "end": null, "altitudeMode": null, "tessellate": -1, "extrude": 0, "visibility": -1, "drawOrder": null, "icon": null, "category_group": "Natur & Landschaft"}, "geometry": {"type": "Point", "coordinates": [6.0962586, 50.7663817]}}, {"type": "Feature", "properties": {"Name": "Landesbadquelle", "description": "<b>Kategorie:</b> Natur & Landschaft — Natur-Feature (alle)<br><b>Distanz:</b> 1742 m<br><b>Website:</b> <br><b>Wikipedia:</b> de:Aachener Thermalquellen#Schwertbadquelle<br><b>Telefon:</b> ", "timestamp": null, "begin": null, "end": null, "altitudeMode": null, "tessellate": -1, "extrude": 0, "visibility": -1, "drawOrder": null, "icon": null, "category_group": "Natur & Landschaft"}, "geometry": {"type": "Point", "coordinates": [6.09153, 50.7626409]}}, {"type": "Feature", "properties": {"Name": "Marktbrunnen", "description": "<b>Kategorie:</b> Natur & Landschaft — Natur-Feature (alle)<br><b>Distanz:</b> 1830 m<br><b>Website:</b> <br><b>Wikipedia:</b> de:Thermalbrunnen Burtscheid<br><b>Telefon:</b> ", "timestamp": null, "begin": null, "end": null, "altitudeMode": null, "tessellate": -1, "extrude": 0, "visibility": -1, "drawOrder": null, "icon": null, "category_group": "Natur & Landschaft"}, "geometry": {"type": "Point", "coordinates": [6.0922663, 50.7633061]}}, {"type": "Feature", "properties": {"Name": "Bismarckturm", "description": "<b>Kategorie:</b> Natur & Landschaft — Aussichtspunkt<br><b>Distanz:</b> 2461 m<br><b>Website:</b> <br><b>Wikipedia:</b> de:Bismarckturm (Aachen)<br><b>Telefon:</b> ", "timestamp": null, "begin": null, "end": null, "altitudeMode": null, "tessellate": -1, "extrude": 0, "visibility": -1, "drawOrder": null, "icon": null, "category_group": "Natur & Landschaft"}, "geometry": {"type": "Point", "coordinates": [6.1063366, 50.7466675]}}, {"type": "Feature", "properties": {"Name": "Johannisbachquelle", "description": "<b>Kategorie:</b> Natur & Landschaft — Natur-Feature (alle)<br><b>Distanz:</b> 1460 m<br><b>Website:</b> <br><b>Wikipedia:</b> <br><b>Telefon:</b> ", "timestamp": null, "begin": null, "end": null, "altitudeMode": null, "tessellate": -1, "extrude": 0, "visibility": -1, "drawOrder": null, "icon": null, "category_group": "Natur & Landschaft"}, "geometry": {"type": "Point", "coordinates": [6.0558414, 50.7601068]}}, {"type": "Feature", "properties": {"Name": "Tüljequelle", "description": "<b>Kategorie:</b> Natur & Landschaft — Natur-Feature (alle)<br><b>Distanz:</b> 2603 m<br><b>Website:</b> <br><b>Wikipedia:</b> <br><b>Telefon:</b> ", "timestamp": null, "begin": null, "end": null, "altitudeMode": null, "tessellate": -1, "extrude": 0, "visibility": -1, "drawOrder": null, "icon": null, "category_group": "Natur & Landschaft"}, "geometry": {"type": "Point", "coordinates": [6.0534033, 50.7325723]}}, {"type": "Feature", "properties": {"Name": "Preusberg", "description": "<b>Kategorie:</b> Natur & Landschaft — Natur-Feature (alle)<br><b>Distanz:</b> 1369 m<br><b>Website:</b> <br><b>Wikipedia:</b> <br><b>Telefon:</b> ", "timestamp": null, "begin": null, "end": null, "altitudeMode": null, "tessellate": -1, "extrude": 0, "visibility": -1, "drawOrder": null, "icon": null, "category_group": "Natur & Landschaft"}, "geometry": {"type": "Point", "coordinates": [6.0583243, 50.7442581]}}, {"type": "Feature", "properties": {"Name": "Karlshöhe", "description": "<b>Kategorie:</b> Natur & Landschaft — Natur-Feature (alle)<br><b>Distanz:</b> 1725 m<br><b>Website:</b> <br><b>Wikipedia:</b> <br><b>Telefon:</b> ", "timestamp": null, "begin": null, "end": null, "altitudeMode": null, "tessellate": -1, "extrude": 0, "visibility": -1, "drawOrder": null, "icon": null, "category_group": "Natur & Landschaft"}, "geometry": {"type": "Point", "coordinates": [6.0493214, 50.7480148]}}, {"type": "Feature", "properties": {"Name": "Düsberg", "description": "<b>Kategorie:</b> Natur & Landschaft — Natur-Feature (alle)<br><b>Distanz:</b> 1750 m<br><b>Website:</b> <br><b>Wikipedia:</b> <br><b>Telefon:</b> ", "timestamp": null, "begin": null, "end": null, "altitudeMode": null, "tessellate": -1, "extrude": 0, "visibility": -1, "drawOrder": null, "icon": null, "category_group": "Natur & Landschaft"}, "geometry": {"type": "Point", "coordinates": [6.08436, 50.738627]}}, {"type": "Feature", "properties": {"Name": "Schlangenbadquellen", "description": "<b>Kategorie:</b> Natur & Landschaft — Natur-Feature (alle)<br><b>Distanz:</b> 1759 m<br><b>Website:</b> <br><b>Wikipedia:</b> de:Aachener Thermalquellen#Schlangenbadquellen<br><b>Telefon:</b> ", "timestamp": null, "begin": null, "end": null, "altitudeMode": null, "tessellate": -1, "extrude": 0, "visibility": -1, "drawOrder": null, "icon": null, "category_group": "Natur & Landschaft"}, "geometry": {"type": "Point", "coordinates": [6.0919856, 50.7625347]}}, {"type": "Feature", "properties": {"Name": "Landesbadquellen", "description": "<b>Kategorie:</b> Natur & Landschaft — Natur-Feature (alle)<br><b>Distanz:</b> 1718 m<br><b>Website:</b> <br><b>Wikipedia:</b> de:Aachener Thermalquellen#Landesbadquellen<br><b>Telefon:</b> ", "timestamp": null, "begin": null, "end": null, "altitudeMode": null, "tessellate": -1, "extrude": 0, "visibility": -1, "drawOrder": null, "icon": null, "category_group": "Natur & Landschaft"}, "geometry": {"type": "Point", "coordinates": [6.0915215, 50.762311]}}, {"type": "Feature", "properties": {"Name": "Rosenquelle I.", "description": "<b>Kategorie:</b> Natur & Landschaft — Natur-Feature (alle)<br><b>Distanz:</b> 2088 m<br><b>Website:</b> <br><b>Wikipedia:</b> de:Aachener Thermalquellen#Rosenquelle (Burtscheid)<br><b>Telefon:</b> ", "timestamp": null, "begin": null, "end": null, "altitudeMode": null, "tessellate": -1, "extrude": 0, "visibility": -1, "drawOrder": null, "icon": null, "category_group": "Natur & Landschaft"}, "geometry": {"type": "Point", "coordinates": [6.0949609, 50.7648733]}}, {"type": "Feature", "properties": {"Name": "Birne", "description": "<b>Kategorie:</b> Natur & Landschaft — Natur-Feature (alle)<br><b>Distanz:</b> 2662 m<br><b>Website:</b> <br><b>Wikipedia:</b> <br><b>Telefon:</b> ", "timestamp": null, "begin": null, "end": null, "altitudeMode": null, "tessellate": -1, "extrude": 0, "visibility": -1, "drawOrder": null, "icon": null, "category_group": "Natur & Landschaft"}, "geometry": {"type": "Point", "coordinates": [6.1032832, 50.7665279]}}, {"type": "Feature", "properties": {"Name": "Apfel", "description": "<b>Kategorie:</b> Natur & Landschaft — Natur-Feature (alle)<br><b>Distanz:</b> 2717 m<br><b>Website:</b> <br><b>Wikipedia:</b> <br><b>Telefon:</b> ", "timestamp": null, "begin": null, "end": null, "altitudeMode": null, "tessellate": -1, "extrude": 0, "visibility": -1, "drawOrder": null, "icon": null, "category_group": "Natur & Landschaft"}, "geometry": {"type": "Point", "coordinates": [6.1046258, 50.7661615]}}, {"type": "Feature", "properties": {"Name": "OecherLab", "description": "<b>Kategorie:</b> Wissenschaft — Forschungsinstitut<br><b>Distanz:</b> 2337 m<br><b>Website:</b> https://oecherlab.de<br><b>Wikipedia:</b> <br><b>Telefon:</b> ", "timestamp": null, "begin": null, "end": null, "altitudeMode": null, "tessellate": -1, "extrude": 0, "visibility": -1, "drawOrder": null, "icon": null, "category_group": "Wissenschaft"}, "geometry": {"type": "Point", "coordinates": [6.0852222, 50.7719594]}}]}