{"type": "FeatureCollection", "features": [{"type": "Feature", "properties": {"Name": "JH 588 — Jugendherberge Norderney", "description": "<b>JH Nr:</b> 588<br><b>Name:</b> Jugendherberge Norderney<br><b>Ort:</b> Norderney Dünensender", "timestamp": null, "begin": null, "end": null, "altitudeMode": null, "tessellate": -1, "extrude": 0, "visibility": -1, "drawOrder": null, "icon": null, "category_group": "JH"}, "geometry": {"type": "Point", "coordinates": [7.2058395, 53.7119115]}}, {"type": "Feature", "properties": {"Name": "Sonne", "description": "<b>Kategorie:</b> Information — Besucherinformation<br><b>Distanz:</b> 1849 m<br><b>Wikipedia:</b> <br><b>Telefon:</b> ", "timestamp": null, "begin": null, "end": null, "altitudeMode": null, "tessellate": -1, "extrude": 0, "visibility": -1, "drawOrder": null, "icon": null, "category_group": "Information"}, "geometry": {"type": "Point", "coordinates": [7.1783479, 53.7087379]}}, {"type": "Feature", "properties": {"Name": "Erde", "description": "<b>Kategorie:</b> Information — Besucherinformation<br><b>Distanz:</b> 1758 m<br><b>Wikipedia:</b> <br><b>Telefon:</b> ", "timestamp": null, "begin": null, "end": null, "altitudeMode": null, "tessellate": -1, "extrude": 0, "visibility": -1, "drawOrder": null, "icon": null, "category_group": "Information"}, "geometry": {"type": "Point", "coordinates": [7.1797367, 53.7087816]}}, {"type": "Feature", "properties": {"Name": "Jupiter", "description": "<b>Kategorie:</b> Information — Besucherinformation<br><b>Distanz:</b> 1468 m<br><b>Wikipedia:</b> <br><b>Telefon:</b> ", "timestamp": null, "begin": null, "end": null, "altitudeMode": null, "tessellate": -1, "extrude": 0, "visibility": -1, "drawOrder": null, "icon": null, "category_group": "Information"}, "geometry": {"type": "Point", "coordinates": [7.1841631, 53.708954]}}, {"type": "Feature", "properties": {"Name": "Mars", "description": "<b>Kategorie:</b> Information — Besucherinformation<br><b>Distanz:</b> 1702 m<br><b>Wikipedia:</b> <br><b>Telefon:</b> ", "timestamp": null, "begin": null, "end": null, "altitudeMode": null, "tessellate": -1, "extrude": 0, "visibility": -1, "drawOrder": null, "icon": null, "category_group": "Information"}, "geometry": {"type": "Point", "coordinates": [7.1805935, 53.7088311]}}, {"type": "Feature", "properties": {"Name": "Saturn", "description": "<b>Kategorie:</b> Information — Besucherinformation<br><b>Distanz:</b> 1183 m<br><b>Wikipedia:</b> <br><b>Telefon:</b> ", "timestamp": null, "begin": null, "end": null, "altitudeMode": null, "tessellate": -1, "extrude": 0, "visibility": -1, "drawOrder": null, "icon": null, "category_group": "Information"}, "geometry": {"type": "Point", "coordinates": [7.1887649, 53.7086775]}}, {"type": "Feature", "properties": {"Name": "Uranus", "description": "<b>Kategorie:</b> Information — Besucherinformation<br><b>Distanz:</b>  616 m<br><b>Wikipedia:</b> <br><b>Telefon:</b> ", "timestamp": null, "begin": null, "end": null, "altitudeMode": null, "tessellate": -1, "extrude": 0, "visibility": -1, "drawOrder": null, "icon": null, "category_group": "Information"}, "geometry": {"type": "Point", "coordinates": [7.199489, 53.7078504]}}, {"type": "Feature", "properties": {"Name": "Neptun", "description": "<b>Kategorie:</b> Information — Besucherinformation<br><b>Distanz:</b>  260 m<br><b>Wikipedia:</b> <br><b>Telefon:</b> ", "timestamp": null, "begin": null, "end": null, "altitudeMode": null, "tessellate": -1, "extrude": 0, "visibility": -1, "drawOrder": null, "icon": null, "category_group": "Information"}, "geometry": {"type": "Point", "coordinates": [7.2082763, 53.7100746]}}, {"type": "Feature", "properties": {"Name": "Merkur", "description": "<b>Kategorie:</b> Information — Besucherinformation<br><b>Distanz:</b> 1818 m<br><b>Wikipedia:</b> <br><b>Telefon:</b> ", "timestamp": null, "begin": null, "end": null, "altitudeMode": null, "tessellate": -1, "extrude": 0, "visibility": -1, "drawOrder": null, "icon": null, "category_group": "Information"}, "geometry": {"type": "Point", "coordinates": [7.1788284, 53.7087452]}}, {"type": "Feature", "properties": {"Name": "Startpunkt Laufrouten", "description": "<b>Kategorie:</b> Information — Besucherinformation<br><b>Distanz:</b> 2287 m<br><b>Wikipedia:</b> <br><b>Telefon:</b> ", "timestamp": null, "begin": null, "end": null, "altitudeMode": null, "tessellate": -1, "extrude": 0, "visibility": -1, "drawOrder": null, "icon": null, "category_group": "Information"}, "geometry": {"type": "Point", "coordinates": [7.1716714, 53.708495]}}, {"type": "Feature", "properties": {"Name": "Marinebahn Norderney", "description": "<b>Kategorie:</b> Information — Besucherinformation<br><b>Distanz:</b> 2366 m<br><b>Wikipedia:</b> <br><b>Telefon:</b> ", "timestamp": null, "begin": null, "end": null, "altitudeMode": null, "tessellate": -1, "extrude": 0, "visibility": -1, "drawOrder": null, "icon": null, "category_group": "Information"}, "geometry": {"type": "Point", "coordinates": [7.1700127, 53.7113953]}}, {"type": "Feature", "properties": {"Name": "Cumberland-Denkmal", "description": "<b>Kategorie:</b> Information — Besucherinformation<br><b>Distanz:</b> 2345 m<br><b>Wikipedia:</b> <br><b>Telefon:</b> ", "timestamp": null, "begin": null, "end": null, "altitudeMode": null, "tessellate": -1, "extrude": 0, "visibility": -1, "drawOrder": null, "icon": null, "category_group": "Information"}, "geometry": {"type": "Point", "coordinates": [7.1703271, 53.711314]}}, {"type": "Feature", "properties": {"Name": "Laufrouten", "description": "<b>Kategorie:</b> Information — Besucherinformation<br><b>Distanz:</b> 2288 m<br><b>Wikipedia:</b> <br><b>Telefon:</b> ", "timestamp": null, "begin": null, "end": null, "altitudeMode": null, "tessellate": -1, "extrude": 0, "visibility": -1, "drawOrder": null, "icon": null, "category_group": "Information"}, "geometry": {"type": "Point", "coordinates": [7.1716535, 53.7085424]}}, {"type": "Feature", "properties": {"Name": "Bahnhof Stelldichein", "description": "<b>Kategorie:</b> Kultur & Geschichte — Attraktion<br><b>Distanz:</b> 2373 m<br><b>Wikipedia:</b> de:Deutsche Marinebahnen#Norderney<br><b>Telefon:</b> ", "timestamp": null, "begin": null, "end": null, "altitudeMode": null, "tessellate": -1, "extrude": 0, "visibility": -1, "drawOrder": null, "icon": null, "category_group": "Kultur & Geschichte"}, "geometry": {"type": "Point", "coordinates": [7.1699008, 53.7113813]}}, {"type": "Feature", "properties": {"Name": "Wattwanderung hier", "description": "<b>Kategorie:</b> Kultur & Geschichte — Attraktion<br><b>Distanz:</b> 2394 m<br><b>Wikipedia:</b> <br><b>Telefon:</b> ", "timestamp": null, "begin": null, "end": null, "altitudeMode": null, "tessellate": -1, "extrude": 0, "visibility": -1, "drawOrder": null, "icon": null, "category_group": "Kultur & Geschichte"}, "geometry": {"type": "Point", "coordinates": [7.1701814, 53.7079948]}}, {"type": "Feature", "properties": {"Name": "Wattwanderung hier", "description": "<b>Kategorie:</b> Kultur & Geschichte — Attraktion<br><b>Distanz:</b> 1128 m<br><b>Wikipedia:</b> <br><b>Telefon:</b> ", "timestamp": null, "begin": null, "end": null, "altitudeMode": null, "tessellate": -1, "extrude": 0, "visibility": -1, "drawOrder": null, "icon": null, "category_group": "Kultur & Geschichte"}, "geometry": {"type": "Point", "coordinates": [7.2003952, 53.7023017]}}, {"type": "Feature", "properties": {"Name": "Aussichtplattform \"Weiße Düne\"", "description": "<b>Kategorie:</b> Natur & Landschaft — Aussichtspunkt<br><b>Distanz:</b> 1072 m<br><b>Wikipedia:</b> <br><b>Telefon:</b> ", "timestamp": null, "begin": null, "end": null, "altitudeMode": null, "tessellate": -1, "extrude": 0, "visibility": -1, "drawOrder": null, "icon": null, "category_group": "Natur & Landschaft"}, "geometry": {"type": "Point", "coordinates": [7.1952153, 53.7192037]}}, {"type": "Feature", "properties": {"Name": "Landebahnen", "description": "<b>Kategorie:</b> Natur & Landschaft — Aussichtspunkt<br><b>Distanz:</b> 1431 m<br><b>Wikipedia:</b> <br><b>Telefon:</b> ", "timestamp": null, "begin": null, "end": null, "altitudeMode": null, "tessellate": -1, "extrude": 0, "visibility": -1, "drawOrder": null, "icon": null, "category_group": "Natur & Landschaft"}, "geometry": {"type": "Point", "coordinates": [7.2264641, 53.7079497]}}, {"type": "Feature", "properties": {"Name": "Aussichtsdüne", "description": "<b>Kategorie:</b> Natur & Landschaft — Aussichtspunkt<br><b>Distanz:</b>  292 m<br><b>Wikipedia:</b> <br><b>Telefon:</b> ", "timestamp": null, "begin": null, "end": null, "altitudeMode": null, "tessellate": -1, "extrude": 0, "visibility": -1, "drawOrder": null, "icon": null, "category_group": "Natur & Landschaft"}, "geometry": {"type": "Point", "coordinates": [7.2026215, 53.7137135]}}, {"type": "Feature", "properties": {"Name": "Augustusblick", "description": "<b>Kategorie:</b> Natur & Landschaft — Aussichtspunkt<br><b>Distanz:</b> 2180 m<br><b>Wikipedia:</b> <br><b>Telefon:</b> ", "timestamp": null, "begin": null, "end": null, "altitudeMode": null, "tessellate": -1, "extrude": 0, "visibility": -1, "drawOrder": null, "icon": null, "category_group": "Natur & Landschaft"}, "geometry": {"type": "Point", "coordinates": [7.2367434, 53.7188268]}}]}