{"type": "FeatureCollection", "features": [{"type": "Feature", "properties": {"Name": "JH 539 — Jugendherberge Neumünster", "description": "<b>JH Nr:</b> 539<br><b>Name:</b> Jugendherberge Neumünster<br><b>Ort:</b> Neumünster", "timestamp": null, "begin": null, "end": null, "altitudeMode": null, "tessellate": -1, "extrude": 0, "visibility": -1, "drawOrder": null, "icon": null, "category_group": "JH"}, "geometry": {"type": "Point", "coordinates": [9.9815102, 54.0662659]}}, {"type": "Feature", "properties": {"Name": "Stadtbücherei Neumünster", "description": "<b>Kategorie:</b> Bildungsinfrastruktur — Bibliothek<br><b>Distanz:</b>  667 m<br><b>Website:</b> https://www.neumuenster.de/<br><b>Wikipedia:</b> <br><b>Telefon:</b> +49 4321 407631", "timestamp": null, "begin": null, "end": null, "altitudeMode": null, "tessellate": -1, "extrude": 0, "visibility": -1, "drawOrder": null, "icon": null, "category_group": "Bildungsinfrastruktur"}, "geometry": {"type": "Point", "coordinates": [9.9795669, 54.072149]}}, {"type": "Feature", "properties": {"Name": "Werkhalle", "description": "<b>Kategorie:</b> Bildungsinfrastruktur — Kunstzentrum<br><b>Distanz:</b> 1253 m<br><b>Website:</b> <br><b>Wikipedia:</b> <br><b>Telefon:</b> ", "timestamp": null, "begin": null, "end": null, "altitudeMode": null, "tessellate": -1, "extrude": 0, "visibility": -1, "drawOrder": null, "icon": null, "category_group": "Bildungsinfrastruktur"}, "geometry": {"type": "Point", "coordinates": [9.9891949, 54.076583]}}, {"type": "Feature", "properties": {"Name": "Familienzentrum St. Bartholomäus", "description": "<b>Kategorie:</b> Bildungsinfrastruktur — Gemeindezentrum<br><b>Distanz:</b> 1406 m<br><b>Website:</b> http://www.bartholomaeus-kita.de/unsere-kita/familienzentrum/<br><b>Wikipedia:</b> <br><b>Telefon:</b> +49 4321 6956013", "timestamp": null, "begin": null, "end": null, "altitudeMode": null, "tessellate": -1, "extrude": 0, "visibility": -1, "drawOrder": null, "icon": null, "category_group": "Bildungsinfrastruktur"}, "geometry": {"type": "Point", "coordinates": [9.9603913, 54.0685604]}}, {"type": "Feature", "properties": {"Name": "FTN", "description": "<b>Kategorie:</b> Freizeit & Sport — Sportzentrum<br><b>Distanz:</b> 2432 m<br><b>Website:</b> <br><b>Wikipedia:</b> <br><b>Telefon:</b> ", "timestamp": null, "begin": null, "end": null, "altitudeMode": null, "tessellate": -1, "extrude": 0, "visibility": -1, "drawOrder": null, "icon": null, "category_group": "Freizeit & Sport"}, "geometry": {"type": "Point", "coordinates": [9.9547603, 54.0814361]}}, {"type": "Feature", "properties": {"Name": "PBC Neumünster", "description": "<b>Kategorie:</b> Freizeit & Sport — Sportzentrum<br><b>Distanz:</b>   32 m<br><b>Website:</b> <br><b>Wikipedia:</b> <br><b>Telefon:</b> ", "timestamp": null, "begin": null, "end": null, "altitudeMode": null, "tessellate": -1, "extrude": 0, "visibility": -1, "drawOrder": null, "icon": null, "category_group": "Freizeit & Sport"}, "geometry": {"type": "Point", "coordinates": [9.9816963, 54.0665363]}}, {"type": "Feature", "properties": {"Name": "Wellyou", "description": "<b>Kategorie:</b> Freizeit & Sport — Sportzentrum<br><b>Distanz:</b> 1204 m<br><b>Website:</b> <br><b>Wikipedia:</b> <br><b>Telefon:</b> ", "timestamp": null, "begin": null, "end": null, "altitudeMode": null, "tessellate": -1, "extrude": 0, "visibility": -1, "drawOrder": null, "icon": null, "category_group": "Freizeit & Sport"}, "geometry": {"type": "Point", "coordinates": [9.9988933, 54.0698106]}}, {"type": "Feature", "properties": {"Name": "Center-Plan", "description": "<b>Kategorie:</b> Information — Besucherinformation<br><b>Distanz:</b> 2518 m<br><b>Website:</b> <br><b>Wikipedia:</b> <br><b>Telefon:</b> ", "timestamp": null, "begin": null, "end": null, "altitudeMode": null, "tessellate": -1, "extrude": 0, "visibility": -1, "drawOrder": null, "icon": null, "category_group": "Information"}, "geometry": {"type": "Point", "coordinates": [9.9766227, 54.0438152]}}, {"type": "Feature", "properties": {"Name": "Kindergarten der Wicherngemeinde", "description": "<b>Kategorie:</b> Kinder & Jugend — Kindergarten<br><b>Distanz:</b> 2346 m<br><b>Website:</b> https://www.wicherngemeinde-nms.de/kindergarten.php<br><b>Wikipedia:</b> <br><b>Telefon:</b> +49 4321 62200", "timestamp": null, "begin": null, "end": null, "altitudeMode": null, "tessellate": -1, "extrude": 0, "visibility": -1, "drawOrder": null, "icon": null, "category_group": "Kinder & Jugend"}, "geometry": {"type": "Point", "coordinates": [9.9481711, 54.0585267]}}, {"type": "Feature", "properties": {"Name": "Spielplatz Ripenstraße", "description": "<b>Kategorie:</b> Kinder & Jugend — Spielplatz<br><b>Distanz:</b>  428 m<br><b>Website:</b> <br><b>Wikipedia:</b> <br><b>Telefon:</b> ", "timestamp": null, "begin": null, "end": null, "altitudeMode": null, "tessellate": -1, "extrude": 0, "visibility": -1, "drawOrder": null, "icon": null, "category_group": "Kinder & Jugend"}, "geometry": {"type": "Point", "coordinates": [9.9754176, 54.0648716]}}, {"type": "Feature", "properties": {"Name": "Theater in der Stadthalle", "description": "<b>Kategorie:</b> Kultur & Geschichte — Theater<br><b>Distanz:</b>  668 m<br><b>Website:</b> <br><b>Wikipedia:</b> <br><b>Telefon:</b> ", "timestamp": null, "begin": null, "end": null, "altitudeMode": null, "tessellate": -1, "extrude": 0, "visibility": -1, "drawOrder": null, "icon": null, "category_group": "Kultur & Geschichte"}, "geometry": {"type": "Point", "coordinates": [9.9820937, 54.0722619]}}, {"type": "Feature", "properties": {"Name": "Cinestar Neumünster", "description": "<b>Kategorie:</b> Kultur & Geschichte — Kino<br><b>Distanz:</b>  908 m<br><b>Website:</b> https://www.cinestar.de/kino-neumuenster<br><b>Wikipedia:</b> <br><b>Telefon:</b> ", "timestamp": null, "begin": null, "end": null, "altitudeMode": null, "tessellate": -1, "extrude": 0, "visibility": -1, "drawOrder": null, "icon": null, "category_group": "Kultur & Geschichte"}, "geometry": {"type": "Point", "coordinates": [9.9850409, 54.07416]}}, {"type": "Feature", "properties": {"Name": "NBN Studio Theater", "description": "<b>Kategorie:</b> Kultur & Geschichte — Theater<br><b>Distanz:</b> 1207 m<br><b>Website:</b> <br><b>Wikipedia:</b> <br><b>Telefon:</b> ", "timestamp": null, "begin": null, "end": null, "altitudeMode": null, "tessellate": -1, "extrude": 0, "visibility": -1, "drawOrder": null, "icon": null, "category_group": "Kultur & Geschichte"}, "geometry": {"type": "Point", "coordinates": [9.9884486, 54.0763136]}}, {"type": "Feature", "properties": {"Name": "Séparée", "description": "<b>Kategorie:</b> Kultur & Geschichte — Kino<br><b>Distanz:</b> 2189 m<br><b>Website:</b> <br><b>Wikipedia:</b> <br><b>Telefon:</b> ", "timestamp": null, "begin": null, "end": null, "altitudeMode": null, "tessellate": -1, "extrude": 0, "visibility": -1, "drawOrder": null, "icon": null, "category_group": "Kultur & Geschichte"}, "geometry": {"type": "Point", "coordinates": [9.9906556, 54.047347]}}]}