{
"type": "FeatureCollection",
"name": "merged",
"features": [
{ "type": "Feature", "properties": { "Name": "JH 518 — Jugendherberge Flensburg", "description": "<b>JH Nr:</b> 518<br><b>Name:</b> Jugendherberge Flensburg<br><b>Ort:</b> Flensburg", "tessellate": -1, "extrude": 0, "visibility": -1 }, "geometry": { "type": "Point", "coordinates": [ 9.4516593, 54.8034243 ] } },
{ "type": "Feature", "properties": { "Name": "VHS-Zentrum", "description": "<b>Kategorie:<\/b> Bildungsinfrastruktur — Hochschule<br><b>Distanz:<\/b> 2476 m<br><b>Website:<\/b> <br><b>Wikipedia:<\/b> <br><b>Telefon:<\/b> ", "tessellate": -1, "extrude": 0, "visibility": -1 }, "geometry": { "type": "Point", "coordinates": [ 9.4351567, 54.7833234 ] } },
{ "type": "Feature", "properties": { "Name": "Stadtbibliothek Flensburg", "description": "<b>Kategorie:<\/b> Bildungsinfrastruktur — Bibliothek<br><b>Distanz:<\/b> 2348 m<br><b>Website:<\/b> https:\/\/stadtbibliothek.flensburg.de<br><b>Wikipedia:<\/b> <br><b>Telefon:<\/b> +49 461 852569", "tessellate": -1, "extrude": 0, "visibility": -1 }, "geometry": { "type": "Point", "coordinates": [ 9.4384556, 54.7837487 ] } },
{ "type": "Feature", "properties": { "Name": "Treffpunkt Mürwik", "description": "<b>Kategorie:<\/b> Bildungsinfrastruktur — Gemeindezentrum<br><b>Distanz:<\/b>  271 m<br><b>Website:<\/b> http:\/\/www.treffpunkt-muerwik.de<br><b>Wikipedia:<\/b> <br><b>Telefon:<\/b> ", "tessellate": -1, "extrude": 0, "visibility": -1 }, "geometry": { "type": "Point", "coordinates": [ 9.4531617, 54.8056969 ] } },
{ "type": "Feature", "properties": { "Name": "Kulturlücke", "description": "<b>Kategorie:<\/b> Bildungsinfrastruktur — Kunstzentrum<br><b>Distanz:<\/b> 1645 m<br><b>Website:<\/b> https:\/\/www.kulturluecke-fl.de\/<br><b>Wikipedia:<\/b> <br><b>Telefon:<\/b> ", "tessellate": -1, "extrude": 0, "visibility": -1 }, "geometry": { "type": "Point", "coordinates": [ 9.4306546, 54.7949838 ] } },
{ "type": "Feature", "properties": { "Name": "Aktivitetshuset", "description": "<b>Kategorie:<\/b> Bildungsinfrastruktur — Kunstzentrum<br><b>Distanz:<\/b> 1859 m<br><b>Website:<\/b> https:\/\/www.aktivitetshuset.de\/<br><b>Wikipedia:<\/b> <br><b>Telefon:<\/b> +49 461 150140", "tessellate": -1, "extrude": 0, "visibility": -1 }, "geometry": { "type": "Point", "coordinates": [ 9.4312492, 54.7915928 ] } },
{ "type": "Feature", "properties": { "Name": "Jugendzentrum Alsterbogen", "description": "<b>Kategorie:<\/b> Bildungsinfrastruktur — Gemeindezentrum<br><b>Distanz:<\/b>  880 m<br><b>Website:<\/b> http:\/\/www.jugendzentrum-alsterbogen.de<br><b>Wikipedia:<\/b> <br><b>Telefon:<\/b> +49 461 35274", "tessellate": -1, "extrude": 0, "visibility": -1 }, "geometry": { "type": "Point", "coordinates": [ 9.4609312, 54.7976019 ] } },
{ "type": "Feature", "properties": { "Name": "Offener Bücherschrank", "description": "<b>Kategorie:<\/b> Bildungsinfrastruktur — Bibliothek<br><b>Distanz:<\/b> 2002 m<br><b>Website:<\/b> <br><b>Wikipedia:<\/b> <br><b>Telefon:<\/b> ", "tessellate": -1, "extrude": 0, "visibility": -1 }, "geometry": { "type": "Point", "coordinates": [ 9.4751186, 54.815266 ] } },
{ "type": "Feature", "properties": { "Name": "Infoladen Subtilus", "description": "<b>Kategorie:<\/b> Bildungsinfrastruktur — Gemeindezentrum<br><b>Distanz:<\/b> 1880 m<br><b>Website:<\/b> <br><b>Wikipedia:<\/b> <br><b>Telefon:<\/b> ", "tessellate": -1, "extrude": 0, "visibility": -1 }, "geometry": { "type": "Point", "coordinates": [ 9.4312675, 54.7913194 ] } },
{ "type": "Feature", "properties": { "Name": "Hochschule Flensburg", "description": "<b>Kategorie:<\/b> Bildungsinfrastruktur — Hochschule<br><b>Distanz:<\/b> 1540 m<br><b>Website:<\/b> <br><b>Wikipedia:<\/b> <br><b>Telefon:<\/b> ", "tessellate": -1, "extrude": 0, "visibility": -1 }, "geometry": { "type": "Point", "coordinates": [ 9.4392994, 54.791574 ] } },
{ "type": "Feature", "properties": { "Name": "Jugendzentrum Breedland", "description": "<b>Kategorie:<\/b> Bildungsinfrastruktur — Gemeindezentrum<br><b>Distanz:<\/b> 2111 m<br><b>Website:<\/b> https:\/\/www.breedland.de\/<br><b>Wikipedia:<\/b> <br><b>Telefon:<\/b> +49 461 73247421", "tessellate": -1, "extrude": 0, "visibility": -1 }, "geometry": { "type": "Point", "coordinates": [ 9.4843425, 54.8052672 ] } },
{ "type": "Feature", "properties": { "Name": "Norder147", "description": "<b>Kategorie:<\/b> Bildungsinfrastruktur — Kunstzentrum<br><b>Distanz:<\/b> 1642 m<br><b>Website:<\/b> https:\/\/www.norder147.com\/<br><b>Wikipedia:<\/b> <br><b>Telefon:<\/b> ", "tessellate": -1, "extrude": 0, "visibility": -1 }, "geometry": { "type": "Point", "coordinates": [ 9.4308915, 54.7948303 ] } },
{ "type": "Feature", "properties": { "Name": "Jugendzentrum AAK", "description": "<b>Kategorie:<\/b> Bildungsinfrastruktur — Gemeindezentrum<br><b>Distanz:<\/b> 1640 m<br><b>Website:<\/b> <br><b>Wikipedia:<\/b> <br><b>Telefon:<\/b> ", "tessellate": -1, "extrude": 0, "visibility": -1 }, "geometry": { "type": "Point", "coordinates": [ 9.4292294, 54.7964112 ] } },
{ "type": "Feature", "properties": { "Name": "Ex-Sultanmarkt", "description": "<b>Kategorie:<\/b> Bildungsinfrastruktur — Gemeindezentrum<br><b>Distanz:<\/b> 1689 m<br><b>Website:<\/b> https:\/\/www.ex-sultanmarkt.de\/<br><b>Wikipedia:<\/b> <br><b>Telefon:<\/b> ", "tessellate": -1, "extrude": 0, "visibility": -1 }, "geometry": { "type": "Point", "coordinates": [ 9.427588, 54.79734 ] } },
{ "type": "Feature", "properties": { "Name": "Modul 1", "description": "<b>Kategorie:<\/b> Bildungsinfrastruktur — Kunstzentrum<br><b>Distanz:<\/b> 2643 m<br><b>Website:<\/b> <br><b>Wikipedia:<\/b> <br><b>Telefon:<\/b> ", "tessellate": -1, "extrude": 0, "visibility": -1 }, "geometry": { "type": "Point", "coordinates": [ 9.435953, 54.7814725 ] } },
{ "type": "Feature", "properties": { "Name": "Dansk Centralbibliotek for Sydslesvig", "description": "<b>Kategorie:<\/b> Bildungsinfrastruktur — Bibliothek<br><b>Distanz:<\/b> 1860 m<br><b>Website:<\/b> <br><b>Wikipedia:<\/b> <br><b>Telefon:<\/b> ", "tessellate": -1, "extrude": 0, "visibility": -1 }, "geometry": { "type": "Point", "coordinates": [ 9.4308599, 54.7918028 ] } },
{ "type": "Feature", "properties": { "Name": "ADS-Speicher", "description": "<b>Kategorie:<\/b> Bildungsinfrastruktur — Gemeindezentrum<br><b>Distanz:<\/b> 1827 m<br><b>Website:<\/b> <br><b>Wikipedia:<\/b> <br><b>Telefon:<\/b> ", "tessellate": -1, "extrude": 0, "visibility": -1 }, "geometry": { "type": "Point", "coordinates": [ 9.432713, 54.7911914 ] } },
{ "type": "Feature", "properties": { "Name": "Hannah-Arendt-Schule", "description": "<b>Kategorie:<\/b> Bildungsinfrastruktur — Schule<br><b>Distanz:<\/b> 1968 m<br><b>Website:<\/b> <br><b>Wikipedia:<\/b> <br><b>Telefon:<\/b> ", "tessellate": -1, "extrude": 0, "visibility": -1 }, "geometry": { "type": "Point", "coordinates": [ 9.4232574, 54.8100314 ] } },
{ "type": "Feature", "properties": { "Name": "SBV - Komm rein", "description": "<b>Kategorie:<\/b> Bildungsinfrastruktur — Gemeindezentrum<br><b>Distanz:<\/b> 1917 m<br><b>Website:<\/b> <br><b>Wikipedia:<\/b> <br><b>Telefon:<\/b> ", "tessellate": -1, "extrude": 0, "visibility": -1 }, "geometry": { "type": "Point", "coordinates": [ 9.4228926, 54.8079813 ] } },
{ "type": "Feature", "properties": { "Name": "Sanitätsschule Nord", "description": "<b>Kategorie:<\/b> Bildungsinfrastruktur — Schule<br><b>Distanz:<\/b> 2034 m<br><b>Website:<\/b> <br><b>Wikipedia:<\/b> <br><b>Telefon:<\/b> ", "tessellate": -1, "extrude": 0, "visibility": -1 }, "geometry": { "type": "Point", "coordinates": [ 9.4313563, 54.7894077 ] } },
{ "type": "Feature", "properties": { "Name": "Neo Familie", "description": "<b>Kategorie:<\/b> Bildungsinfrastruktur — Gemeindezentrum<br><b>Distanz:<\/b> 1754 m<br><b>Website:<\/b> <br><b>Wikipedia:<\/b> <br><b>Telefon:<\/b> ", "tessellate": -1, "extrude": 0, "visibility": -1 }, "geometry": { "type": "Point", "coordinates": [ 9.4314587, 54.7928337 ] } },
{ "type": "Feature", "properties": { "Name": "Wassersportclub Flensburg e.V.", "description": "<b>Kategorie:<\/b> Bildungsinfrastruktur — Gemeindezentrum<br><b>Distanz:<\/b>  789 m<br><b>Website:<\/b> <br><b>Wikipedia:<\/b> <br><b>Telefon:<\/b> ", "tessellate": -1, "extrude": 0, "visibility": -1 }, "geometry": { "type": "Point", "coordinates": [ 9.439486, 54.8025486 ] } },
{ "type": "Feature", "properties": { "Name": "Segel-Sport Flensburg-Harislee eV.", "description": "<b>Kategorie:<\/b> Bildungsinfrastruktur — Gemeindezentrum<br><b>Distanz:<\/b>  808 m<br><b>Website:<\/b> <br><b>Wikipedia:<\/b> <br><b>Telefon:<\/b> ", "tessellate": -1, "extrude": 0, "visibility": -1 }, "geometry": { "type": "Point", "coordinates": [ 9.4394506, 54.8016971 ] } },
{ "type": "Feature", "properties": { "Name": "blau:pause", "description": "<b>Kategorie:<\/b> Bildungsinfrastruktur — Gemeindezentrum<br><b>Distanz:<\/b> 2615 m<br><b>Website:<\/b> blaupause-flensburg.de<br><b>Wikipedia:<\/b> <br><b>Telefon:<\/b> ", "tessellate": -1, "extrude": 0, "visibility": -1 }, "geometry": { "type": "Point", "coordinates": [ 9.4348072, 54.7820348 ] } },
{ "type": "Feature", "properties": { "Name": "Marina Sonwik", "description": "<b>Kategorie:<\/b> Freizeit & Sport — Yachthafen<br><b>Distanz:<\/b>  875 m<br><b>Website:<\/b> https:\/\/www.sonwik.de\/<br><b>Wikipedia:<\/b> <br><b>Telefon:<\/b> +49 4372 1282", "tessellate": -1, "extrude": 0, "visibility": -1 }, "geometry": { "type": "Point", "coordinates": [ 9.4537758, 54.8111951 ] } },
{ "type": "Feature", "properties": { "Name": "Marina Wassersleben - Segel-Sport Flensburg-Harrislee", "description": "<b>Kategorie:<\/b> Freizeit & Sport — Yachthafen<br><b>Distanz:<\/b> 2836 m<br><b>Website:<\/b> https:\/\/www.ssf-h.de\/<br><b>Wikipedia:<\/b> <br><b>Telefon:<\/b> +49 461 72987", "tessellate": -1, "extrude": 0, "visibility": -1 }, "geometry": { "type": "Point", "coordinates": [ 9.4241777, 54.8233691 ] } },
{ "type": "Feature", "properties": { "Name": "Ruderklub Flensburg", "description": "<b>Kategorie:<\/b> Freizeit & Sport — Sportzentrum<br><b>Distanz:<\/b> 1521 m<br><b>Website:<\/b> https:\/\/www.ruderklub-flensburg.de\/<br><b>Wikipedia:<\/b> <br><b>Telefon:<\/b> +49 461 45252", "tessellate": -1, "extrude": 0, "visibility": -1 }, "geometry": { "type": "Point", "coordinates": [ 9.4318883, 54.8109284 ] } },
{ "type": "Feature", "properties": { "Name": "FYC - Flensborg Yacht Club", "description": "<b>Kategorie:<\/b> Freizeit & Sport — Yachthafen<br><b>Distanz:<\/b> 2501 m<br><b>Website:<\/b> https:\/\/flensborg-yacht-club.de\/<br><b>Wikipedia:<\/b> <br><b>Telefon:<\/b> +49 461 35117", "tessellate": -1, "extrude": 0, "visibility": -1 }, "geometry": { "type": "Point", "coordinates": [ 9.472433, 54.8224244 ] } },
{ "type": "Feature", "properties": { "Name": "Flensburg Industriehafen", "description": "<b>Kategorie:<\/b> Freizeit & Sport — Yachthafen<br><b>Distanz:<\/b>  652 m<br><b>Website:<\/b> <br><b>Wikipedia:<\/b> <br><b>Telefon:<\/b> ", "tessellate": -1, "extrude": 0, "visibility": -1 }, "geometry": { "type": "Point", "coordinates": [ 9.4415651, 54.8028699 ] } },
{ "type": "Feature", "properties": { "Name": "SVF - Segler-Vereinigung Flensburg", "description": "<b>Kategorie:<\/b> Freizeit & Sport — Yachthafen<br><b>Distanz:<\/b> 2432 m<br><b>Website:<\/b> https:\/\/www.seglervereinigung.de\/<br><b>Wikipedia:<\/b> <br><b>Telefon:<\/b> +49 461 33466", "tessellate": -1, "extrude": 0, "visibility": -1 }, "geometry": { "type": "Point", "coordinates": [ 9.4695719, 54.8226748 ] } },
{ "type": "Feature", "properties": { "Name": "Karate Centrum Flensburg", "description": "<b>Kategorie:<\/b> Freizeit & Sport — Sportzentrum<br><b>Distanz:<\/b>  690 m<br><b>Website:<\/b> https:\/\/kcm-flensburg.de\/<br><b>Wikipedia:<\/b> <br><b>Telefon:<\/b> ", "tessellate": -1, "extrude": 0, "visibility": -1 }, "geometry": { "type": "Point", "coordinates": [ 9.4602028, 54.8071845 ] } },
{ "type": "Feature", "properties": { "Name": "TanzGlück", "description": "<b>Kategorie:<\/b> Freizeit & Sport — Sportzentrum<br><b>Distanz:<\/b> 1702 m<br><b>Website:<\/b> <br><b>Wikipedia:<\/b> <br><b>Telefon:<\/b> ", "tessellate": -1, "extrude": 0, "visibility": -1 }, "geometry": { "type": "Point", "coordinates": [ 9.4726208, 54.8127735 ] } },
{ "type": "Feature", "properties": { "Name": "Stadtrundum", "description": "<b>Kategorie:<\/b> Information — Besucherinformation<br><b>Distanz:<\/b> 1148 m<br><b>Website:<\/b> <br><b>Wikipedia:<\/b> <br><b>Telefon:<\/b> ", "tessellate": -1, "extrude": 0, "visibility": -1 }, "geometry": { "type": "Point", "coordinates": [ 9.4508697, 54.7931168 ] } },
{ "type": "Feature", "properties": { "Name": "Schaubude", "description": "<b>Kategorie:<\/b> Information — Besucherinformation<br><b>Distanz:<\/b> 1911 m<br><b>Website:<\/b> <br><b>Wikipedia:<\/b> <br><b>Telefon:<\/b> ", "tessellate": -1, "extrude": 0, "visibility": -1 }, "geometry": { "type": "Point", "coordinates": [ 9.4349804, 54.789209 ] } },
{ "type": "Feature", "properties": { "Name": "Fiskerihavnen", "description": "<b>Kategorie:<\/b> Information — Besucherinformation<br><b>Distanz:<\/b> 1702 m<br><b>Website:<\/b> <br><b>Wikipedia:<\/b> <br><b>Telefon:<\/b> ", "tessellate": -1, "extrude": 0, "visibility": -1 }, "geometry": { "type": "Point", "coordinates": [ 9.4377978, 54.7903894 ] } },
{ "type": "Feature", "properties": { "Name": "Havnespidsen", "description": "<b>Kategorie:<\/b> Information — Besucherinformation<br><b>Distanz:<\/b> 1947 m<br><b>Website:<\/b> <br><b>Wikipedia:<\/b> <br><b>Telefon:<\/b> ", "tessellate": -1, "extrude": 0, "visibility": -1 }, "geometry": { "type": "Point", "coordinates": [ 9.4364908, 54.7882794 ] } },
{ "type": "Feature", "properties": { "Name": "Fischer schonen", "description": "<b>Kategorie:<\/b> Information — Besucherinformation<br><b>Distanz:<\/b> 1672 m<br><b>Website:<\/b> <br><b>Wikipedia:<\/b> <br><b>Telefon:<\/b> ", "tessellate": -1, "extrude": 0, "visibility": -1 }, "geometry": { "type": "Point", "coordinates": [ 9.4379548, 54.7906505 ] } },
{ "type": "Feature", "properties": { "Name": "Küstenfischerei", "description": "<b>Kategorie:<\/b> Information — Besucherinformation<br><b>Distanz:<\/b> 1671 m<br><b>Website:<\/b> <br><b>Wikipedia:<\/b> <br><b>Telefon:<\/b> ", "tessellate": -1, "extrude": 0, "visibility": -1 }, "geometry": { "type": "Point", "coordinates": [ 9.4379003, 54.7906887 ] } },
{ "type": "Feature", "properties": { "Name": "Ballastbrücke", "description": "<b>Kategorie:<\/b> Information — Besucherinformation<br><b>Distanz:<\/b> 1373 m<br><b>Website:<\/b> <br><b>Wikipedia:<\/b> <br><b>Telefon:<\/b> ", "tessellate": -1, "extrude": 0, "visibility": -1 }, "geometry": { "type": "Point", "coordinates": [ 9.4375613, 54.7941614 ] } },
{ "type": "Feature", "properties": { "Name": "Naturwald", "description": "<b>Kategorie:<\/b> Information — Besucherinformation<br><b>Distanz:<\/b>  149 m<br><b>Website:<\/b> <br><b>Wikipedia:<\/b> <br><b>Telefon:<\/b> ", "tessellate": -1, "extrude": 0, "visibility": -1 }, "geometry": { "type": "Point", "coordinates": [ 9.4501241, 54.8044334 ] } },
{ "type": "Feature", "properties": { "Name": "Touristinformation", "description": "<b>Kategorie:<\/b> Information — Besucherinformation<br><b>Distanz:<\/b> 2307 m<br><b>Website:<\/b> https:\/\/www.flensburger-foerde.de\/<br><b>Wikipedia:<\/b> <br><b>Telefon:<\/b> +49 461 9090920", "tessellate": -1, "extrude": 0, "visibility": -1 }, "geometry": { "type": "Point", "coordinates": [ 9.4363485, 54.784675 ] } },
{ "type": "Feature", "properties": { "Name": "Das obere Osbektal", "description": "<b>Kategorie:<\/b> Information — Besucherinformation<br><b>Distanz:<\/b> 1149 m<br><b>Website:<\/b> <br><b>Wikipedia:<\/b> <br><b>Telefon:<\/b> ", "tessellate": -1, "extrude": 0, "visibility": -1 }, "geometry": { "type": "Point", "coordinates": [ 9.4689919, 54.800917 ] } },
{ "type": "Feature", "properties": { "Name": "NABU Whalewatching für Einsteiger", "description": "<b>Kategorie:<\/b> Information — Besucherinformation<br><b>Distanz:<\/b> 1777 m<br><b>Website:<\/b> <br><b>Wikipedia:<\/b> <br><b>Telefon:<\/b> ", "tessellate": -1, "extrude": 0, "visibility": -1 }, "geometry": { "type": "Point", "coordinates": [ 9.4293292, 54.8128342 ] } },
{ "type": "Feature", "properties": { "Name": "Schifffahrtsmuseum", "description": "<b>Kategorie:<\/b> Information — Besucherinformation<br><b>Distanz:<\/b> 1647 m<br><b>Website:<\/b> <br><b>Wikipedia:<\/b> <br><b>Telefon:<\/b> ", "tessellate": -1, "extrude": 0, "visibility": -1 }, "geometry": { "type": "Point", "coordinates": [ 9.4332969, 54.7931077 ] } },
{ "type": "Feature", "properties": { "Name": "Landschaftspark Twedter Mark", "description": "<b>Kategorie:<\/b> Information — Besucherinformation<br><b>Distanz:<\/b> 2019 m<br><b>Website:<\/b> <br><b>Wikipedia:<\/b> <br><b>Telefon:<\/b> ", "tessellate": -1, "extrude": 0, "visibility": -1 }, "geometry": { "type": "Point", "coordinates": [ 9.4663706, 54.8194515 ] } },
{ "type": "Feature", "properties": { "Name": "Flensburg Blick Punkt", "description": "<b>Kategorie:<\/b> Information — Besucherinformation<br><b>Distanz:<\/b> 1848 m<br><b>Website:<\/b> <br><b>Wikipedia:<\/b> <br><b>Telefon:<\/b> ", "tessellate": -1, "extrude": 0, "visibility": -1 }, "geometry": { "type": "Point", "coordinates": [ 9.4413927, 54.7879127 ] } },
{ "type": "Feature", "properties": { "Name": "Flensburg Blick Punkt", "description": "<b>Kategorie:<\/b> Information — Besucherinformation<br><b>Distanz:<\/b> 1829 m<br><b>Website:<\/b> <br><b>Wikipedia:<\/b> <br><b>Telefon:<\/b> ", "tessellate": -1, "extrude": 0, "visibility": -1 }, "geometry": { "type": "Point", "coordinates": [ 9.441222, 54.7881335 ] } },
{ "type": "Feature", "properties": { "Name": "Twedter Feld", "description": "<b>Kategorie:<\/b> Information — Besucherinformation<br><b>Distanz:<\/b> 2058 m<br><b>Website:<\/b> <br><b>Wikipedia:<\/b> <br><b>Telefon:<\/b> ", "tessellate": -1, "extrude": 0, "visibility": -1 }, "geometry": { "type": "Point", "coordinates": [ 9.4826281, 54.8081143 ] } },
{ "type": "Feature", "properties": { "Name": "Klimabäume in Flensburg", "description": "<b>Kategorie:<\/b> Information — Besucherinformation<br><b>Distanz:<\/b>  196 m<br><b>Website:<\/b> <br><b>Wikipedia:<\/b> <br><b>Telefon:<\/b> ", "tessellate": -1, "extrude": 0, "visibility": -1 }, "geometry": { "type": "Point", "coordinates": [ 9.4537343, 54.8021395 ] } },
{ "type": "Feature", "properties": { "Name": "Vögel im Stadtparkteich", "description": "<b>Kategorie:<\/b> Information — Besucherinformation<br><b>Distanz:<\/b> 2248 m<br><b>Website:<\/b> <br><b>Wikipedia:<\/b> <br><b>Telefon:<\/b> ", "tessellate": -1, "extrude": 0, "visibility": -1 }, "geometry": { "type": "Point", "coordinates": [ 9.4273412, 54.7889136 ] } },
{ "type": "Feature", "properties": { "Name": "Das Flensburger Windsystem", "description": "<b>Kategorie:<\/b> Information — Besucherinformation<br><b>Distanz:<\/b> 2043 m<br><b>Website:<\/b> <br><b>Wikipedia:<\/b> <br><b>Telefon:<\/b> ", "tessellate": -1, "extrude": 0, "visibility": -1 }, "geometry": { "type": "Point", "coordinates": [ 9.4282939, 54.7909788 ] } },
{ "type": "Feature", "properties": { "Name": "Flensburg on the Rocks - Eiszeiten hinterlassen ihre Spuren", "description": "<b>Kategorie:<\/b> Information — Besucherinformation<br><b>Distanz:<\/b> 1827 m<br><b>Website:<\/b> <br><b>Wikipedia:<\/b> <br><b>Telefon:<\/b> ", "tessellate": -1, "extrude": 0, "visibility": -1 }, "geometry": { "type": "Point", "coordinates": [ 9.429658, 54.7930303 ] } },
{ "type": "Feature", "properties": { "Name": "Flensburg on the Rocks", "description": "<b>Kategorie:<\/b> Information — Besucherinformation<br><b>Distanz:<\/b> 1825 m<br><b>Website:<\/b> <br><b>Wikipedia:<\/b> <br><b>Telefon:<\/b> ", "tessellate": -1, "extrude": 0, "visibility": -1 }, "geometry": { "type": "Point", "coordinates": [ 9.4296496, 54.7930644 ] } },
{ "type": "Feature", "properties": { "Name": "Quallen", "description": "<b>Kategorie:<\/b> Information — Besucherinformation<br><b>Distanz:<\/b> 1868 m<br><b>Website:<\/b> <br><b>Wikipedia:<\/b> <br><b>Telefon:<\/b> ", "tessellate": -1, "extrude": 0, "visibility": -1 }, "geometry": { "type": "Point", "coordinates": [ 9.4341157, 54.7900429 ] } },
{ "type": "Feature", "properties": { "Name": "Blickpunkte auf die Stadt Flensburg", "description": "<b>Kategorie:<\/b> Information — Besucherinformation<br><b>Distanz:<\/b> 1941 m<br><b>Website:<\/b> <br><b>Wikipedia:<\/b> <br><b>Telefon:<\/b> ", "tessellate": -1, "extrude": 0, "visibility": -1 }, "geometry": { "type": "Point", "coordinates": [ 9.4295142, 54.7915717 ] } },
{ "type": "Feature", "properties": { "Name": "Fly & Sail - Wasserflug und Wassersport", "description": "<b>Kategorie:<\/b> Information — Besucherinformation<br><b>Distanz:<\/b>  542 m<br><b>Website:<\/b> <br><b>Wikipedia:<\/b> <br><b>Telefon:<\/b> ", "tessellate": -1, "extrude": 0, "visibility": -1 }, "geometry": { "type": "Point", "coordinates": [ 9.4536582, 54.808157 ] } },
{ "type": "Feature", "properties": { "Name": "Ev. Luth. Kirchengemeinde St. Jürgen", "description": "<b>Kategorie:<\/b> Information — Besucherinformation<br><b>Distanz:<\/b> 1489 m<br><b>Website:<\/b> <br><b>Wikipedia:<\/b> <br><b>Telefon:<\/b> ", "tessellate": -1, "extrude": 0, "visibility": -1 }, "geometry": { "type": "Point", "coordinates": [ 9.4422118, 54.7912025 ] } },
{ "type": "Feature", "properties": { "Name": "Europäische Route der Backsteingothik - Ev.-luth. Nikolaikirche", "description": "<b>Kategorie:<\/b> Information — Besucherinformation<br><b>Distanz:<\/b> 2507 m<br><b>Website:<\/b> <br><b>Wikipedia:<\/b> <br><b>Telefon:<\/b> ", "tessellate": -1, "extrude": 0, "visibility": -1 }, "geometry": { "type": "Point", "coordinates": [ 9.4353473, 54.7829621 ] } },
{ "type": "Feature", "properties": { "Name": "Informationstafel der Kirche St. Nikolai", "description": "<b>Kategorie:<\/b> Information — Besucherinformation<br><b>Distanz:<\/b> 2500 m<br><b>Website:<\/b> <br><b>Wikipedia:<\/b> <br><b>Telefon:<\/b> ", "tessellate": -1, "extrude": 0, "visibility": -1 }, "geometry": { "type": "Point", "coordinates": [ 9.4355124, 54.7829865 ] } },
{ "type": "Feature", "properties": { "Name": "Unsere Erzählgärten", "description": "<b>Kategorie:<\/b> Information — Besucherinformation<br><b>Distanz:<\/b> 1905 m<br><b>Website:<\/b> <br><b>Wikipedia:<\/b> <br><b>Telefon:<\/b> ", "tessellate": -1, "extrude": 0, "visibility": -1 }, "geometry": { "type": "Point", "coordinates": [ 9.4358486, 54.7889425 ] } },
{ "type": "Feature", "properties": { "Name": "richtung Hundestrand", "description": "<b>Kategorie:<\/b> Information — Besucherinformation<br><b>Distanz:<\/b> 3191 m<br><b>Website:<\/b> <br><b>Wikipedia:<\/b> <br><b>Telefon:<\/b> ", "tessellate": -1, "extrude": 0, "visibility": -1 }, "geometry": { "type": "Point", "coordinates": [ 9.4896984, 54.8218615 ] } },
{ "type": "Feature", "properties": { "Name": "Die Ostsee", "description": "<b>Kategorie:<\/b> Information — Besucherinformation<br><b>Distanz:<\/b> 3160 m<br><b>Website:<\/b> <br><b>Wikipedia:<\/b> <br><b>Telefon:<\/b> ", "tessellate": -1, "extrude": 0, "visibility": -1 }, "geometry": { "type": "Point", "coordinates": [ 9.4891809, 54.8217714 ] } },
{ "type": "Feature", "properties": { "Name": "Hunde Verbotsbereiche", "description": "<b>Kategorie:<\/b> Information — Besucherinformation<br><b>Distanz:<\/b> 3181 m<br><b>Website:<\/b> <br><b>Wikipedia:<\/b> <br><b>Telefon:<\/b> ", "tessellate": -1, "extrude": 0, "visibility": -1 }, "geometry": { "type": "Point", "coordinates": [ 9.4894152, 54.821906 ] } },
{ "type": "Feature", "properties": { "Name": "ZOB Lageplan", "description": "<b>Kategorie:<\/b> Information — Besucherinformation<br><b>Distanz:<\/b> 2203 m<br><b>Website:<\/b> <br><b>Wikipedia:<\/b> <br><b>Telefon:<\/b> ", "tessellate": -1, "extrude": 0, "visibility": -1 }, "geometry": { "type": "Point", "coordinates": [ 9.4379676, 54.7852745 ] } },
{ "type": "Feature", "properties": { "Name": "Das Gängeviertel", "description": "<b>Kategorie:<\/b> Information — Besucherinformation<br><b>Distanz:<\/b> 1694 m<br><b>Website:<\/b> <br><b>Wikipedia:<\/b> <br><b>Telefon:<\/b> ", "tessellate": -1, "extrude": 0, "visibility": -1 }, "geometry": { "type": "Point", "coordinates": [ 9.4399975, 54.7897683 ] } },
{ "type": "Feature", "properties": { "Name": "Museumshafen", "description": "<b>Kategorie:<\/b> Information — Besucherinformation<br><b>Distanz:<\/b> 1538 m<br><b>Website:<\/b> <br><b>Wikipedia:<\/b> <br><b>Telefon:<\/b> ", "tessellate": -1, "extrude": 0, "visibility": -1 }, "geometry": { "type": "Point", "coordinates": [ 9.4335515, 54.794387 ] } },
{ "type": "Feature", "properties": { "Name": "St. Jürgen", "description": "<b>Kategorie:<\/b> Information — Besucherinformation<br><b>Distanz:<\/b> 1704 m<br><b>Website:<\/b> <br><b>Wikipedia:<\/b> <br><b>Telefon:<\/b> ", "tessellate": -1, "extrude": 0, "visibility": -1 }, "geometry": { "type": "Point", "coordinates": [ 9.4400589, 54.789652 ] } },
{ "type": "Feature", "properties": { "Name": "Die Geschichte des Margarethenhofes", "description": "<b>Kategorie:<\/b> Information — Besucherinformation<br><b>Distanz:<\/b> 1963 m<br><b>Website:<\/b> <br><b>Wikipedia:<\/b> <br><b>Telefon:<\/b> ", "tessellate": -1, "extrude": 0, "visibility": -1 }, "geometry": { "type": "Point", "coordinates": [ 9.4408413, 54.7869279 ] } },
{ "type": "Feature", "properties": { "Name": "Wasserkraft auf dem Margarethenhof", "description": "<b>Kategorie:<\/b> Information — Besucherinformation<br><b>Distanz:<\/b> 1964 m<br><b>Website:<\/b> <br><b>Wikipedia:<\/b> <br><b>Telefon:<\/b> ", "tessellate": -1, "extrude": 0, "visibility": -1 }, "geometry": { "type": "Point", "coordinates": [ 9.4408448, 54.7869205 ] } },
{ "type": "Feature", "properties": { "Name": "Forum Fruerlund", "description": "<b>Kategorie:<\/b> Information — Besucherinformation<br><b>Distanz:<\/b>  303 m<br><b>Website:<\/b> <br><b>Wikipedia:<\/b> <br><b>Telefon:<\/b> ", "tessellate": -1, "extrude": 0, "visibility": -1 }, "geometry": { "type": "Point", "coordinates": [ 9.4544036, 54.8012127 ] } },
{ "type": "Feature", "properties": { "Name": "Kirchengemeinde Fruerlund", "description": "<b>Kategorie:<\/b> Information — Besucherinformation<br><b>Distanz:<\/b>  860 m<br><b>Website:<\/b> <br><b>Wikipedia:<\/b> <br><b>Telefon:<\/b> ", "tessellate": -1, "extrude": 0, "visibility": -1 }, "geometry": { "type": "Point", "coordinates": [ 9.4516254, 54.7956993 ] } },
{ "type": "Feature", "properties": { "Name": "Flensburg bleibt in Bewegung", "description": "<b>Kategorie:<\/b> Information — Besucherinformation<br><b>Distanz:<\/b>  320 m<br><b>Website:<\/b> <br><b>Wikipedia:<\/b> <br><b>Telefon:<\/b> ", "tessellate": -1, "extrude": 0, "visibility": -1 }, "geometry": { "type": "Point", "coordinates": [ 9.4483602, 54.8012736 ] } },
{ "type": "Feature", "properties": { "Name": "AOK Outdoor Fitness", "description": "<b>Kategorie:<\/b> Information — Besucherinformation<br><b>Distanz:<\/b>  325 m<br><b>Website:<\/b> <br><b>Wikipedia:<\/b> <br><b>Telefon:<\/b> ", "tessellate": -1, "extrude": 0, "visibility": -1 }, "geometry": { "type": "Point", "coordinates": [ 9.4482647, 54.8012595 ] } },
{ "type": "Feature", "properties": { "Name": "Volkspark Flensburg", "description": "<b>Kategorie:<\/b> Information — Besucherinformation<br><b>Distanz:<\/b>  397 m<br><b>Website:<\/b> <br><b>Wikipedia:<\/b> <br><b>Telefon:<\/b> ", "tessellate": -1, "extrude": 0, "visibility": -1 }, "geometry": { "type": "Point", "coordinates": [ 9.4455987, 54.802752 ] } },
{ "type": "Feature", "properties": { "Name": "Der Rummelgang – Grüne Oase mit Fördeblick", "description": "<b>Kategorie:<\/b> Information — Besucherinformation<br><b>Distanz:<\/b> 1808 m<br><b>Website:<\/b> <br><b>Wikipedia:<\/b> <br><b>Telefon:<\/b> ", "tessellate": -1, "extrude": 0, "visibility": -1 }, "geometry": { "type": "Point", "coordinates": [ 9.4301109, 54.792981 ] } },
{ "type": "Feature", "properties": { "Name": "Das Lautrupsbachtal", "description": "<b>Kategorie:<\/b> Information — Besucherinformation<br><b>Distanz:<\/b> 1223 m<br><b>Website:<\/b> <br><b>Wikipedia:<\/b> <br><b>Telefon:<\/b> ", "tessellate": -1, "extrude": 0, "visibility": -1 }, "geometry": { "type": "Point", "coordinates": [ 9.4456003, 54.7930053 ] } },
{ "type": "Feature", "properties": { "Name": "St. Marien Kirche", "description": "<b>Kategorie:<\/b> Information — Besucherinformation<br><b>Distanz:<\/b> 1985 m<br><b>Website:<\/b> <br><b>Wikipedia:<\/b> <br><b>Telefon:<\/b> ", "tessellate": -1, "extrude": 0, "visibility": -1 }, "geometry": { "type": "Point", "coordinates": [ 9.4322664, 54.7895489 ] } },
{ "type": "Feature", "properties": { "Name": "Liebe Hundebesitzerin, lieber Hundebesitzer", "description": "<b>Kategorie:<\/b> Information — Besucherinformation<br><b>Distanz:<\/b> 3082 m<br><b>Website:<\/b> <br><b>Wikipedia:<\/b> <br><b>Telefon:<\/b> ", "tessellate": -1, "extrude": 0, "visibility": -1 }, "geometry": { "type": "Point", "coordinates": [ 9.48697, 54.82217 ] } },
{ "type": "Feature", "properties": { "Name": "Mehrsprachige Baderegeln", "description": "<b>Kategorie:<\/b> Information — Besucherinformation<br><b>Distanz:<\/b> 3131 m<br><b>Website:<\/b> <br><b>Wikipedia:<\/b> <br><b>Telefon:<\/b> ", "tessellate": -1, "extrude": 0, "visibility": -1 }, "geometry": { "type": "Point", "coordinates": [ 9.4876404, 54.8223916 ] } },
{ "type": "Feature", "properties": { "Name": "Kita Bullerbü", "description": "<b>Kategorie:<\/b> Kinder & Jugend — Kindergarten<br><b>Distanz:<\/b>  871 m<br><b>Website:<\/b> https:\/\/www.adelby1.de\/bullerbue<br><b>Wikipedia:<\/b> <br><b>Telefon:<\/b> +49 461 406839-60", "tessellate": -1, "extrude": 0, "visibility": -1 }, "geometry": { "type": "Point", "coordinates": [ 9.463506, 54.7996249 ] } },
{ "type": "Feature", "properties": { "Name": "Duborg Børnehave", "description": "<b>Kategorie:<\/b> Kinder & Jugend — Kindergarten<br><b>Distanz:<\/b> 1994 m<br><b>Website:<\/b> <br><b>Wikipedia:<\/b> <br><b>Telefon:<\/b> +49 461 29823", "tessellate": -1, "extrude": 0, "visibility": -1 }, "geometry": { "type": "Point", "coordinates": [ 9.4260811, 54.7932821 ] } },
{ "type": "Feature", "properties": { "Name": "Villa Käthe", "description": "<b>Kategorie:<\/b> Kinder & Jugend — Kindergarten<br><b>Distanz:<\/b> 2345 m<br><b>Website:<\/b> https:\/\/kjsh-kita.de\/<br><b>Wikipedia:<\/b> <br><b>Telefon:<\/b> +49 461 4808655", "tessellate": -1, "extrude": 0, "visibility": -1 }, "geometry": { "type": "Point", "coordinates": [ 9.4252438, 54.7888919 ] } },
{ "type": "Feature", "properties": { "Name": "Kindergarten Nordergraben 3", "description": "<b>Kategorie:<\/b> Kinder & Jugend — Kindergarten<br><b>Distanz:<\/b> 2266 m<br><b>Website:<\/b> <br><b>Wikipedia:<\/b> <br><b>Telefon:<\/b> ", "tessellate": -1, "extrude": 0, "visibility": -1 }, "geometry": { "type": "Point", "coordinates": [ 9.4325788, 54.7863033 ] } },
{ "type": "Feature", "properties": { "Name": "Kita Hafenkinder", "description": "<b>Kategorie:<\/b> Kinder & Jugend — Kindergarten<br><b>Distanz:<\/b> 2332 m<br><b>Website:<\/b> https:\/\/www.adelby1.de\/hafenkinder<br><b>Wikipedia:<\/b> <br><b>Telefon:<\/b> +49 461 50528536", "tessellate": -1, "extrude": 0, "visibility": -1 }, "geometry": { "type": "Point", "coordinates": [ 9.4422022, 54.783192 ] } },
{ "type": "Feature", "properties": { "Name": "Kita Kinderkiste", "description": "<b>Kategorie:<\/b> Kinder & Jugend — Kindergarten<br><b>Distanz:<\/b>  595 m<br><b>Website:<\/b> https:\/\/www.adelby1.de\/kiki<br><b>Wikipedia:<\/b> <br><b>Telefon:<\/b> +49461 160689-21", "tessellate": -1, "extrude": 0, "visibility": -1 }, "geometry": { "type": "Point", "coordinates": [ 9.4594841, 54.8005694 ] } },
{ "type": "Feature", "properties": { "Name": "Haus Regenbogen", "description": "<b>Kategorie:<\/b> Kinder & Jugend — Kindergarten<br><b>Distanz:<\/b> 1841 m<br><b>Website:<\/b> https:\/\/www.hausregenbogen.com\/<br><b>Wikipedia:<\/b> <br><b>Telefon:<\/b> ", "tessellate": -1, "extrude": 0, "visibility": -1 }, "geometry": { "type": "Point", "coordinates": [ 9.4667333, 54.817492 ] } },
{ "type": "Feature", "properties": { "Name": "Kinderkiste Fruerlund", "description": "<b>Kategorie:<\/b> Kinder & Jugend — Kindergarten<br><b>Distanz:<\/b>  850 m<br><b>Website:<\/b> https:\/\/kindernest-fruerlund.de\/<br><b>Wikipedia:<\/b> <br><b>Telefon:<\/b> +49 461 8403995", "tessellate": -1, "extrude": 0, "visibility": -1 }, "geometry": { "type": "Point", "coordinates": [ 9.4638449, 54.8004648 ] } },
{ "type": "Feature", "properties": { "Name": "ADS Kita Breedlandweg", "description": "<b>Kategorie:<\/b> Kinder & Jugend — Kindergarten<br><b>Distanz:<\/b> 1717 m<br><b>Website:<\/b> https:\/\/www.dein-ads.de\/kitas\/standorte\/flensburg\/ads-kita-breedlandweg<br><b>Wikipedia:<\/b> <br><b>Telefon:<\/b> +49 461 35036", "tessellate": -1, "extrude": 0, "visibility": -1 }, "geometry": { "type": "Point", "coordinates": [ 9.4781005, 54.8012731 ] } },
{ "type": "Feature", "properties": { "Name": "Kilseng Børnehave", "description": "<b>Kategorie:<\/b> Kinder & Jugend — Kindergarten<br><b>Distanz:<\/b>  528 m<br><b>Website:<\/b> <br><b>Wikipedia:<\/b> <br><b>Telefon:<\/b> +49 461 30378", "tessellate": -1, "extrude": 0, "visibility": -1 }, "geometry": { "type": "Point", "coordinates": [ 9.4581449, 54.8063308 ] } },
{ "type": "Feature", "properties": { "Name": "Die kleinen Nordstädter", "description": "<b>Kategorie:<\/b> Kinder & Jugend — Kindergarten<br><b>Distanz:<\/b> 2245 m<br><b>Website:<\/b> https:\/\/www.die-kleinen-nordstaedter.de\/<br><b>Wikipedia:<\/b> <br><b>Telefon:<\/b> ", "tessellate": -1, "extrude": 0, "visibility": -1 }, "geometry": { "type": "Point", "coordinates": [ 9.4184818, 54.8097424 ] } },
{ "type": "Feature", "properties": { "Name": "Krippe an der Bergmühle", "description": "<b>Kategorie:<\/b> Kinder & Jugend — Kindergarten<br><b>Distanz:<\/b> 2033 m<br><b>Website:<\/b> https:\/\/www.adelby1.de\/familienhaus-bergmuehle-krippe<br><b>Wikipedia:<\/b> <br><b>Telefon:<\/b> +49 461 48164916", "tessellate": -1, "extrude": 0, "visibility": -1 }, "geometry": { "type": "Point", "coordinates": [ 9.4202902, 54.8010826 ] } },
{ "type": "Feature", "properties": { "Name": "UCI Kinowelt", "description": "<b>Kategorie:<\/b> Kultur & Geschichte — Kino<br><b>Distanz:<\/b> 2236 m<br><b>Website:<\/b> https:\/\/www.uci-kinowelt.de\/kinoinformation\/flensburg\/74<br><b>Wikipedia:<\/b> <br><b>Telefon:<\/b> +49 461 7070403", "tessellate": -1, "extrude": 0, "visibility": -1 }, "geometry": { "type": "Point", "coordinates": [ 9.4372255, 54.7851424 ] } },
{ "type": "Feature", "properties": { "Name": "Det lille Teater", "description": "<b>Kategorie:<\/b> Kultur & Geschichte — Theater<br><b>Distanz:<\/b> 2051 m<br><b>Website:<\/b> http:\/\/www.detlilleteater.de<br><b>Wikipedia:<\/b> de:Det lille Teater Flensborg<br><b>Telefon:<\/b> +49 461 80797630", "tessellate": -1, "extrude": 0, "visibility": -1 }, "geometry": { "type": "Point", "coordinates": [ 9.4301001, 54.7898409 ] } },
{ "type": "Feature", "properties": { "Name": "in kürze kunst", "description": "<b>Kategorie:<\/b> Kultur & Geschichte — Galerie<br><b>Distanz:<\/b> 1653 m<br><b>Website:<\/b> http:\/\/in-kuerze-kunst.net\/<br><b>Wikipedia:<\/b> <br><b>Telefon:<\/b> +49 461 5042542", "tessellate": -1, "extrude": 0, "visibility": -1 }, "geometry": { "type": "Point", "coordinates": [ 9.4312293, 54.7944048 ] } },
{ "type": "Feature", "properties": { "Name": "Niederdeutsche Bühne", "description": "<b>Kategorie:<\/b> Kultur & Geschichte — Theater<br><b>Distanz:<\/b> 2100 m<br><b>Website:<\/b> https:\/\/www.niederdeutschebuehne.de\/<br><b>Wikipedia:<\/b> de:Niederdeutsche Bühne Flensburg<br><b>Telefon:<\/b> +49 461 13790", "tessellate": -1, "extrude": 0, "visibility": -1 }, "geometry": { "type": "Point", "coordinates": [ 9.4404011, 54.7857119 ] } },
{ "type": "Feature", "properties": { "Name": "Galerie Kruse", "description": "<b>Kategorie:<\/b> Kultur & Geschichte — Galerie<br><b>Distanz:<\/b> 2633 m<br><b>Website:<\/b> https:\/\/www.galerie-kruse-flensburg.de\/<br><b>Wikipedia:<\/b> <br><b>Telefon:<\/b> +49 461 22063", "tessellate": -1, "extrude": 0, "visibility": -1 }, "geometry": { "type": "Point", "coordinates": [ 9.4357698, 54.781621 ] } },
{ "type": "Feature", "properties": { "Name": "Orpheus Theater", "description": "<b>Kategorie:<\/b> Kultur & Geschichte — Theater<br><b>Distanz:<\/b> 2012 m<br><b>Website:<\/b> https:\/\/www.orpheustheater.de\/<br><b>Wikipedia:<\/b> <br><b>Telefon:<\/b> ", "tessellate": -1, "extrude": 0, "visibility": -1 }, "geometry": { "type": "Point", "coordinates": [ 9.4314219, 54.7896342 ] } },
{ "type": "Feature", "properties": { "Name": "Museumsberg Flensburg", "description": "<b>Kategorie:<\/b> Kultur & Geschichte — Museum<br><b>Distanz:<\/b> 2346 m<br><b>Website:<\/b> https:\/\/www.museumsberg-flensburg.de\/<br><b>Wikipedia:<\/b> de:Museumsberg Flensburg<br><b>Telefon:<\/b> +49 461 85 2956", "tessellate": -1, "extrude": 0, "visibility": -1 }, "geometry": { "type": "Point", "coordinates": [ 9.4317528, 54.7857506 ] } },
{ "type": "Feature", "properties": { "Name": "Fischereimuseum", "description": "<b>Kategorie:<\/b> Kultur & Geschichte — Museum<br><b>Distanz:<\/b> 1639 m<br><b>Website:<\/b> https:\/\/web.archive.org\/web\/20220525104241\/http:\/\/www.fischerleben-schleswig-holstein.de\/fisch-erleben\/museen-und-museumshaefen\/das-flensburger-fischereimuseum\/<br><b>Wikipedia:<\/b> <br><b>Telefon:<\/b> ", "tessellate": -1, "extrude": 0, "visibility": -1 }, "geometry": { "type": "Point", "coordinates": [ 9.4379426, 54.7910066 ] } },
{ "type": "Feature", "properties": { "Name": "Braasch Rum Manufaktur Museum", "description": "<b>Kategorie:<\/b> Kultur & Geschichte — Museum<br><b>Distanz:<\/b> 2662 m<br><b>Website:<\/b> https:\/\/www.braasch.sh\/<br><b>Wikipedia:<\/b> <br><b>Telefon:<\/b> +49 461 14160-0", "tessellate": -1, "extrude": 0, "visibility": -1 }, "geometry": { "type": "Point", "coordinates": [ 9.435514, 54.7813982 ] } },
{ "type": "Feature", "properties": { "Name": "Phänomenta", "description": "<b>Kategorie:<\/b> Kultur & Geschichte — Museum<br><b>Distanz:<\/b> 1647 m<br><b>Website:<\/b> https:\/\/www.phaenomenta-flensburg.de\/<br><b>Wikipedia:<\/b> de:Phänomenta (Flensburg)<br><b>Telefon:<\/b> +49 461 14449-0", "tessellate": -1, "extrude": 0, "visibility": -1 }, "geometry": { "type": "Point", "coordinates": [ 9.4301531, 54.7953852 ] } },
{ "type": "Feature", "properties": { "Name": "Bilder im Hof", "description": "<b>Kategorie:<\/b> Kultur & Geschichte — Galerie<br><b>Distanz:<\/b> 2636 m<br><b>Website:<\/b> https:\/\/bilder-im-hof.de\/<br><b>Wikipedia:<\/b> <br><b>Telefon:<\/b> +49 461 13142", "tessellate": -1, "extrude": 0, "visibility": -1 }, "geometry": { "type": "Point", "coordinates": [ 9.4351416, 54.7817425 ] } },
{ "type": "Feature", "properties": { "Name": "Kunst & Co", "description": "<b>Kategorie:<\/b> Kultur & Geschichte — Galerie<br><b>Distanz:<\/b> 2588 m<br><b>Website:<\/b> <br><b>Wikipedia:<\/b> <br><b>Telefon:<\/b> ", "tessellate": -1, "extrude": 0, "visibility": -1 }, "geometry": { "type": "Point", "coordinates": [ 9.4364779, 54.7818824 ] } },
{ "type": "Feature", "properties": { "Name": "Theaterwerkstatt Pilkentafel", "description": "<b>Kategorie:<\/b> Kultur & Geschichte — Theater<br><b>Distanz:<\/b> 1611 m<br><b>Website:<\/b> https:\/\/www.pilkentafel.de\/<br><b>Wikipedia:<\/b> <br><b>Telefon:<\/b> +49 461 24901", "tessellate": -1, "extrude": 0, "visibility": -1 }, "geometry": { "type": "Point", "coordinates": [ 9.4392387, 54.7908529 ] } },
{ "type": "Feature", "properties": { "Name": "Tauchermuseum Flensburg", "description": "<b>Kategorie:<\/b> Kultur & Geschichte — Museum<br><b>Distanz:<\/b> 1508 m<br><b>Website:<\/b> https:\/\/tauchermuseum-flensburg.de\/<br><b>Wikipedia:<\/b> <br><b>Telefon:<\/b> +49 461 63552", "tessellate": -1, "extrude": 0, "visibility": -1 }, "geometry": { "type": "Point", "coordinates": [ 9.4294009, 54.8077104 ] } },
{ "type": "Feature", "properties": { "Name": "Kunst im Südwester", "description": "<b>Kategorie:<\/b> Kultur & Geschichte — Galerie<br><b>Distanz:<\/b>  964 m<br><b>Website:<\/b> http:\/\/kunst-suedwester.de<br><b>Wikipedia:<\/b> <br><b>Telefon:<\/b> ", "tessellate": -1, "extrude": 0, "visibility": -1 }, "geometry": { "type": "Point", "coordinates": [ 9.4378459, 54.8000448 ] } },
{ "type": "Feature", "properties": { "Name": "Gallery 4", "description": "<b>Kategorie:<\/b> Kultur & Geschichte — Galerie<br><b>Distanz:<\/b>  967 m<br><b>Website:<\/b> https:\/\/www.gallery4-flensburg.de\/<br><b>Wikipedia:<\/b> <br><b>Telefon:<\/b> ", "tessellate": -1, "extrude": 0, "visibility": -1 }, "geometry": { "type": "Point", "coordinates": [ 9.4376954, 54.8001826 ] } },
{ "type": "Feature", "properties": { "Name": "Urbanica Art Gallery", "description": "<b>Kategorie:<\/b> Kultur & Geschichte — Galerie<br><b>Distanz:<\/b> 2383 m<br><b>Website:<\/b> https:\/\/www.urbanica-art.com\/<br><b>Wikipedia:<\/b> <br><b>Telefon:<\/b> ", "tessellate": -1, "extrude": 0, "visibility": -1 }, "geometry": { "type": "Point", "coordinates": [ 9.4371365, 54.7837207 ] } },
{ "type": "Feature", "properties": { "Name": "Ahoi-Atelier", "description": "<b>Kategorie:<\/b> Kultur & Geschichte — Galerie<br><b>Distanz:<\/b> 1787 m<br><b>Website:<\/b> <br><b>Wikipedia:<\/b> <br><b>Telefon:<\/b> ", "tessellate": -1, "extrude": 0, "visibility": -1 }, "geometry": { "type": "Point", "coordinates": [ 9.4311771, 54.7925655 ] } },
{ "type": "Feature", "properties": { "Name": "Historischer alter Kaufmannshof am Museumshafen", "description": "<b>Kategorie:<\/b> Kultur & Geschichte — Attraktion<br><b>Distanz:<\/b> 1682 m<br><b>Website:<\/b> <br><b>Wikipedia:<\/b> <br><b>Telefon:<\/b> ", "tessellate": -1, "extrude": 0, "visibility": -1 }, "geometry": { "type": "Point", "coordinates": [ 9.431693, 54.7936558 ] } },
{ "type": "Feature", "properties": { "Name": "Ute Schwambach", "description": "<b>Kategorie:<\/b> Kultur & Geschichte — Galerie<br><b>Distanz:<\/b> 2169 m<br><b>Website:<\/b> <br><b>Wikipedia:<\/b> <br><b>Telefon:<\/b> ", "tessellate": -1, "extrude": 0, "visibility": -1 }, "geometry": { "type": "Point", "coordinates": [ 9.4420409, 54.7847433 ] } },
{ "type": "Feature", "properties": { "Name": "Beobachtungsstand", "description": "<b>Kategorie:<\/b> Natur & Landschaft — Aussichtspunkt<br><b>Distanz:<\/b> 2556 m<br><b>Website:<\/b> <br><b>Wikipedia:<\/b> <br><b>Telefon:<\/b> ", "tessellate": -1, "extrude": 0, "visibility": -1 }, "geometry": { "type": "Point", "coordinates": [ 9.4884909, 54.8120892 ] } },
{ "type": "Feature", "properties": { "Name": "Flensburg museum viewpoint", "description": "<b>Kategorie:<\/b> Natur & Landschaft — Aussichtspunkt<br><b>Distanz:<\/b> 2334 m<br><b>Website:<\/b> <br><b>Wikipedia:<\/b> <br><b>Telefon:<\/b> ", "tessellate": -1, "extrude": 0, "visibility": -1 }, "geometry": { "type": "Point", "coordinates": [ 9.4320115, 54.785783 ] } },
{ "type": "Feature", "properties": { "Name": "Sophienquelle", "description": "<b>Kategorie:<\/b> Natur & Landschaft — Natur-Feature (alle)<br><b>Distanz:<\/b> 1687 m<br><b>Website:<\/b> <br><b>Wikipedia:<\/b> <br><b>Telefon:<\/b> ", "tessellate": -1, "extrude": 0, "visibility": -1 }, "geometry": { "type": "Point", "coordinates": [ 9.4294356, 54.8114959 ] } },
{ "type": "Feature", "properties": { "Name": "Knotenstation", "description": "<b>Kategorie:<\/b> Natur & Landschaft — Aussichtspunkt<br><b>Distanz:<\/b> 1657 m<br><b>Website:<\/b> <br><b>Wikipedia:<\/b> <br><b>Telefon:<\/b> ", "tessellate": -1, "extrude": 0, "visibility": -1 }, "geometry": { "type": "Point", "coordinates": [ 9.4379379, 54.7908228 ] } }
]
}
