{
"type": "FeatureCollection",
"name": "merged",
"features": [
{ "type": "Feature", "properties": { "Name": "JH 638 — Jugendherberge Meppen", "description": "<b>JH Nr:</b> 638<br><b>Name:</b> Jugendherberge Meppen<br><b>Ort:</b> Meppen", "tessellate": -1, "extrude": 0, "visibility": -1 }, "geometry": { "type": "Point", "coordinates": [ 7.3056071, 52.6855575 ] } },
{ "type": "Feature", "properties": { "Name": "Stadtbücherei KÖB", "description": "<b>Kategorie:<\/b> Bildungsinfrastruktur — Bibliothek<br><b>Distanz:<\/b> 1059 m<br><b>Website:<\/b> <br><b>Wikipedia:<\/b> <br><b>Telefon:<\/b> ", "tessellate": -1, "extrude": 0, "visibility": -1 }, "geometry": { "type": "Point", "coordinates": [ 7.2914575, 52.6896321 ] } },
{ "type": "Feature", "properties": { "Name": "Evangelischer Jugenddienst", "description": "<b>Kategorie:<\/b> Bildungsinfrastruktur — Gemeindezentrum<br><b>Distanz:<\/b> 1482 m<br><b>Website:<\/b> https:\/\/www.ejeb.de\/<br><b>Wikipedia:<\/b> <br><b>Telefon:<\/b> +49 5931 8816518", "tessellate": -1, "extrude": 0, "visibility": -1 }, "geometry": { "type": "Point", "coordinates": [ 7.2926163, 52.6962914 ] } },
{ "type": "Feature", "properties": { "Name": "Kirche in Meppen", "description": "<b>Kategorie:<\/b> Bildungsinfrastruktur — Gemeindezentrum<br><b>Distanz:<\/b> 1109 m<br><b>Website:<\/b> <br><b>Wikipedia:<\/b> <br><b>Telefon:<\/b> ", "tessellate": -1, "extrude": 0, "visibility": -1 }, "geometry": { "type": "Point", "coordinates": [ 7.2920586, 52.6911784 ] } },
{ "type": "Feature", "properties": { "Name": "Anleger Campingplatz", "description": "<b>Kategorie:<\/b> Freizeit & Sport — Yachthafen<br><b>Distanz:<\/b> 1580 m<br><b>Website:<\/b> <br><b>Wikipedia:<\/b> <br><b>Telefon:<\/b> ", "tessellate": -1, "extrude": 0, "visibility": -1 }, "geometry": { "type": "Point", "coordinates": [ 7.2853586, 52.6926498 ] } },
{ "type": "Feature", "properties": { "Name": "Sporthalle Windthorst-Gymnasium", "description": "<b>Kategorie:<\/b> Freizeit & Sport — Sportzentrum<br><b>Distanz:<\/b> 1067 m<br><b>Website:<\/b> <br><b>Wikipedia:<\/b> <br><b>Telefon:<\/b> ", "tessellate": -1, "extrude": 0, "visibility": -1 }, "geometry": { "type": "Point", "coordinates": [ 7.2934847, 52.691703 ] } },
{ "type": "Feature", "properties": { "Name": "Sporthalle Windthorst-Gymnasium (alt)", "description": "<b>Kategorie:<\/b> Freizeit & Sport — Sportzentrum<br><b>Distanz:<\/b>  914 m<br><b>Website:<\/b> <br><b>Wikipedia:<\/b> <br><b>Telefon:<\/b> ", "tessellate": -1, "extrude": 0, "visibility": -1 }, "geometry": { "type": "Point", "coordinates": [ 7.2945066, 52.6902399 ] } },
{ "type": "Feature", "properties": { "Name": "Kulturmeile", "description": "<b>Kategorie:<\/b> Information — Besucherinformation<br><b>Distanz:<\/b>   51 m<br><b>Website:<\/b> <br><b>Wikipedia:<\/b> <br><b>Telefon:<\/b> ", "tessellate": -1, "extrude": 0, "visibility": -1 }, "geometry": { "type": "Point", "coordinates": [ 7.3063532, 52.6854801 ] } },
{ "type": "Feature", "properties": { "Name": "Kulturmeile", "description": "<b>Kategorie:<\/b> Information — Besucherinformation<br><b>Distanz:<\/b>   90 m<br><b>Website:<\/b> <br><b>Wikipedia:<\/b> <br><b>Telefon:<\/b> ", "tessellate": -1, "extrude": 0, "visibility": -1 }, "geometry": { "type": "Point", "coordinates": [ 7.3064114, 52.6861987 ] } },
{ "type": "Feature", "properties": { "Name": "Kulturmeile", "description": "<b>Kategorie:<\/b> Information — Besucherinformation<br><b>Distanz:<\/b>  141 m<br><b>Website:<\/b> <br><b>Wikipedia:<\/b> <br><b>Telefon:<\/b> ", "tessellate": -1, "extrude": 0, "visibility": -1 }, "geometry": { "type": "Point", "coordinates": [ 7.3064546, 52.686715 ] } },
{ "type": "Feature", "properties": { "Name": "Kulturmeile", "description": "<b>Kategorie:<\/b> Information — Besucherinformation<br><b>Distanz:<\/b>  396 m<br><b>Website:<\/b> <br><b>Wikipedia:<\/b> <br><b>Telefon:<\/b> ", "tessellate": -1, "extrude": 0, "visibility": -1 }, "geometry": { "type": "Point", "coordinates": [ 7.3108516, 52.6839766 ] } },
{ "type": "Feature", "properties": { "Name": "Kulturmeile", "description": "<b>Kategorie:<\/b> Information — Besucherinformation<br><b>Distanz:<\/b>  637 m<br><b>Website:<\/b> <br><b>Wikipedia:<\/b> <br><b>Telefon:<\/b> ", "tessellate": -1, "extrude": 0, "visibility": -1 }, "geometry": { "type": "Point", "coordinates": [ 7.3014515, 52.6906971 ] } },
{ "type": "Feature", "properties": { "Name": "Kulturmeile", "description": "<b>Kategorie:<\/b> Information — Besucherinformation<br><b>Distanz:<\/b> 1336 m<br><b>Website:<\/b> <br><b>Wikipedia:<\/b> <br><b>Telefon:<\/b> ", "tessellate": -1, "extrude": 0, "visibility": -1 }, "geometry": { "type": "Point", "coordinates": [ 7.2883614, 52.691416 ] } },
{ "type": "Feature", "properties": { "Name": "Erinnerung und Mahnung", "description": "<b>Kategorie:<\/b> Information — Besucherinformation<br><b>Distanz:<\/b> 1238 m<br><b>Website:<\/b> <br><b>Wikipedia:<\/b> <br><b>Telefon:<\/b> ", "tessellate": -1, "extrude": 0, "visibility": -1 }, "geometry": { "type": "Point", "coordinates": [ 7.2890276, 52.6902802 ] } },
{ "type": "Feature", "properties": { "Name": "Hühnenweg", "description": "<b>Kategorie:<\/b> Information — Besucherinformation<br><b>Distanz:<\/b> 1227 m<br><b>Website:<\/b> <br><b>Wikipedia:<\/b> <br><b>Telefon:<\/b> ", "tessellate": -1, "extrude": 0, "visibility": -1 }, "geometry": { "type": "Point", "coordinates": [ 7.2930071, 52.6934953 ] } },
{ "type": "Feature", "properties": { "Name": "Meppen", "description": "<b>Kategorie:<\/b> Information — Besucherinformation<br><b>Distanz:<\/b> 1250 m<br><b>Website:<\/b> <br><b>Wikipedia:<\/b> <br><b>Telefon:<\/b> ", "tessellate": -1, "extrude": 0, "visibility": -1 }, "geometry": { "type": "Point", "coordinates": [ 7.2928233, 52.6936693 ] } },
{ "type": "Feature", "properties": { "Name": "Die Hase-Hubbrücke", "description": "<b>Kategorie:<\/b> Information — Besucherinformation<br><b>Distanz:<\/b> 1283 m<br><b>Website:<\/b> <br><b>Wikipedia:<\/b> <br><b>Telefon:<\/b> ", "tessellate": -1, "extrude": 0, "visibility": -1 }, "geometry": { "type": "Point", "coordinates": [ 7.2925286, 52.6939108 ] } },
{ "type": "Feature", "properties": { "Name": "Die Schleuse Meppen", "description": "<b>Kategorie:<\/b> Information — Besucherinformation<br><b>Distanz:<\/b>  465 m<br><b>Website:<\/b> <br><b>Wikipedia:<\/b> <br><b>Telefon:<\/b> ", "tessellate": -1, "extrude": 0, "visibility": -1 }, "geometry": { "type": "Point", "coordinates": [ 7.2987861, 52.686065 ] } },
{ "type": "Feature", "properties": { "Name": "Radwege rund um Meppen", "description": "<b>Kategorie:<\/b> Information — Besucherinformation<br><b>Distanz:<\/b> 2930 m<br><b>Website:<\/b> <br><b>Wikipedia:<\/b> <br><b>Telefon:<\/b> ", "tessellate": -1, "extrude": 0, "visibility": -1 }, "geometry": { "type": "Point", "coordinates": [ 7.2827469, 52.7079304 ] } },
{ "type": "Feature", "properties": { "Name": "Radwege rund um Meppen", "description": "<b>Kategorie:<\/b> Information — Besucherinformation<br><b>Distanz:<\/b> 2122 m<br><b>Website:<\/b> <br><b>Wikipedia:<\/b> <br><b>Telefon:<\/b> ", "tessellate": -1, "extrude": 0, "visibility": -1 }, "geometry": { "type": "Point", "coordinates": [ 7.2758625, 52.6916419 ] } },
{ "type": "Feature", "properties": { "Name": "Meppen", "description": "<b>Kategorie:<\/b> Information — Besucherinformation<br><b>Distanz:<\/b> 2123 m<br><b>Website:<\/b> <br><b>Wikipedia:<\/b> <br><b>Telefon:<\/b> ", "tessellate": -1, "extrude": 0, "visibility": -1 }, "geometry": { "type": "Point", "coordinates": [ 7.2758267, 52.6916189 ] } },
{ "type": "Feature", "properties": { "Name": "Beerenstarke Sträucher", "description": "<b>Kategorie:<\/b> Information — Besucherinformation<br><b>Distanz:<\/b>  397 m<br><b>Website:<\/b> <br><b>Wikipedia:<\/b> <br><b>Telefon:<\/b> ", "tessellate": -1, "extrude": 0, "visibility": -1 }, "geometry": { "type": "Point", "coordinates": [ 7.3052631, 52.6891205 ] } },
{ "type": "Feature", "properties": { "Name": "Bunte Uferstaudensäume", "description": "<b>Kategorie:<\/b> Information — Besucherinformation<br><b>Distanz:<\/b>  577 m<br><b>Website:<\/b> <br><b>Wikipedia:<\/b> <br><b>Telefon:<\/b> ", "tessellate": -1, "extrude": 0, "visibility": -1 }, "geometry": { "type": "Point", "coordinates": [ 7.3029376, 52.6904842 ] } },
{ "type": "Feature", "properties": { "Name": "Sandfang", "description": "<b>Kategorie:<\/b> Information — Besucherinformation<br><b>Distanz:<\/b>  633 m<br><b>Website:<\/b> <br><b>Wikipedia:<\/b> <br><b>Telefon:<\/b> ", "tessellate": -1, "extrude": 0, "visibility": -1 }, "geometry": { "type": "Point", "coordinates": [ 7.3016314, 52.6907082 ] } },
{ "type": "Feature", "properties": { "Name": "Kulturmeile - Windthorst-Gymnasium und Gymnasialkirche", "description": "<b>Kategorie:<\/b> Information — Besucherinformation<br><b>Distanz:<\/b>  979 m<br><b>Website:<\/b> <br><b>Wikipedia:<\/b> <br><b>Telefon:<\/b> ", "tessellate": -1, "extrude": 0, "visibility": -1 }, "geometry": { "type": "Point", "coordinates": [ 7.2944933, 52.6912034 ] } },
{ "type": "Feature", "properties": { "Name": "Emsland Archäologie Museum - Geopark-Station", "description": "<b>Kategorie:<\/b> Information — Besucherinformation<br><b>Distanz:<\/b>  192 m<br><b>Website:<\/b> <br><b>Wikipedia:<\/b> <br><b>Telefon:<\/b> ", "tessellate": -1, "extrude": 0, "visibility": -1 }, "geometry": { "type": "Point", "coordinates": [ 7.3063706, 52.6872187 ] } },
{ "type": "Feature", "properties": { "Name": "Kulturmeile - Dortmund-Ems-Kanal und Höltingmühle", "description": "<b>Kategorie:<\/b> Information — Besucherinformation<br><b>Distanz:<\/b>  922 m<br><b>Website:<\/b> <br><b>Wikipedia:<\/b> <br><b>Telefon:<\/b> ", "tessellate": -1, "extrude": 0, "visibility": -1 }, "geometry": { "type": "Point", "coordinates": [ 7.295661, 52.6912283 ] } },
{ "type": "Feature", "properties": { "Name": "Wasservögel", "description": "<b>Kategorie:<\/b> Information — Besucherinformation<br><b>Distanz:<\/b>   98 m<br><b>Website:<\/b> <br><b>Wikipedia:<\/b> <br><b>Telefon:<\/b> ", "tessellate": -1, "extrude": 0, "visibility": -1 }, "geometry": { "type": "Point", "coordinates": [ 7.3062644, 52.6847746 ] } },
{ "type": "Feature", "properties": { "Name": "Kulturmeile - Die Koppelschleuse", "description": "<b>Kategorie:<\/b> Information — Besucherinformation<br><b>Distanz:<\/b>  208 m<br><b>Website:<\/b> <br><b>Wikipedia:<\/b> <br><b>Telefon:<\/b> ", "tessellate": -1, "extrude": 0, "visibility": -1 }, "geometry": { "type": "Point", "coordinates": [ 7.3064269, 52.6873587 ] } },
{ "type": "Feature", "properties": { "Name": "Kulturmeile - Die Hase", "description": "<b>Kategorie:<\/b> Information — Besucherinformation<br><b>Distanz:<\/b>  281 m<br><b>Website:<\/b> <br><b>Wikipedia:<\/b> <br><b>Telefon:<\/b> ", "tessellate": -1, "extrude": 0, "visibility": -1 }, "geometry": { "type": "Point", "coordinates": [ 7.3061728, 52.6880615 ] } },
{ "type": "Feature", "properties": { "Name": "Fledermäuse und ihre Lebensweise", "description": "<b>Kategorie:<\/b> Information — Besucherinformation<br><b>Distanz:<\/b>  224 m<br><b>Website:<\/b> <br><b>Wikipedia:<\/b> <br><b>Telefon:<\/b> ", "tessellate": -1, "extrude": 0, "visibility": -1 }, "geometry": { "type": "Point", "coordinates": [ 7.3063658, 52.6875198 ] } },
{ "type": "Feature", "properties": { "Name": "Kinderkrippe Binsenkörbchen", "description": "<b>Kategorie:<\/b> Kinder & Jugend — Kindergarten<br><b>Distanz:<\/b> 2535 m<br><b>Website:<\/b> <br><b>Wikipedia:<\/b> <br><b>Telefon:<\/b> +49 5931 4965108", "tessellate": -1, "extrude": 0, "visibility": -1 }, "geometry": { "type": "Point", "coordinates": [ 7.2712656, 52.6947079 ] } },
{ "type": "Feature", "properties": { "Name": "Platz der Kinderrechte", "description": "<b>Kategorie:<\/b> Kinder & Jugend — Spielplatz<br><b>Distanz:<\/b> 1097 m<br><b>Website:<\/b> <br><b>Wikipedia:<\/b> <br><b>Telefon:<\/b> ", "tessellate": -1, "extrude": 0, "visibility": -1 }, "geometry": { "type": "Point", "coordinates": [ 7.2920512, 52.6909705 ] } },
{ "type": "Feature", "properties": { "Name": "Kino Germania Lichtspiele", "description": "<b>Kategorie:<\/b> Kultur & Geschichte — Kino<br><b>Distanz:<\/b> 1307 m<br><b>Website:<\/b> https:\/\/kino-meppen.de\/<br><b>Wikipedia:<\/b> <br><b>Telefon:<\/b> ", "tessellate": -1, "extrude": 0, "visibility": -1 }, "geometry": { "type": "Point", "coordinates": [ 7.2944526, 52.6951517 ] } },
{ "type": "Feature", "properties": { "Name": "Theater Meppen", "description": "<b>Kategorie:<\/b> Kultur & Geschichte — Theater<br><b>Distanz:<\/b>  957 m<br><b>Website:<\/b> <br><b>Wikipedia:<\/b> <br><b>Telefon:<\/b> ", "tessellate": -1, "extrude": 0, "visibility": -1 }, "geometry": { "type": "Point", "coordinates": [ 7.2935509, 52.6900738 ] } },
{ "type": "Feature", "properties": { "Name": "Emsland Archäologie Museum", "description": "<b>Kategorie:<\/b> Kultur & Geschichte — Museum<br><b>Distanz:<\/b>  167 m<br><b>Website:<\/b> <br><b>Wikipedia:<\/b> <br><b>Telefon:<\/b> ", "tessellate": -1, "extrude": 0, "visibility": -1 }, "geometry": { "type": "Point", "coordinates": [ 7.3060863, 52.6870267 ] } },
{ "type": "Feature", "properties": { "Name": "Stadtmuseum Meppen", "description": "<b>Kategorie:<\/b> Kultur & Geschichte — Museum<br><b>Distanz:<\/b>  165 m<br><b>Website:<\/b> <br><b>Wikipedia:<\/b> <br><b>Telefon:<\/b> ", "tessellate": -1, "extrude": 0, "visibility": -1 }, "geometry": { "type": "Point", "coordinates": [ 7.3059055, 52.6870323 ] } },
{ "type": "Feature", "properties": { "Name": "Naturdenkmal Eiche", "description": "<b>Kategorie:<\/b> Natur & Landschaft — Natur-Feature (alle)<br><b>Distanz:<\/b>  753 m<br><b>Website:<\/b> <br><b>Wikipedia:<\/b> <br><b>Telefon:<\/b> ", "tessellate": -1, "extrude": 0, "visibility": -1 }, "geometry": { "type": "Point", "coordinates": [ 7.297303, 52.6900746 ] } }
]
}
