{"type": "FeatureCollection", "features": [{"type": "Feature", "properties": {"Name": "JH 7 — Jugendherberge Hebelhof", "description": "<b>JH Nr:</b> 7<br><b>Name:</b> Jugendherberge Hebelhof<br><b>Ort:</b> Feldberg", "timestamp": null, "begin": null, "end": null, "altitudeMode": null, "tessellate": -1, "extrude": 0, "visibility": -1, "drawOrder": null, "icon": null, "category_group": "JH"}, "geometry": {"type": "Point", "coordinates": [8.027604, 47.8569998]}}, {"type": "Feature", "properties": {"Name": "Wintersportschule Thoma", "description": "<b>Kategorie:</b> Freizeit & Sport — Sportzentrum<br><b>Distanz:</b>  804 m<br><b>Website:</b> https://www.thoma-skischule.de/de/<br><b>Wikipedia:</b> <br><b>Telefon:</b> +49 7676 92688", "timestamp": null, "begin": null, "end": null, "altitudeMode": null, "tessellate": -1, "extrude": 0, "visibility": -1, "drawOrder": null, "icon": null, "category_group": "Freizeit & Sport"}, "geometry": {"type": "Point", "coordinates": [8.0359858, 47.8615332]}}, {"type": "Feature", "properties": {"Name": "Am Herzogenhorn", "description": "<b>Kategorie:</b> Information — Besucherinformation<br><b>Distanz:</b> 2563 m<br><b>Website:</b> <br><b>Wikipedia:</b> <br><b>Telefon:</b> ", "timestamp": null, "begin": null, "end": null, "altitudeMode": null, "tessellate": -1, "extrude": 0, "visibility": -1, "drawOrder": null, "icon": null, "category_group": "Information"}, "geometry": {"type": "Point", "coordinates": [8.0179816, 47.8348656]}}, {"type": "Feature", "properties": {"Name": "Glockenführe", "description": "<b>Kategorie:</b> Information — Besucherinformation<br><b>Distanz:</b> 1994 m<br><b>Website:</b> <br><b>Wikipedia:</b> <br><b>Telefon:</b> ", "timestamp": null, "begin": null, "end": null, "altitudeMode": null, "tessellate": -1, "extrude": 0, "visibility": -1, "drawOrder": null, "icon": null, "category_group": "Information"}, "geometry": {"type": "Point", "coordinates": [8.0190671, 47.8400087]}}, {"type": "Feature", "properties": {"Name": "Hebelhof Parkplatz Grafenmatt", "description": "<b>Kategorie:</b> Information — Besucherinformation<br><b>Distanz:</b>  185 m<br><b>Website:</b> <br><b>Wikipedia:</b> <br><b>Telefon:</b> ", "timestamp": null, "begin": null, "end": null, "altitudeMode": null, "tessellate": -1, "extrude": 0, "visibility": -1, "drawOrder": null, "icon": null, "category_group": "Information"}, "geometry": {"type": "Point", "coordinates": [8.0296365, 47.8560586]}}, {"type": "Feature", "properties": {"Name": "Schwedenschanze", "description": "<b>Kategorie:</b> Information — Besucherinformation<br><b>Distanz:</b> 2517 m<br><b>Website:</b> <br><b>Wikipedia:</b> <br><b>Telefon:</b> ", "timestamp": null, "begin": null, "end": null, "altitudeMode": null, "tessellate": -1, "extrude": 0, "visibility": -1, "drawOrder": null, "icon": null, "category_group": "Information"}, "geometry": {"type": "Point", "coordinates": [8.0151588, 47.8359612]}}, {"type": "Feature", "properties": {"Name": "NSG Feldberg", "description": "<b>Kategorie:</b> Information — Besucherinformation<br><b>Distanz:</b> 1544 m<br><b>Website:</b> <br><b>Wikipedia:</b> <br><b>Telefon:</b> ", "timestamp": null, "begin": null, "end": null, "altitudeMode": null, "tessellate": -1, "extrude": 0, "visibility": -1, "drawOrder": null, "icon": null, "category_group": "Information"}, "geometry": {"type": "Point", "coordinates": [8.0186662, 47.8444823]}}, {"type": "Feature", "properties": {"Name": "Feldbergbahn Talstation", "description": "<b>Kategorie:</b> Information — Besucherinformation<br><b>Distanz:</b>  964 m<br><b>Website:</b> <br><b>Wikipedia:</b> <br><b>Telefon:</b> ", "timestamp": null, "begin": null, "end": null, "altitudeMode": null, "tessellate": -1, "extrude": 0, "visibility": -1, "drawOrder": null, "icon": null, "category_group": "Information"}, "geometry": {"type": "Point", "coordinates": [8.0367044, 47.8631393]}}, {"type": "Feature", "properties": {"Name": "FE3", "description": "<b>Kategorie:</b> Information — Besucherinformation<br><b>Distanz:</b> 2443 m<br><b>Website:</b> <br><b>Wikipedia:</b> <br><b>Telefon:</b> ", "timestamp": null, "begin": null, "end": null, "altitudeMode": null, "tessellate": -1, "extrude": 0, "visibility": -1, "drawOrder": null, "icon": null, "category_group": "Information"}, "geometry": {"type": "Point", "coordinates": [7.9986382, 47.8671489]}}, {"type": "Feature", "properties": {"Name": "FE2", "description": "<b>Kategorie:</b> Information — Besucherinformation<br><b>Distanz:</b>  892 m<br><b>Website:</b> <br><b>Wikipedia:</b> <br><b>Telefon:</b> ", "timestamp": null, "begin": null, "end": null, "altitudeMode": null, "tessellate": -1, "extrude": 0, "visibility": -1, "drawOrder": null, "icon": null, "category_group": "Information"}, "geometry": {"type": "Point", "coordinates": [8.0189117, 47.8624907]}}, {"type": "Feature", "properties": {"Name": "FE1 Feldberger Hof", "description": "<b>Kategorie:</b> Information — Besucherinformation<br><b>Distanz:</b>  705 m<br><b>Website:</b> <br><b>Wikipedia:</b> <br><b>Telefon:</b> ", "timestamp": null, "begin": null, "end": null, "altitudeMode": null, "tessellate": -1, "extrude": 0, "visibility": -1, "drawOrder": null, "icon": null, "category_group": "Information"}, "geometry": {"type": "Point", "coordinates": [8.0357336, 47.8602038]}}, {"type": "Feature", "properties": {"Name": "FE8", "description": "<b>Kategorie:</b> Information — Besucherinformation<br><b>Distanz:</b> 1873 m<br><b>Website:</b> <br><b>Wikipedia:</b> <br><b>Telefon:</b> ", "timestamp": null, "begin": null, "end": null, "altitudeMode": null, "tessellate": -1, "extrude": 0, "visibility": -1, "drawOrder": null, "icon": null, "category_group": "Information"}, "geometry": {"type": "Point", "coordinates": [8.0380328, 47.8723225]}}, {"type": "Feature", "properties": {"Name": "FE7 Raimartihofweg", "description": "<b>Kategorie:</b> Information — Besucherinformation<br><b>Distanz:</b> 1750 m<br><b>Website:</b> <br><b>Wikipedia:</b> <br><b>Telefon:</b> ", "timestamp": null, "begin": null, "end": null, "altitudeMode": null, "tessellate": -1, "extrude": 0, "visibility": -1, "drawOrder": null, "icon": null, "category_group": "Information"}, "geometry": {"type": "Point", "coordinates": [8.0399193, 47.8703824]}}, {"type": "Feature", "properties": {"Name": "FE9", "description": "<b>Kategorie:</b> Information — Besucherinformation<br><b>Distanz:</b> 2053 m<br><b>Website:</b> <br><b>Wikipedia:</b> <br><b>Telefon:</b> ", "timestamp": null, "begin": null, "end": null, "altitudeMode": null, "tessellate": -1, "extrude": 0, "visibility": -1, "drawOrder": null, "icon": null, "category_group": "Information"}, "geometry": {"type": "Point", "coordinates": [8.0411987, 47.8730452]}}, {"type": "Feature", "properties": {"Name": "FE5", "description": "<b>Kategorie:</b> Information — Besucherinformation<br><b>Distanz:</b> 1866 m<br><b>Website:</b> <br><b>Wikipedia:</b> <br><b>Telefon:</b> ", "timestamp": null, "begin": null, "end": null, "altitudeMode": null, "tessellate": -1, "extrude": 0, "visibility": -1, "drawOrder": null, "icon": null, "category_group": "Information"}, "geometry": {"type": "Point", "coordinates": [8.0524857, 47.8581899]}}, {"type": "Feature", "properties": {"Name": "FE6 E. Maurer Weg", "description": "<b>Kategorie:</b> Information — Besucherinformation<br><b>Distanz:</b> 1722 m<br><b>Website:</b> <br><b>Wikipedia:</b> <br><b>Telefon:</b> ", "timestamp": null, "begin": null, "end": null, "altitudeMode": null, "tessellate": -1, "extrude": 0, "visibility": -1, "drawOrder": null, "icon": null, "category_group": "Information"}, "geometry": {"type": "Point", "coordinates": [8.0498876, 47.8608852]}}, {"type": "Feature", "properties": {"Name": "FE4", "description": "<b>Kategorie:</b> Information — Besucherinformation<br><b>Distanz:</b>  343 m<br><b>Website:</b> <br><b>Wikipedia:</b> <br><b>Telefon:</b> ", "timestamp": null, "begin": null, "end": null, "altitudeMode": null, "tessellate": -1, "extrude": 0, "visibility": -1, "drawOrder": null, "icon": null, "category_group": "Information"}, "geometry": {"type": "Point", "coordinates": [8.0320823, 47.8563328]}}, {"type": "Feature", "properties": {"Name": "St. Wilhelm Weide", "description": "<b>Kategorie:</b> Information — Besucherinformation<br><b>Distanz:</b> 3098 m<br><b>Website:</b> <br><b>Wikipedia:</b> <br><b>Telefon:</b> ", "timestamp": null, "begin": null, "end": null, "altitudeMode": null, "tessellate": -1, "extrude": 0, "visibility": -1, "drawOrder": null, "icon": null, "category_group": "Information"}, "geometry": {"type": "Point", "coordinates": [7.9967028, 47.8755558]}}, {"type": "Feature", "properties": {"Name": "Feldberg Caritashaus", "description": "<b>Kategorie:</b> Information — Besucherinformation<br><b>Distanz:</b> 1887 m<br><b>Website:</b> <br><b>Wikipedia:</b> <br><b>Telefon:</b> ", "timestamp": null, "begin": null, "end": null, "altitudeMode": null, "tessellate": -1, "extrude": 0, "visibility": -1, "drawOrder": null, "icon": null, "category_group": "Information"}, "geometry": {"type": "Point", "coordinates": [8.0527599, 47.8582505]}}, {"type": "Feature", "properties": {"Name": "Klusenhang", "description": "<b>Kategorie:</b> Information — Besucherinformation<br><b>Distanz:</b> 1761 m<br><b>Website:</b> <br><b>Wikipedia:</b> <br><b>Telefon:</b> ", "timestamp": null, "begin": null, "end": null, "altitudeMode": null, "tessellate": -1, "extrude": 0, "visibility": -1, "drawOrder": null, "icon": null, "category_group": "Information"}, "geometry": {"type": "Point", "coordinates": [8.0511417, 47.857411]}}, {"type": "Feature", "properties": {"Name": "Feldberg Klusenhang", "description": "<b>Kategorie:</b> Information — Besucherinformation<br><b>Distanz:</b> 1807 m<br><b>Website:</b> <br><b>Wikipedia:</b> <br><b>Telefon:</b> ", "timestamp": null, "begin": null, "end": null, "altitudeMode": null, "tessellate": -1, "extrude": 0, "visibility": -1, "drawOrder": null, "icon": null, "category_group": "Information"}, "geometry": {"type": "Point", "coordinates": [8.0517208, 47.8578655]}}, {"type": "Feature", "properties": {"Name": "Hebelhof Parkplatz Grafenmatt", "description": "<b>Kategorie:</b> Information — Besucherinformation<br><b>Distanz:</b>  219 m<br><b>Website:</b> <br><b>Wikipedia:</b> <br><b>Telefon:</b> ", "timestamp": null, "begin": null, "end": null, "altitudeMode": null, "tessellate": -1, "extrude": 0, "visibility": -1, "drawOrder": null, "icon": null, "category_group": "Information"}, "geometry": {"type": "Point", "coordinates": [8.0293666, 47.8554274]}}, {"type": "Feature", "properties": {"Name": "Feldbergpass", "description": "<b>Kategorie:</b> Information — Besucherinformation<br><b>Distanz:</b>  284 m<br><b>Website:</b> <br><b>Wikipedia:</b> <br><b>Telefon:</b> ", "timestamp": null, "begin": null, "end": null, "altitudeMode": null, "tessellate": -1, "extrude": 0, "visibility": -1, "drawOrder": null, "icon": null, "category_group": "Information"}, "geometry": {"type": "Point", "coordinates": [8.031316, 47.8564769]}}, {"type": "Feature", "properties": {"Name": "Menzenschwander Hütte", "description": "<b>Kategorie:</b> Information — Besucherinformation<br><b>Distanz:</b>  587 m<br><b>Website:</b> <br><b>Wikipedia:</b> <br><b>Telefon:</b> ", "timestamp": null, "begin": null, "end": null, "altitudeMode": null, "tessellate": -1, "extrude": 0, "visibility": -1, "drawOrder": null, "icon": null, "category_group": "Information"}, "geometry": {"type": "Point", "coordinates": [8.0348073, 47.8548989]}}, {"type": "Feature", "properties": {"Name": "Fahler Wasserfall Parkplatz", "description": "<b>Kategorie:</b> Information — Besucherinformation<br><b>Distanz:</b> 2287 m<br><b>Website:</b> <br><b>Wikipedia:</b> <br><b>Telefon:</b> ", "timestamp": null, "begin": null, "end": null, "altitudeMode": null, "tessellate": -1, "extrude": 0, "visibility": -1, "drawOrder": null, "icon": null, "category_group": "Information"}, "geometry": {"type": "Point", "coordinates": [7.9971224, 47.858592]}}, {"type": "Feature", "properties": {"Name": "Bismarck-Denkmal", "description": "<b>Kategorie:</b> Information — Besucherinformation<br><b>Distanz:</b>  973 m<br><b>Website:</b> <br><b>Wikipedia:</b> <br><b>Telefon:</b> ", "timestamp": null, "begin": null, "end": null, "altitudeMode": null, "tessellate": -1, "extrude": 0, "visibility": -1, "drawOrder": null, "icon": null, "category_group": "Information"}, "geometry": {"type": "Point", "coordinates": [8.0254844, 47.8656328]}}, {"type": "Feature", "properties": {"Name": "Feldberger Hof", "description": "<b>Kategorie:</b> Information — Besucherinformation<br><b>Distanz:</b>  766 m<br><b>Website:</b> <br><b>Wikipedia:</b> <br><b>Telefon:</b> ", "timestamp": null, "begin": null, "end": null, "altitudeMode": null, "tessellate": -1, "extrude": 0, "visibility": -1, "drawOrder": null, "icon": null, "category_group": "Information"}, "geometry": {"type": "Point", "coordinates": [8.0374454, 47.8589079]}}, {"type": "Feature", "properties": {"Name": "Am Feldberggipfel", "description": "<b>Kategorie:</b> Information — Besucherinformation<br><b>Distanz:</b> 2455 m<br><b>Website:</b> <br><b>Wikipedia:</b> <br><b>Telefon:</b> ", "timestamp": null, "begin": null, "end": null, "altitudeMode": null, "tessellate": -1, "extrude": 0, "visibility": -1, "drawOrder": null, "icon": null, "category_group": "Information"}, "geometry": {"type": "Point", "coordinates": [8.005331, 47.873226]}}, {"type": "Feature", "properties": {"Name": "Grüblesattel", "description": "<b>Kategorie:</b> Information — Besucherinformation<br><b>Distanz:</b> 1356 m<br><b>Website:</b> <br><b>Wikipedia:</b> <br><b>Telefon:</b> ", "timestamp": null, "begin": null, "end": null, "altitudeMode": null, "tessellate": -1, "extrude": 0, "visibility": -1, "drawOrder": null, "icon": null, "category_group": "Information"}, "geometry": {"type": "Point", "coordinates": [8.0179547, 47.8673257]}}, {"type": "Feature", "properties": {"Name": "Haus der Natur", "description": "<b>Kategorie:</b> Information — Besucherinformation<br><b>Distanz:</b>  726 m<br><b>Website:</b> <br><b>Wikipedia:</b> <br><b>Telefon:</b> ", "timestamp": null, "begin": null, "end": null, "altitudeMode": null, "tessellate": -1, "extrude": 0, "visibility": -1, "drawOrder": null, "icon": null, "category_group": "Information"}, "geometry": {"type": "Point", "coordinates": [8.0359151, 47.8603692]}}, {"type": "Feature", "properties": {"Name": "Herzogenhornblick", "description": "<b>Kategorie:</b> Information — Besucherinformation<br><b>Distanz:</b>  508 m<br><b>Website:</b> <br><b>Wikipedia:</b> <br><b>Telefon:</b> ", "timestamp": null, "begin": null, "end": null, "altitudeMode": null, "tessellate": -1, "extrude": 0, "visibility": -1, "drawOrder": null, "icon": null, "category_group": "Information"}, "geometry": {"type": "Point", "coordinates": [8.0261635, 47.8614644]}}, {"type": "Feature", "properties": {"Name": "Am Raimartihof", "description": "<b>Kategorie:</b> Information — Besucherinformation<br><b>Distanz:</b> 1875 m<br><b>Website:</b> <br><b>Wikipedia:</b> <br><b>Telefon:</b> ", "timestamp": null, "begin": null, "end": null, "altitudeMode": null, "tessellate": -1, "extrude": 0, "visibility": -1, "drawOrder": null, "icon": null, "category_group": "Information"}, "geometry": {"type": "Point", "coordinates": [8.0390402, 47.8720159]}}, {"type": "Feature", "properties": {"Name": "Raimartihof (Koppel)", "description": "<b>Kategorie:</b> Information — Besucherinformation<br><b>Distanz:</b> 1937 m<br><b>Website:</b> <br><b>Wikipedia:</b> <br><b>Telefon:</b> ", "timestamp": null, "begin": null, "end": null, "altitudeMode": null, "tessellate": -1, "extrude": 0, "visibility": -1, "drawOrder": null, "icon": null, "category_group": "Information"}, "geometry": {"type": "Point", "coordinates": [8.038893, 47.8726844]}}, {"type": "Feature", "properties": {"Name": "Seesträßle", "description": "<b>Kategorie:</b> Information — Besucherinformation<br><b>Distanz:</b> 1742 m<br><b>Website:</b> <br><b>Wikipedia:</b> <br><b>Telefon:</b> ", "timestamp": null, "begin": null, "end": null, "altitudeMode": null, "tessellate": -1, "extrude": 0, "visibility": -1, "drawOrder": null, "icon": null, "category_group": "Information"}, "geometry": {"type": "Point", "coordinates": [8.0393459, 47.8705357]}}, {"type": "Feature", "properties": {"Name": "Oberhalb Zastler Hütte", "description": "<b>Kategorie:</b> Information — Besucherinformation<br><b>Distanz:</b> 3071 m<br><b>Website:</b> <br><b>Wikipedia:</b> <br><b>Telefon:</b> ", "timestamp": null, "begin": null, "end": null, "altitudeMode": null, "tessellate": -1, "extrude": 0, "visibility": -1, "drawOrder": null, "icon": null, "category_group": "Information"}, "geometry": {"type": "Point", "coordinates": [8.002276, 47.8787497]}}, {"type": "Feature", "properties": {"Name": "Fahler Wasserfall", "description": "<b>Kategorie:</b> Information — Besucherinformation<br><b>Distanz:</b> 2162 m<br><b>Website:</b> <br><b>Wikipedia:</b> <br><b>Telefon:</b> ", "timestamp": null, "begin": null, "end": null, "altitudeMode": null, "tessellate": -1, "extrude": 0, "visibility": -1, "drawOrder": null, "icon": null, "category_group": "Information"}, "geometry": {"type": "Point", "coordinates": [7.9987048, 47.857319]}}, {"type": "Feature", "properties": {"Name": "Unterm Grüble", "description": "<b>Kategorie:</b> Information — Besucherinformation<br><b>Distanz:</b> 1911 m<br><b>Website:</b> <br><b>Wikipedia:</b> <br><b>Telefon:</b> ", "timestamp": null, "begin": null, "end": null, "altitudeMode": null, "tessellate": -1, "extrude": 0, "visibility": -1, "drawOrder": null, "icon": null, "category_group": "Information"}, "geometry": {"type": "Point", "coordinates": [8.0269295, 47.874187]}}, {"type": "Feature", "properties": {"Name": "Oberhalb Todtnauer Hütte", "description": "<b>Kategorie:</b> Information — Besucherinformation<br><b>Distanz:</b> 2507 m<br><b>Website:</b> <br><b>Wikipedia:</b> <br><b>Telefon:</b> ", "timestamp": null, "begin": null, "end": null, "altitudeMode": null, "tessellate": -1, "extrude": 0, "visibility": -1, "drawOrder": null, "icon": null, "category_group": "Information"}, "geometry": {"type": "Point", "coordinates": [8.0023691, 47.8718434]}}, {"type": "Feature", "properties": {"Name": "St. Wilhelmer Hütte", "description": "<b>Kategorie:</b> Information — Besucherinformation<br><b>Distanz:</b> 2799 m<br><b>Website:</b> <br><b>Wikipedia:</b> <br><b>Telefon:</b> ", "timestamp": null, "begin": null, "end": null, "altitudeMode": null, "tessellate": -1, "extrude": 0, "visibility": -1, "drawOrder": null, "icon": null, "category_group": "Information"}, "geometry": {"type": "Point", "coordinates": [7.9977287, 47.8721667]}}, {"type": "Feature", "properties": {"Name": "Am Goldersbach", "description": "<b>Kategorie:</b> Information — Besucherinformation<br><b>Distanz:</b> 2717 m<br><b>Website:</b> <br><b>Wikipedia:</b> <br><b>Telefon:</b> ", "timestamp": null, "begin": null, "end": null, "altitudeMode": null, "tessellate": -1, "extrude": 0, "visibility": -1, "drawOrder": null, "icon": null, "category_group": "Information"}, "geometry": {"type": "Point", "coordinates": [8.046224, 47.8779915]}}, {"type": "Feature", "properties": {"Name": "Oskar-Andris-Eck", "description": "<b>Kategorie:</b> Information — Besucherinformation<br><b>Distanz:</b> 1884 m<br><b>Website:</b> <br><b>Wikipedia:</b> <br><b>Telefon:</b> ", "timestamp": null, "begin": null, "end": null, "altitudeMode": null, "tessellate": -1, "extrude": 0, "visibility": -1, "drawOrder": null, "icon": null, "category_group": "Information"}, "geometry": {"type": "Point", "coordinates": [8.0380968, 47.8724058]}}, {"type": "Feature", "properties": {"Name": "Raimartihof", "description": "<b>Kategorie:</b> Information — Besucherinformation<br><b>Distanz:</b> 2067 m<br><b>Website:</b> <br><b>Wikipedia:</b> <br><b>Telefon:</b> ", "timestamp": null, "begin": null, "end": null, "altitudeMode": null, "tessellate": -1, "extrude": 0, "visibility": -1, "drawOrder": null, "icon": null, "category_group": "Information"}, "geometry": {"type": "Point", "coordinates": [8.0413427, 47.8731303]}}, {"type": "Feature", "properties": {"Name": "Raimartihöhe", "description": "<b>Kategorie:</b> Information — Besucherinformation<br><b>Distanz:</b> 2333 m<br><b>Website:</b> <br><b>Wikipedia:</b> <br><b>Telefon:</b> ", "timestamp": null, "begin": null, "end": null, "altitudeMode": null, "tessellate": -1, "extrude": 0, "visibility": -1, "drawOrder": null, "icon": null, "category_group": "Information"}, "geometry": {"type": "Point", "coordinates": [8.0432865, 47.8751419]}}, {"type": "Feature", "properties": {"Name": "Sägenbachdobel oben", "description": "<b>Kategorie:</b> Information — Besucherinformation<br><b>Distanz:</b> 2567 m<br><b>Website:</b> <br><b>Wikipedia:</b> <br><b>Telefon:</b> ", "timestamp": null, "begin": null, "end": null, "altitudeMode": null, "tessellate": -1, "extrude": 0, "visibility": -1, "drawOrder": null, "icon": null, "category_group": "Information"}, "geometry": {"type": "Point", "coordinates": [8.0190368, 47.879366]}}, {"type": "Feature", "properties": {"Name": "Feldsee", "description": "<b>Kategorie:</b> Information — Besucherinformation<br><b>Distanz:</b> 1541 m<br><b>Website:</b> <br><b>Wikipedia:</b> <br><b>Telefon:</b> ", "timestamp": null, "begin": null, "end": null, "altitudeMode": null, "tessellate": -1, "extrude": 0, "visibility": -1, "drawOrder": null, "icon": null, "category_group": "Information"}, "geometry": {"type": "Point", "coordinates": [8.0350777, 47.8699178]}}, {"type": "Feature", "properties": {"Name": "Steiertenschlag", "description": "<b>Kategorie:</b> Information — Besucherinformation<br><b>Distanz:</b> 2153 m<br><b>Website:</b> <br><b>Wikipedia:</b> <br><b>Telefon:</b> ", "timestamp": null, "begin": null, "end": null, "altitudeMode": null, "tessellate": -1, "extrude": 0, "visibility": -1, "drawOrder": null, "icon": null, "category_group": "Information"}, "geometry": {"type": "Point", "coordinates": [8.0448094, 47.872534]}}, {"type": "Feature", "properties": {"Name": "nordic aktiv zentrum St. Blasien", "description": "<b>Kategorie:</b> Information — Besucherinformation<br><b>Distanz:</b> 5584 m<br><b>Website:</b> <br><b>Wikipedia:</b> <br><b>Telefon:</b> ", "timestamp": null, "begin": null, "end": null, "altitudeMode": null, "tessellate": -1, "extrude": 0, "visibility": -1, "drawOrder": null, "icon": null, "category_group": "Information"}, "geometry": {"type": "Point", "coordinates": [8.0876976, 47.8272171]}}, {"type": "Feature", "properties": {"Name": "Am Felsenweg", "description": "<b>Kategorie:</b> Information — Besucherinformation<br><b>Distanz:</b>  906 m<br><b>Website:</b> <br><b>Wikipedia:</b> <br><b>Telefon:</b> ", "timestamp": null, "begin": null, "end": null, "altitudeMode": null, "tessellate": -1, "extrude": 0, "visibility": -1, "drawOrder": null, "icon": null, "category_group": "Information"}, "geometry": {"type": "Point", "coordinates": [8.0330338, 47.8642874]}}, {"type": "Feature", "properties": {"Name": "Maria Loch", "description": "<b>Kategorie:</b> Information — Besucherinformation<br><b>Distanz:</b> 1425 m<br><b>Website:</b> <br><b>Wikipedia:</b> <br><b>Telefon:</b> ", "timestamp": null, "begin": null, "end": null, "altitudeMode": null, "tessellate": -1, "extrude": 0, "visibility": -1, "drawOrder": null, "icon": null, "category_group": "Information"}, "geometry": {"type": "Point", "coordinates": [8.0458984, 47.853414]}}, {"type": "Feature", "properties": {"Name": "Klusenwald", "description": "<b>Kategorie:</b> Information — Besucherinformation<br><b>Distanz:</b> 2144 m<br><b>Website:</b> <br><b>Wikipedia:</b> <br><b>Telefon:</b> ", "timestamp": null, "begin": null, "end": null, "altitudeMode": null, "tessellate": -1, "extrude": 0, "visibility": -1, "drawOrder": null, "icon": null, "category_group": "Information"}, "geometry": {"type": "Point", "coordinates": [8.0548186, 47.8509592]}}, {"type": "Feature", "properties": {"Name": "Feldseeweg", "description": "<b>Kategorie:</b> Information — Besucherinformation<br><b>Distanz:</b> 2403 m<br><b>Website:</b> <br><b>Wikipedia:</b> <br><b>Telefon:</b> ", "timestamp": null, "begin": null, "end": null, "altitudeMode": null, "tessellate": -1, "extrude": 0, "visibility": -1, "drawOrder": null, "icon": null, "category_group": "Information"}, "geometry": {"type": "Point", "coordinates": [8.0556489, 47.8675368]}}, {"type": "Feature", "properties": {"Name": "Auerhahn Familie", "description": "<b>Kategorie:</b> Information — Besucherinformation<br><b>Distanz:</b> 1149 m<br><b>Website:</b> <br><b>Wikipedia:</b> <br><b>Telefon:</b> ", "timestamp": null, "begin": null, "end": null, "altitudeMode": null, "tessellate": -1, "extrude": 0, "visibility": -1, "drawOrder": null, "icon": null, "category_group": "Information"}, "geometry": {"type": "Point", "coordinates": [8.0412354, 47.8617564]}}, {"type": "Feature", "properties": {"Name": "nordicaktiv zentrum Feldberg", "description": "<b>Kategorie:</b> Information — Besucherinformation<br><b>Distanz:</b>  681 m<br><b>Website:</b> <br><b>Wikipedia:</b> <br><b>Telefon:</b> ", "timestamp": null, "begin": null, "end": null, "altitudeMode": null, "tessellate": -1, "extrude": 0, "visibility": -1, "drawOrder": null, "icon": null, "category_group": "Information"}, "geometry": {"type": "Point", "coordinates": [8.0355375, 47.8600052]}}, {"type": "Feature", "properties": {"Name": "Einstieg zum Wichtelpfad", "description": "<b>Kategorie:</b> Information — Besucherinformation<br><b>Distanz:</b>  777 m<br><b>Website:</b> https://www.naturpark-suedschwarzwald.de/Bildungsangebote/Haus%20der%20Natur/wichtelpfad<br><b>Wikipedia:</b> <br><b>Telefon:</b> ", "timestamp": null, "begin": null, "end": null, "altitudeMode": null, "tessellate": -1, "extrude": 0, "visibility": -1, "drawOrder": null, "icon": null, "category_group": "Information"}, "geometry": {"type": "Point", "coordinates": [8.0373291, 47.8594576]}}, {"type": "Feature", "properties": {"Name": "Hebelweg Johann Peter Hebel", "description": "<b>Kategorie:</b> Information — Besucherinformation<br><b>Distanz:</b>  226 m<br><b>Website:</b> <br><b>Wikipedia:</b> <br><b>Telefon:</b> ", "timestamp": null, "begin": null, "end": null, "altitudeMode": null, "tessellate": -1, "extrude": 0, "visibility": -1, "drawOrder": null, "icon": null, "category_group": "Information"}, "geometry": {"type": "Point", "coordinates": [8.0247884, 47.8562622]}}, {"type": "Feature", "properties": {"Name": "Fahler Wasserfall Rotenbacher Rank", "description": "<b>Kategorie:</b> Information — Besucherinformation<br><b>Distanz:</b> 2315 m<br><b>Website:</b> <br><b>Wikipedia:</b> <br><b>Telefon:</b> ", "timestamp": null, "begin": null, "end": null, "altitudeMode": null, "tessellate": -1, "extrude": 0, "visibility": -1, "drawOrder": null, "icon": null, "category_group": "Information"}, "geometry": {"type": "Point", "coordinates": [7.9967204, 47.8583635]}}, {"type": "Feature", "properties": {"Name": "Hebelhof Parkplatz Grafenmatt 1230 m", "description": "<b>Kategorie:</b> Information — Besucherinformation<br><b>Distanz:</b>  215 m<br><b>Website:</b> <br><b>Wikipedia:</b> <br><b>Telefon:</b> ", "timestamp": null, "begin": null, "end": null, "altitudeMode": null, "tessellate": -1, "extrude": 0, "visibility": -1, "drawOrder": null, "icon": null, "category_group": "Information"}, "geometry": {"type": "Point", "coordinates": [8.0293982, 47.8554836]}}, {"type": "Feature", "properties": {"Name": "Wasserfallsteig Todtnau", "description": "<b>Kategorie:</b> Information — Besucherinformation<br><b>Distanz:</b> 2231 m<br><b>Website:</b> <br><b>Wikipedia:</b> <br><b>Telefon:</b> ", "timestamp": null, "begin": null, "end": null, "altitudeMode": null, "tessellate": -1, "extrude": 0, "visibility": -1, "drawOrder": null, "icon": null, "category_group": "Information"}, "geometry": {"type": "Point", "coordinates": [7.997868, 47.8585004]}}, {"type": "Feature", "properties": {"Name": "Hebelhof", "description": "<b>Kategorie:</b> Information — Besucherinformation<br><b>Distanz:</b>  121 m<br><b>Website:</b> <br><b>Wikipedia:</b> <br><b>Telefon:</b> ", "timestamp": null, "begin": null, "end": null, "altitudeMode": null, "tessellate": -1, "extrude": 0, "visibility": -1, "drawOrder": null, "icon": null, "category_group": "Information"}, "geometry": {"type": "Point", "coordinates": [8.0287861, 47.8562583]}}, {"type": "Feature", "properties": {"Name": "Abzweig Hebelweg", "description": "<b>Kategorie:</b> Information — Besucherinformation<br><b>Distanz:</b>  221 m<br><b>Website:</b> <br><b>Wikipedia:</b> <br><b>Telefon:</b> ", "timestamp": null, "begin": null, "end": null, "altitudeMode": null, "tessellate": -1, "extrude": 0, "visibility": -1, "drawOrder": null, "icon": null, "category_group": "Information"}, "geometry": {"type": "Point", "coordinates": [8.0248615, 47.8562533]}}, {"type": "Feature", "properties": {"Name": "Gipfeltrail", "description": "<b>Kategorie:</b> Information — Besucherinformation<br><b>Distanz:</b>  223 m<br><b>Website:</b> <br><b>Wikipedia:</b> <br><b>Telefon:</b> ", "timestamp": null, "begin": null, "end": null, "altitudeMode": null, "tessellate": -1, "extrude": 0, "visibility": -1, "drawOrder": null, "icon": null, "category_group": "Information"}, "geometry": {"type": "Point", "coordinates": [8.0305862, 47.8568927]}}, {"type": "Feature", "properties": {"Name": "Alte Schanze", "description": "<b>Kategorie:</b> Information — Besucherinformation<br><b>Distanz:</b> 2572 m<br><b>Website:</b> <br><b>Wikipedia:</b> <br><b>Telefon:</b> ", "timestamp": null, "begin": null, "end": null, "altitudeMode": null, "tessellate": -1, "extrude": 0, "visibility": -1, "drawOrder": null, "icon": null, "category_group": "Information"}, "geometry": {"type": "Point", "coordinates": [8.0144405, 47.8356228]}}, {"type": "Feature", "properties": {"Name": "E. Maurer Weg", "description": "<b>Kategorie:</b> Information — Besucherinformation<br><b>Distanz:</b> 1733 m<br><b>Website:</b> <br><b>Wikipedia:</b> <br><b>Telefon:</b> ", "timestamp": null, "begin": null, "end": null, "altitudeMode": null, "tessellate": -1, "extrude": 0, "visibility": -1, "drawOrder": null, "icon": null, "category_group": "Information"}, "geometry": {"type": "Point", "coordinates": [8.0500345, 47.8608871]}}, {"type": "Feature", "properties": {"Name": "Hochkopf Nord", "description": "<b>Kategorie:</b> Information — Besucherinformation<br><b>Distanz:</b> 1257 m<br><b>Website:</b> <br><b>Wikipedia:</b> <br><b>Telefon:</b> ", "timestamp": null, "begin": null, "end": null, "altitudeMode": null, "tessellate": -1, "extrude": 0, "visibility": -1, "drawOrder": null, "icon": null, "category_group": "Information"}, "geometry": {"type": "Point", "coordinates": [8.044382, 47.8564274]}}, {"type": "Feature", "properties": {"Name": "Hochkopf Süd", "description": "<b>Kategorie:</b> Information — Besucherinformation<br><b>Distanz:</b> 1313 m<br><b>Website:</b> <br><b>Wikipedia:</b> <br><b>Telefon:</b> ", "timestamp": null, "begin": null, "end": null, "altitudeMode": null, "tessellate": -1, "extrude": 0, "visibility": -1, "drawOrder": null, "icon": null, "category_group": "Information"}, "geometry": {"type": "Point", "coordinates": [8.0447978, 47.8546295]}}, {"type": "Feature", "properties": {"Name": "Feldbergsträßle", "description": "<b>Kategorie:</b> Information — Besucherinformation<br><b>Distanz:</b> 2634 m<br><b>Website:</b> <br><b>Wikipedia:</b> <br><b>Telefon:</b> ", "timestamp": null, "begin": null, "end": null, "altitudeMode": null, "tessellate": -1, "extrude": 0, "visibility": -1, "drawOrder": null, "icon": null, "category_group": "Information"}, "geometry": {"type": "Point", "coordinates": [7.9960754, 47.8675571]}}, {"type": "Feature", "properties": {"Name": "Abzweig Fahl", "description": "<b>Kategorie:</b> Information — Besucherinformation<br><b>Distanz:</b> 2447 m<br><b>Website:</b> <br><b>Wikipedia:</b> <br><b>Telefon:</b> ", "timestamp": null, "begin": null, "end": null, "altitudeMode": null, "tessellate": -1, "extrude": 0, "visibility": -1, "drawOrder": null, "icon": null, "category_group": "Information"}, "geometry": {"type": "Point", "coordinates": [7.9986529, 47.8672516]}}, {"type": "Feature", "properties": {"Name": "Todtnauer Hütte", "description": "<b>Kategorie:</b> Information — Besucherinformation<br><b>Distanz:</b> 2337 m<br><b>Website:</b> <br><b>Wikipedia:</b> <br><b>Telefon:</b> ", "timestamp": null, "begin": null, "end": null, "altitudeMode": null, "tessellate": -1, "extrude": 0, "visibility": -1, "drawOrder": null, "icon": null, "category_group": "Information"}, "geometry": {"type": "Point", "coordinates": [8.0002798, 47.8672025]}}, {"type": "Feature", "properties": {"Name": "Wiesentalblick", "description": "<b>Kategorie:</b> Information — Besucherinformation<br><b>Distanz:</b>  886 m<br><b>Website:</b> <br><b>Wikipedia:</b> <br><b>Telefon:</b> ", "timestamp": null, "begin": null, "end": null, "altitudeMode": null, "tessellate": -1, "extrude": 0, "visibility": -1, "drawOrder": null, "icon": null, "category_group": "Information"}, "geometry": {"type": "Point", "coordinates": [8.0189527, 47.8624508]}}, {"type": "Feature", "properties": {"Name": "Schesslong dü Boah", "description": "<b>Kategorie:</b> Information — Besucherinformation<br><b>Distanz:</b> 3014 m<br><b>Website:</b> <br><b>Wikipedia:</b> <br><b>Telefon:</b> ", "timestamp": null, "begin": null, "end": null, "altitudeMode": null, "tessellate": -1, "extrude": 0, "visibility": -1, "drawOrder": null, "icon": null, "category_group": "Information"}, "geometry": {"type": "Point", "coordinates": [8.0606879, 47.8415298]}}, {"type": "Feature", "properties": {"Name": "Bei der Radonquelle", "description": "<b>Kategorie:</b> Information — Besucherinformation<br><b>Distanz:</b> 2549 m<br><b>Website:</b> <br><b>Wikipedia:</b> <br><b>Telefon:</b> ", "timestamp": null, "begin": null, "end": null, "altitudeMode": null, "tessellate": -1, "extrude": 0, "visibility": -1, "drawOrder": null, "icon": null, "category_group": "Information"}, "geometry": {"type": "Point", "coordinates": [8.045488, 47.8374813]}}, {"type": "Feature", "properties": {"Name": "Bei der Zastler Hütte", "description": "<b>Kategorie:</b> Information — Besucherinformation<br><b>Distanz:</b> 2882 m<br><b>Website:</b> <br><b>Wikipedia:</b> <br><b>Telefon:</b> ", "timestamp": null, "begin": null, "end": null, "altitudeMode": null, "tessellate": -1, "extrude": 0, "visibility": -1, "drawOrder": null, "icon": null, "category_group": "Information"}, "geometry": {"type": "Point", "coordinates": [8.0077624, 47.879224]}}, {"type": "Feature", "properties": {"Name": "Bei der Menzenschwander Hütte", "description": "<b>Kategorie:</b> Information — Besucherinformation<br><b>Distanz:</b>  770 m<br><b>Website:</b> <br><b>Wikipedia:</b> <br><b>Telefon:</b> ", "timestamp": null, "begin": null, "end": null, "altitudeMode": null, "tessellate": -1, "extrude": 0, "visibility": -1, "drawOrder": null, "icon": null, "category_group": "Information"}, "geometry": {"type": "Point", "coordinates": [8.0347703, 47.8520278]}}, {"type": "Feature", "properties": {"Name": "Ruckenhütte", "description": "<b>Kategorie:</b> Information — Besucherinformation<br><b>Distanz:</b> 2070 m<br><b>Website:</b> <br><b>Wikipedia:</b> <br><b>Telefon:</b> ", "timestamp": null, "begin": null, "end": null, "altitudeMode": null, "tessellate": -1, "extrude": 0, "visibility": -1, "drawOrder": null, "icon": null, "category_group": "Information"}, "geometry": {"type": "Point", "coordinates": [8.050645, 47.8466882]}}, {"type": "Feature", "properties": {"Name": "Folgen und Zeugen der Feldbergvergletscherung", "description": "<b>Kategorie:</b> Information — Besucherinformation<br><b>Distanz:</b> 2290 m<br><b>Website:</b> <br><b>Wikipedia:</b> <br><b>Telefon:</b> ", "timestamp": null, "begin": null, "end": null, "altitudeMode": null, "tessellate": -1, "extrude": 0, "visibility": -1, "drawOrder": null, "icon": null, "category_group": "Information"}, "geometry": {"type": "Point", "coordinates": [8.0581046, 47.8552002]}}, {"type": "Feature", "properties": {"Name": "nordic aktiv Ausbildungszentrum Feldberg-Herzogenhorn", "description": "<b>Kategorie:</b> Information — Besucherinformation<br><b>Distanz:</b> 1574 m<br><b>Website:</b> <br><b>Wikipedia:</b> <br><b>Telefon:</b> ", "timestamp": null, "begin": null, "end": null, "altitudeMode": null, "tessellate": -1, "extrude": 0, "visibility": -1, "drawOrder": null, "icon": null, "category_group": "Information"}, "geometry": {"type": "Point", "coordinates": [8.0186436, 47.8441905]}}, {"type": "Feature", "properties": {"Name": "Gipfeltrail", "description": "<b>Kategorie:</b> Information — Besucherinformation<br><b>Distanz:</b> 1575 m<br><b>Website:</b> <br><b>Wikipedia:</b> <br><b>Telefon:</b> ", "timestamp": null, "begin": null, "end": null, "altitudeMode": null, "tessellate": -1, "extrude": 0, "visibility": -1, "drawOrder": null, "icon": null, "category_group": "Information"}, "geometry": {"type": "Point", "coordinates": [8.0185081, 47.8442215]}}, {"type": "Feature", "properties": {"Name": "Raimartihof-Halde", "description": "<b>Kategorie:</b> Information — Besucherinformation<br><b>Distanz:</b> 2306 m<br><b>Website:</b> <br><b>Wikipedia:</b> <br><b>Telefon:</b> ", "timestamp": null, "begin": null, "end": null, "altitudeMode": null, "tessellate": -1, "extrude": 0, "visibility": -1, "drawOrder": null, "icon": null, "category_group": "Information"}, "geometry": {"type": "Point", "coordinates": [8.0381541, 47.8764935]}}, {"type": "Feature", "properties": {"Name": "Hintere Halde", "description": "<b>Kategorie:</b> Information — Besucherinformation<br><b>Distanz:</b> 2305 m<br><b>Website:</b> <br><b>Wikipedia:</b> <br><b>Telefon:</b> ", "timestamp": null, "begin": null, "end": null, "altitudeMode": null, "tessellate": -1, "extrude": 0, "visibility": -1, "drawOrder": null, "icon": null, "category_group": "Information"}, "geometry": {"type": "Point", "coordinates": [8.0362657, 47.8768971]}}, {"type": "Feature", "properties": {"Name": "Feldbergpass", "description": "<b>Kategorie:</b> Information — Besucherinformation<br><b>Distanz:</b>  281 m<br><b>Website:</b> <br><b>Wikipedia:</b> <br><b>Telefon:</b> ", "timestamp": null, "begin": null, "end": null, "altitudeMode": null, "tessellate": -1, "extrude": 0, "visibility": -1, "drawOrder": null, "icon": null, "category_group": "Information"}, "geometry": {"type": "Point", "coordinates": [8.0313133, 47.8566276]}}, {"type": "Feature", "properties": {"Name": "nordic aktiv zentrum St. Blasien", "description": "<b>Kategorie:</b> Information — Besucherinformation<br><b>Distanz:</b> 1997 m<br><b>Website:</b> <br><b>Wikipedia:</b> <br><b>Telefon:</b> ", "timestamp": null, "begin": null, "end": null, "altitudeMode": null, "tessellate": -1, "extrude": 0, "visibility": -1, "drawOrder": null, "icon": null, "category_group": "Information"}, "geometry": {"type": "Point", "coordinates": [8.0542915, 47.8567181]}}, {"type": "Feature", "properties": {"Name": "Tor zum Höchsten", "description": "<b>Kategorie:</b> Kultur & Geschichte — Attraktion<br><b>Distanz:</b>  634 m<br><b>Website:</b> <br><b>Wikipedia:</b> <br><b>Telefon:</b> ", "timestamp": null, "begin": null, "end": null, "altitudeMode": null, "tessellate": -1, "extrude": 0, "visibility": -1, "drawOrder": null, "icon": null, "category_group": "Kultur & Geschichte"}, "geometry": {"type": "Point", "coordinates": [8.035092, 47.8596662]}}, {"type": "Feature", "properties": {"Name": "Fahler Wasserfall", "description": "<b>Kategorie:</b> Kultur & Geschichte — Attraktion<br><b>Distanz:</b> 2207 m<br><b>Website:</b> <br><b>Wikipedia:</b> <br><b>Telefon:</b> ", "timestamp": null, "begin": null, "end": null, "altitudeMode": null, "tessellate": -1, "extrude": 0, "visibility": -1, "drawOrder": null, "icon": null, "category_group": "Kultur & Geschichte"}, "geometry": {"type": "Point", "coordinates": [7.9981099, 47.8573579]}}, {"type": "Feature", "properties": {"Name": "Schinkenmuseum", "description": "<b>Kategorie:</b> Kultur & Geschichte — Museum<br><b>Distanz:</b>  926 m<br><b>Website:</b> http://m.hochschwarzwald.de/Media/Attraktionen/Schwarzwaelder-Schinkenmuseum<br><b>Wikipedia:</b> <br><b>Telefon:</b> ", "timestamp": null, "begin": null, "end": null, "altitudeMode": null, "tessellate": -1, "extrude": 0, "visibility": -1, "drawOrder": null, "icon": null, "category_group": "Kultur & Geschichte"}, "geometry": {"type": "Point", "coordinates": [8.0221448, 47.8644759]}}, {"type": "Feature", "properties": {"Name": "Kohlenmeiler", "description": "<b>Kategorie:</b> Kultur & Geschichte — Attraktion<br><b>Distanz:</b> 2069 m<br><b>Website:</b> <br><b>Wikipedia:</b> <br><b>Telefon:</b> ", "timestamp": null, "begin": null, "end": null, "altitudeMode": null, "tessellate": -1, "extrude": 0, "visibility": -1, "drawOrder": null, "icon": null, "category_group": "Kultur & Geschichte"}, "geometry": {"type": "Point", "coordinates": [8.0540519, 47.8515555]}}, {"type": "Feature", "properties": {"Name": "Ausstellungsraum Albi Maier", "description": "<b>Kategorie:</b> Kultur & Geschichte — Galerie<br><b>Distanz:</b>  909 m<br><b>Website:</b> https://albi-maier.de<br><b>Wikipedia:</b> <br><b>Telefon:</b> ", "timestamp": null, "begin": null, "end": null, "altitudeMode": null, "tessellate": -1, "extrude": 0, "visibility": -1, "drawOrder": null, "icon": null, "category_group": "Kultur & Geschichte"}, "geometry": {"type": "Point", "coordinates": [8.0221902, 47.8643194]}}, {"type": "Feature", "properties": {"Name": "Feldberg", "description": "<b>Kategorie:</b> Natur & Landschaft — Natur-Feature (alle)<br><b>Distanz:</b> 2551 m<br><b>Website:</b> <br><b>Wikipedia:</b> de:Feldberg (Berg im Schwarzwald)<br><b>Telefon:</b> ", "timestamp": null, "begin": null, "end": null, "altitudeMode": null, "tessellate": -1, "extrude": 0, "visibility": -1, "drawOrder": null, "icon": null, "category_group": "Natur & Landschaft"}, "geometry": {"type": "Point", "coordinates": [8.0046735, 47.8739912]}}, {"type": "Feature", "properties": {"Name": "Herzogenhorn", "description": "<b>Kategorie:</b> Natur & Landschaft — Natur-Feature (alle)<br><b>Distanz:</b> 2482 m<br><b>Website:</b> <br><b>Wikipedia:</b> de:Herzogenhorn<br><b>Telefon:</b> ", "timestamp": null, "begin": null, "end": null, "altitudeMode": null, "tessellate": -1, "extrude": 0, "visibility": -1, "drawOrder": null, "icon": null, "category_group": "Natur & Landschaft"}, "geometry": {"type": "Point", "coordinates": [8.0193433, 47.8353762]}}, {"type": "Feature", "properties": {"Name": "Feldbergpass", "description": "<b>Kategorie:</b> Natur & Landschaft — Natur-Feature (alle)<br><b>Distanz:</b>  134 m<br><b>Website:</b> <br><b>Wikipedia:</b> de:Feldbergpass<br><b>Telefon:</b> ", "timestamp": null, "begin": null, "end": null, "altitudeMode": null, "tessellate": -1, "extrude": 0, "visibility": -1, "drawOrder": null, "icon": null, "category_group": "Natur & Landschaft"}, "geometry": {"type": "Point", "coordinates": [8.0290759, 47.8563133]}}, {"type": "Feature", "properties": {"Name": "Wiesenquelle", "description": "<b>Kategorie:</b> Natur & Landschaft — Natur-Feature (alle)<br><b>Distanz:</b>  168 m<br><b>Website:</b> <br><b>Wikipedia:</b> <br><b>Telefon:</b> ", "timestamp": null, "begin": null, "end": null, "altitudeMode": null, "tessellate": -1, "extrude": 0, "visibility": -1, "drawOrder": null, "icon": null, "category_group": "Natur & Landschaft"}, "geometry": {"type": "Point", "coordinates": [8.0255565, 47.8563773]}}, {"type": "Feature", "properties": {"Name": "Baldenweger Buck", "description": "<b>Kategorie:</b> Natur & Landschaft — Natur-Feature (alle)<br><b>Distanz:</b> 2439 m<br><b>Website:</b> <br><b>Wikipedia:</b> de:Baldenweger Buck<br><b>Telefon:</b> ", "timestamp": null, "begin": null, "end": null, "altitudeMode": null, "tessellate": -1, "extrude": 0, "visibility": -1, "drawOrder": null, "icon": null, "category_group": "Natur & Landschaft"}, "geometry": {"type": "Point", "coordinates": [8.0147486, 47.877169]}}, {"type": "Feature", "properties": {"Name": "Blick ins Menzenschwander Tal", "description": "<b>Kategorie:</b> Natur & Landschaft — Aussichtspunkt<br><b>Distanz:</b> 2295 m<br><b>Website:</b> <br><b>Wikipedia:</b> <br><b>Telefon:</b> ", "timestamp": null, "begin": null, "end": null, "altitudeMode": null, "tessellate": -1, "extrude": 0, "visibility": -1, "drawOrder": null, "icon": null, "category_group": "Natur & Landschaft"}, "geometry": {"type": "Point", "coordinates": [8.0581592, 47.8551831]}}, {"type": "Feature", "properties": {"Name": "Grafenmatt", "description": "<b>Kategorie:</b> Natur & Landschaft — Natur-Feature (alle)<br><b>Distanz:</b> 1148 m<br><b>Website:</b> <br><b>Wikipedia:</b> <br><b>Telefon:</b> ", "timestamp": null, "begin": null, "end": null, "altitudeMode": null, "tessellate": -1, "extrude": 0, "visibility": -1, "drawOrder": null, "icon": null, "category_group": "Natur & Landschaft"}, "geometry": {"type": "Point", "coordinates": [8.0204329, 47.8478709]}}, {"type": "Feature", "properties": {"Name": "Schläglebachkopf", "description": "<b>Kategorie:</b> Natur & Landschaft — Natur-Feature (alle)<br><b>Distanz:</b> 1865 m<br><b>Website:</b> <br><b>Wikipedia:</b> <br><b>Telefon:</b> ", "timestamp": null, "begin": null, "end": null, "altitudeMode": null, "tessellate": -1, "extrude": 0, "visibility": -1, "drawOrder": null, "icon": null, "category_group": "Natur & Landschaft"}, "geometry": {"type": "Point", "coordinates": [8.009354, 47.8455664]}}, {"type": "Feature", "properties": {"Name": "Seebuck", "description": "<b>Kategorie:</b> Natur & Landschaft — Natur-Feature (alle)<br><b>Distanz:</b>  928 m<br><b>Website:</b> <br><b>Wikipedia:</b> de:Seebuck<br><b>Telefon:</b> ", "timestamp": null, "begin": null, "end": null, "altitudeMode": null, "tessellate": -1, "extrude": 0, "visibility": -1, "drawOrder": null, "icon": null, "category_group": "Natur & Landschaft"}, "geometry": {"type": "Point", "coordinates": [8.0224874, 47.8646075]}}, {"type": "Feature", "properties": {"Name": "Hochkopf", "description": "<b>Kategorie:</b> Natur & Landschaft — Natur-Feature (alle)<br><b>Distanz:</b> 2295 m<br><b>Website:</b> <br><b>Wikipedia:</b> <br><b>Telefon:</b> ", "timestamp": null, "begin": null, "end": null, "altitudeMode": null, "tessellate": -1, "extrude": 0, "visibility": -1, "drawOrder": null, "icon": null, "category_group": "Natur & Landschaft"}, "geometry": {"type": "Point", "coordinates": [8.0582179, 47.8583025]}}, {"type": "Feature", "properties": {"Name": "Köpfle", "description": "<b>Kategorie:</b> Natur & Landschaft — Natur-Feature (alle)<br><b>Distanz:</b> 1151 m<br><b>Website:</b> <br><b>Wikipedia:</b> <br><b>Telefon:</b> ", "timestamp": null, "begin": null, "end": null, "altitudeMode": null, "tessellate": -1, "extrude": 0, "visibility": -1, "drawOrder": null, "icon": null, "category_group": "Natur & Landschaft"}, "geometry": {"type": "Point", "coordinates": [8.0414557, 47.8615057]}}, {"type": "Feature", "properties": {"Name": "Immisberg", "description": "<b>Kategorie:</b> Natur & Landschaft — Natur-Feature (alle)<br><b>Distanz:</b> 3437 m<br><b>Website:</b> <br><b>Wikipedia:</b> <br><b>Telefon:</b> ", "timestamp": null, "begin": null, "end": null, "altitudeMode": null, "tessellate": -1, "extrude": 0, "visibility": -1, "drawOrder": null, "icon": null, "category_group": "Natur & Landschaft"}, "geometry": {"type": "Point", "coordinates": [7.9956541, 47.8792202]}}, {"type": "Feature", "properties": {"Name": "Silberberg", "description": "<b>Kategorie:</b> Natur & Landschaft — Natur-Feature (alle)<br><b>Distanz:</b> 3141 m<br><b>Website:</b> <br><b>Wikipedia:</b> <br><b>Telefon:</b> ", "timestamp": null, "begin": null, "end": null, "altitudeMode": null, "tessellate": -1, "extrude": 0, "visibility": -1, "drawOrder": null, "icon": null, "category_group": "Natur & Landschaft"}, "geometry": {"type": "Point", "coordinates": [7.99703, 47.8376378]}}, {"type": "Feature", "properties": {"Name": "Herzogenhornblick", "description": "<b>Kategorie:</b> Natur & Landschaft — Aussichtspunkt<br><b>Distanz:</b>  499 m<br><b>Website:</b> <br><b>Wikipedia:</b> <br><b>Telefon:</b> ", "timestamp": null, "begin": null, "end": null, "altitudeMode": null, "tessellate": -1, "extrude": 0, "visibility": -1, "drawOrder": null, "icon": null, "category_group": "Natur & Landschaft"}, "geometry": {"type": "Point", "coordinates": [8.0260692, 47.8613663]}}, {"type": "Feature", "properties": {"Name": "Wiesentalblick", "description": "<b>Kategorie:</b> Natur & Landschaft — Aussichtspunkt<br><b>Distanz:</b>  861 m<br><b>Website:</b> <br><b>Wikipedia:</b> <br><b>Telefon:</b> ", "timestamp": null, "begin": null, "end": null, "altitudeMode": null, "tessellate": -1, "extrude": 0, "visibility": -1, "drawOrder": null, "icon": null, "category_group": "Natur & Landschaft"}, "geometry": {"type": "Point", "coordinates": [8.0190849, 47.8622103]}}, {"type": "Feature", "properties": {"Name": "Zastler Loch", "description": "<b>Kategorie:</b> Natur & Landschaft — Natur-Feature (alle)<br><b>Distanz:</b> 2790 m<br><b>Website:</b> https://de.wikipedia.org/wiki/Zastler_Loch<br><b>Wikipedia:</b> <br><b>Telefon:</b> ", "timestamp": null, "begin": null, "end": null, "altitudeMode": null, "tessellate": -1, "extrude": 0, "visibility": -1, "drawOrder": null, "icon": null, "category_group": "Natur & Landschaft"}, "geometry": {"type": "Point", "coordinates": [8.0071934, 47.8780123]}}]}