{"type": "FeatureCollection", "features": [{"type": "Feature", "properties": {"Name": "JH 123 — Jugendherberge Hohenstaufen", "description": "<b>JH Nr:</b> 123<br><b>Name:</b> Jugendherberge Hohenstaufen<br><b>Ort:</b> Göppingen-Hohenstaufen<br><b>Adresse:</b> Schottengasse 41 73037 Göppingen-Hohenstaufen<br><b>Telefon:</b> +49 7165 438<br><b>Bundesland:</b> Baden-Württemberg", "timestamp": null, "begin": null, "end": null, "altitudeMode": null, "tessellate": -1, "extrude": 0, "visibility": -1, "drawOrder": null, "icon": null, "category_group": "JH"}, "geometry": {"type": "Point", "coordinates": [9.7215843, 48.7463585]}}, {"type": "Feature", "properties": {"Name": "Schützenverein Hohenstaufen", "description": "<b>Kategorie:</b> Bildungsinfrastruktur — Gemeindezentrum<br><b>Distanz:</b>  967 m<br><b>Website:</b> https://www.schuetzenverein-hohenstaufen.de/<br><b>Wikipedia:</b> <br><b>Telefon:</b> +49 7165 509", "timestamp": null, "begin": null, "end": null, "altitudeMode": null, "tessellate": -1, "extrude": 0, "visibility": -1, "drawOrder": null, "icon": null, "category_group": "Bildungsinfrastruktur"}, "geometry": {"type": "Point", "coordinates": [9.7131241, 48.7397031]}}, {"type": "Feature", "properties": {"Name": "Willkommen im Stauferland", "description": "<b>Kategorie:</b> Information — Besucherinformation<br><b>Distanz:</b>  547 m<br><b>Website:</b> <br><b>Wikipedia:</b> <br><b>Telefon:</b> ", "timestamp": null, "begin": null, "end": null, "altitudeMode": null, "tessellate": -1, "extrude": 0, "visibility": -1, "drawOrder": null, "icon": null, "category_group": "Information"}, "geometry": {"type": "Point", "coordinates": [9.7163568, 48.7428604]}}, {"type": "Feature", "properties": {"Name": "Kaisersträßle", "description": "<b>Kategorie:</b> Information — Besucherinformation<br><b>Distanz:</b> 2618 m<br><b>Website:</b> <br><b>Wikipedia:</b> <br><b>Telefon:</b> ", "timestamp": null, "begin": null, "end": null, "altitudeMode": null, "tessellate": -1, "extrude": 0, "visibility": -1, "drawOrder": null, "icon": null, "category_group": "Information"}, "geometry": {"type": "Point", "coordinates": [9.6897001, 48.7568463]}}, {"type": "Feature", "properties": {"Name": "Wanderkarte", "description": "<b>Kategorie:</b> Information — Besucherinformation<br><b>Distanz:</b> 2414 m<br><b>Website:</b> <br><b>Wikipedia:</b> <br><b>Telefon:</b> ", "timestamp": null, "begin": null, "end": null, "altitudeMode": null, "tessellate": -1, "extrude": 0, "visibility": -1, "drawOrder": null, "icon": null, "category_group": "Information"}, "geometry": {"type": "Point", "coordinates": [9.6902245, 48.752794]}}, {"type": "Feature", "properties": {"Name": "Glaubenswege", "description": "<b>Kategorie:</b> Information — Besucherinformation<br><b>Distanz:</b>  781 m<br><b>Website:</b> <br><b>Wikipedia:</b> <br><b>Telefon:</b> ", "timestamp": null, "begin": null, "end": null, "altitudeMode": null, "tessellate": -1, "extrude": 0, "visibility": -1, "drawOrder": null, "icon": null, "category_group": "Information"}, "geometry": {"type": "Point", "coordinates": [9.7195405, 48.7394655]}}, {"type": "Feature", "properties": {"Name": "Hohenstaufen", "description": "<b>Kategorie:</b> Information — Besucherinformation<br><b>Distanz:</b>  761 m<br><b>Website:</b> <br><b>Wikipedia:</b> <br><b>Telefon:</b> ", "timestamp": null, "begin": null, "end": null, "altitudeMode": null, "tessellate": -1, "extrude": 0, "visibility": -1, "drawOrder": null, "icon": null, "category_group": "Information"}, "geometry": {"type": "Point", "coordinates": [9.7191483, 48.739705]}}, {"type": "Feature", "properties": {"Name": "Obstlehrpfad", "description": "<b>Kategorie:</b> Information — Besucherinformation<br><b>Distanz:</b>  559 m<br><b>Website:</b> <br><b>Wikipedia:</b> <br><b>Telefon:</b> ", "timestamp": null, "begin": null, "end": null, "altitudeMode": null, "tessellate": -1, "extrude": 0, "visibility": -1, "drawOrder": null, "icon": null, "category_group": "Information"}, "geometry": {"type": "Point", "coordinates": [9.7271588, 48.7497807]}}, {"type": "Feature", "properties": {"Name": "Schloss Wäscherburg - eine Anlage der Stauferzeit", "description": "<b>Kategorie:</b> Information — Besucherinformation<br><b>Distanz:</b> 2669 m<br><b>Website:</b> <br><b>Wikipedia:</b> <br><b>Telefon:</b> ", "timestamp": null, "begin": null, "end": null, "altitudeMode": null, "tessellate": -1, "extrude": 0, "visibility": -1, "drawOrder": null, "icon": null, "category_group": "Information"}, "geometry": {"type": "Point", "coordinates": [9.703292, 48.7670995]}}, {"type": "Feature", "properties": {"Name": "Hohenstaufenbahn", "description": "<b>Kategorie:</b> Information — Besucherinformation<br><b>Distanz:</b> 1058 m<br><b>Website:</b> <br><b>Wikipedia:</b> <br><b>Telefon:</b> ", "timestamp": null, "begin": null, "end": null, "altitudeMode": null, "tessellate": -1, "extrude": 0, "visibility": -1, "drawOrder": null, "icon": null, "category_group": "Information"}, "geometry": {"type": "Point", "coordinates": [9.7235262, 48.7557932]}}, {"type": "Feature", "properties": {"Name": "Hohenstaufenbahn", "description": "<b>Kategorie:</b> Information — Besucherinformation<br><b>Distanz:</b> 2623 m<br><b>Website:</b> <br><b>Wikipedia:</b> <br><b>Telefon:</b> ", "timestamp": null, "begin": null, "end": null, "altitudeMode": null, "tessellate": -1, "extrude": 0, "visibility": -1, "drawOrder": null, "icon": null, "category_group": "Information"}, "geometry": {"type": "Point", "coordinates": [9.689642, 48.7568769]}}, {"type": "Feature", "properties": {"Name": "Wäschenbeuren, Heuhofstr. / Buchenweg", "description": "<b>Kategorie:</b> Information — Besucherinformation<br><b>Distanz:</b> 2408 m<br><b>Website:</b> <br><b>Wikipedia:</b> <br><b>Telefon:</b> ", "timestamp": null, "begin": null, "end": null, "altitudeMode": null, "tessellate": -1, "extrude": 0, "visibility": -1, "drawOrder": null, "icon": null, "category_group": "Information"}, "geometry": {"type": "Point", "coordinates": [9.6970967, 48.7607484]}}, {"type": "Feature", "properties": {"Name": "Wäschenbeuren, Lindenstr.", "description": "<b>Kategorie:</b> Information — Besucherinformation<br><b>Distanz:</b> 2243 m<br><b>Website:</b> <br><b>Wikipedia:</b> <br><b>Telefon:</b> ", "timestamp": null, "begin": null, "end": null, "altitudeMode": null, "tessellate": -1, "extrude": 0, "visibility": -1, "drawOrder": null, "icon": null, "category_group": "Information"}, "geometry": {"type": "Point", "coordinates": [9.6976534, 48.7588783]}}, {"type": "Feature", "properties": {"Name": "Wanderkarte / Ortsübersicht", "description": "<b>Kategorie:</b> Information — Besucherinformation<br><b>Distanz:</b> 3360 m<br><b>Website:</b> <br><b>Wikipedia:</b> <br><b>Telefon:</b> ", "timestamp": null, "begin": null, "end": null, "altitudeMode": null, "tessellate": -1, "extrude": 0, "visibility": -1, "drawOrder": null, "icon": null, "category_group": "Information"}, "geometry": {"type": "Point", "coordinates": [9.7547704, 48.7255841]}}, {"type": "Feature", "properties": {"Name": "Naturschutzgebiet Spielburg", "description": "<b>Kategorie:</b> Information — Besucherinformation<br><b>Distanz:</b>  915 m<br><b>Website:</b> <br><b>Wikipedia:</b> <br><b>Telefon:</b> ", "timestamp": null, "begin": null, "end": null, "altitudeMode": null, "tessellate": -1, "extrude": 0, "visibility": -1, "drawOrder": null, "icon": null, "category_group": "Information"}, "geometry": {"type": "Point", "coordinates": [9.7114296, 48.741594]}}, {"type": "Feature", "properties": {"Name": "Die Staufer: Der Hohenstaufen - ein Zeugenberg", "description": "<b>Kategorie:</b> Information — Besucherinformation<br><b>Distanz:</b>  599 m<br><b>Website:</b> <br><b>Wikipedia:</b> <br><b>Telefon:</b> ", "timestamp": null, "begin": null, "end": null, "altitudeMode": null, "tessellate": -1, "extrude": 0, "visibility": -1, "drawOrder": null, "icon": null, "category_group": "Information"}, "geometry": {"type": "Point", "coordinates": [9.7158278, 48.7425515]}}, {"type": "Feature", "properties": {"Name": "Die Staufer: Die ehemalige Burg", "description": "<b>Kategorie:</b> Information — Besucherinformation<br><b>Distanz:</b>  558 m<br><b>Website:</b> <br><b>Wikipedia:</b> <br><b>Telefon:</b> ", "timestamp": null, "begin": null, "end": null, "altitudeMode": null, "tessellate": -1, "extrude": 0, "visibility": -1, "drawOrder": null, "icon": null, "category_group": "Information"}, "geometry": {"type": "Point", "coordinates": [9.7161784, 48.7428369]}}, {"type": "Feature", "properties": {"Name": "Die Staufer: Schöne Aussichten", "description": "<b>Kategorie:</b> Information — Besucherinformation<br><b>Distanz:</b>  481 m<br><b>Website:</b> <br><b>Wikipedia:</b> <br><b>Telefon:</b> ", "timestamp": null, "begin": null, "end": null, "altitudeMode": null, "tessellate": -1, "extrude": 0, "visibility": -1, "drawOrder": null, "icon": null, "category_group": "Information"}, "geometry": {"type": "Point", "coordinates": [9.7179833, 48.7427483]}}, {"type": "Feature", "properties": {"Name": "NSG Spielburg", "description": "<b>Kategorie:</b> Information — Besucherinformation<br><b>Distanz:</b>  889 m<br><b>Website:</b> <br><b>Wikipedia:</b> <br><b>Telefon:</b> ", "timestamp": null, "begin": null, "end": null, "altitudeMode": null, "tessellate": -1, "extrude": 0, "visibility": -1, "drawOrder": null, "icon": null, "category_group": "Information"}, "geometry": {"type": "Point", "coordinates": [9.7119582, 48.7415225]}}, {"type": "Feature", "properties": {"Name": "Naturschutzgebiet Spielburg", "description": "<b>Kategorie:</b> Information — Besucherinformation<br><b>Distanz:</b> 1023 m<br><b>Website:</b> <br><b>Wikipedia:</b> <br><b>Telefon:</b> ", "timestamp": null, "begin": null, "end": null, "altitudeMode": null, "tessellate": -1, "extrude": 0, "visibility": -1, "drawOrder": null, "icon": null, "category_group": "Information"}, "geometry": {"type": "Point", "coordinates": [9.7124651, 48.7394093]}}, {"type": "Feature", "properties": {"Name": "Bahntrasse / Rait", "description": "<b>Kategorie:</b> Information — Besucherinformation<br><b>Distanz:</b> 2032 m<br><b>Website:</b> <br><b>Wikipedia:</b> <br><b>Telefon:</b> ", "timestamp": null, "begin": null, "end": null, "altitudeMode": null, "tessellate": -1, "extrude": 0, "visibility": -1, "drawOrder": null, "icon": null, "category_group": "Information"}, "geometry": {"type": "Point", "coordinates": [9.6977304, 48.75559]}}, {"type": "Feature", "properties": {"Name": "Hohenstaufen Barbarossakirche", "description": "<b>Kategorie:</b> Information — Besucherinformation<br><b>Distanz:</b>  523 m<br><b>Website:</b> <br><b>Wikipedia:</b> <br><b>Telefon:</b> ", "timestamp": null, "begin": null, "end": null, "altitudeMode": null, "tessellate": -1, "extrude": 0, "visibility": -1, "drawOrder": null, "icon": null, "category_group": "Information"}, "geometry": {"type": "Point", "coordinates": [9.7184836, 48.7421197]}}, {"type": "Feature", "properties": {"Name": "Burgruine Hohenstaufen", "description": "<b>Kategorie:</b> Information — Besucherinformation<br><b>Distanz:</b>  562 m<br><b>Website:</b> <br><b>Wikipedia:</b> <br><b>Telefon:</b> ", "timestamp": null, "begin": null, "end": null, "altitudeMode": null, "tessellate": -1, "extrude": 0, "visibility": -1, "drawOrder": null, "icon": null, "category_group": "Information"}, "geometry": {"type": "Point", "coordinates": [9.7162808, 48.7427225]}}, {"type": "Feature", "properties": {"Name": "Löwenpfade", "description": "<b>Kategorie:</b> Information — Besucherinformation<br><b>Distanz:</b> 2545 m<br><b>Website:</b> <br><b>Wikipedia:</b> <br><b>Telefon:</b> ", "timestamp": null, "begin": null, "end": null, "altitudeMode": null, "tessellate": -1, "extrude": 0, "visibility": -1, "drawOrder": null, "icon": null, "category_group": "Information"}, "geometry": {"type": "Point", "coordinates": [9.7074187, 48.7672522]}}, {"type": "Feature", "properties": {"Name": "Wannenhof", "description": "<b>Kategorie:</b> Information — Besucherinformation<br><b>Distanz:</b> 2315 m<br><b>Website:</b> <br><b>Wikipedia:</b> <br><b>Telefon:</b> ", "timestamp": null, "begin": null, "end": null, "altitudeMode": null, "tessellate": -1, "extrude": 0, "visibility": -1, "drawOrder": null, "icon": null, "category_group": "Information"}, "geometry": {"type": "Point", "coordinates": [9.7106039, 48.7268413]}}, {"type": "Feature", "properties": {"Name": "Spielplatz Sonderbach", "description": "<b>Kategorie:</b> Information — Besucherinformation<br><b>Distanz:</b> 2438 m<br><b>Website:</b> <br><b>Wikipedia:</b> <br><b>Telefon:</b> ", "timestamp": null, "begin": null, "end": null, "altitudeMode": null, "tessellate": -1, "extrude": 0, "visibility": -1, "drawOrder": null, "icon": null, "category_group": "Information"}, "geometry": {"type": "Point", "coordinates": [9.689816, 48.752662]}}, {"type": "Feature", "properties": {"Name": "Burg Wäscherschloss", "description": "<b>Kategorie:</b> Information — Besucherinformation<br><b>Distanz:</b> 2608 m<br><b>Website:</b> <br><b>Wikipedia:</b> <br><b>Telefon:</b> ", "timestamp": null, "begin": null, "end": null, "altitudeMode": null, "tessellate": -1, "extrude": 0, "visibility": -1, "drawOrder": null, "icon": null, "category_group": "Information"}, "geometry": {"type": "Point", "coordinates": [9.705632, 48.7673196]}}, {"type": "Feature", "properties": {"Name": "Ein Nationaldenkmal auf dem Hohenstaufen?", "description": "<b>Kategorie:</b> Information — Besucherinformation<br><b>Distanz:</b>  540 m<br><b>Website:</b> <br><b>Wikipedia:</b> <br><b>Telefon:</b> ", "timestamp": null, "begin": null, "end": null, "altitudeMode": null, "tessellate": -1, "extrude": 0, "visibility": -1, "drawOrder": null, "icon": null, "category_group": "Information"}, "geometry": {"type": "Point", "coordinates": [9.7163025, 48.7429831]}}, {"type": "Feature", "properties": {"Name": "Göppingen - Die Hohenstaufenstaft", "description": "<b>Kategorie:</b> Information — Besucherinformation<br><b>Distanz:</b> 1334 m<br><b>Website:</b> <br><b>Wikipedia:</b> <br><b>Telefon:</b> ", "timestamp": null, "begin": null, "end": null, "altitudeMode": null, "tessellate": -1, "extrude": 0, "visibility": -1, "drawOrder": null, "icon": null, "category_group": "Information"}, "geometry": {"type": "Point", "coordinates": [9.7180322, 48.7345931]}}, {"type": "Feature", "properties": {"Name": "Eger / Heidewald", "description": "<b>Kategorie:</b> Information — Besucherinformation<br><b>Distanz:</b> 2190 m<br><b>Website:</b> <br><b>Wikipedia:</b> <br><b>Telefon:</b> ", "timestamp": null, "begin": null, "end": null, "altitudeMode": null, "tessellate": -1, "extrude": 0, "visibility": -1, "drawOrder": null, "icon": null, "category_group": "Information"}, "geometry": {"type": "Point", "coordinates": [9.6923678, 48.7425271]}}, {"type": "Feature", "properties": {"Name": "Vinzenz-Stroh-Kindergarten", "description": "<b>Kategorie:</b> Kinder & Jugend — Kindergarten<br><b>Distanz:</b> 1184 m<br><b>Website:</b> <br><b>Wikipedia:</b> <br><b>Telefon:</b> ", "timestamp": null, "begin": null, "end": null, "altitudeMode": null, "tessellate": -1, "extrude": 0, "visibility": -1, "drawOrder": null, "icon": null, "category_group": "Kinder & Jugend"}, "geometry": {"type": "Point", "coordinates": [9.7207622, 48.756999]}}, {"type": "Feature", "properties": {"Name": "Waldspielplatz Eichholz", "description": "<b>Kategorie:</b> Kinder & Jugend — Spielplatz<br><b>Distanz:</b> 1806 m<br><b>Website:</b> <br><b>Wikipedia:</b> <br><b>Telefon:</b> ", "timestamp": null, "begin": null, "end": null, "altitudeMode": null, "tessellate": -1, "extrude": 0, "visibility": -1, "drawOrder": null, "icon": null, "category_group": "Kinder & Jugend"}, "geometry": {"type": "Point", "coordinates": [9.7441148, 48.7398881]}}, {"type": "Feature", "properties": {"Name": "Hohenstaufen", "description": "<b>Kategorie:</b> Natur & Landschaft — Natur-Feature (alle)<br><b>Distanz:</b>  532 m<br><b>Website:</b> <br><b>Wikipedia:</b> de:Hohenstaufen (Berg)<br><b>Telefon:</b> ", "timestamp": null, "begin": null, "end": null, "altitudeMode": null, "tessellate": -1, "extrude": 0, "visibility": -1, "drawOrder": null, "icon": null, "category_group": "Natur & Landschaft"}, "geometry": {"type": "Point", "coordinates": [9.7167663, 48.7427848]}}, {"type": "Feature", "properties": {"Name": "Jubiläumsbaum", "description": "<b>Kategorie:</b> Natur & Landschaft — Natur-Feature (alle)<br><b>Distanz:</b>  840 m<br><b>Website:</b> <br><b>Wikipedia:</b> <br><b>Telefon:</b> ", "timestamp": null, "begin": null, "end": null, "altitudeMode": null, "tessellate": -1, "extrude": 0, "visibility": -1, "drawOrder": null, "icon": null, "category_group": "Natur & Landschaft"}, "geometry": {"type": "Point", "coordinates": [9.7196306, 48.7389094]}}, {"type": "Feature", "properties": {"Name": "Ried", "description": "<b>Kategorie:</b> Natur & Landschaft — Natur-Feature (alle)<br><b>Distanz:</b> 1878 m<br><b>Website:</b> <br><b>Wikipedia:</b> <br><b>Telefon:</b> ", "timestamp": null, "begin": null, "end": null, "altitudeMode": null, "tessellate": -1, "extrude": 0, "visibility": -1, "drawOrder": null, "icon": null, "category_group": "Natur & Landschaft"}, "geometry": {"type": "Point", "coordinates": [9.7072506, 48.7603458]}}, {"type": "Feature", "properties": {"Name": "Hörnle", "description": "<b>Kategorie:</b> Natur & Landschaft — Natur-Feature (alle)<br><b>Distanz:</b> 1824 m<br><b>Website:</b> <br><b>Wikipedia:</b> <br><b>Telefon:</b> ", "timestamp": null, "begin": null, "end": null, "altitudeMode": null, "tessellate": -1, "extrude": 0, "visibility": -1, "drawOrder": null, "icon": null, "category_group": "Natur & Landschaft"}, "geometry": {"type": "Point", "coordinates": [9.7149515, 48.7305472]}}]}