{"type": "FeatureCollection", "features": [{"type": "Feature", "properties": {"Name": "JH 266 — Jugendherberge Schliersee", "description": "<b>JH Nr:</b> 266<br><b>Name:</b> Jugendherberge Schliersee<br><b>Ort:</b> Schliersee<br><b>Adresse:</b> Josefstaler Str. 19 83727 Schliersee<br><b>Telefon:</b> +49 8026 9738-0<br><b>Bundesland:</b> Bayern", "timestamp": null, "begin": null, "end": null, "altitudeMode": null, "tessellate": -1, "extrude": 0, "visibility": -1, "drawOrder": null, "icon": null, "category_group": "JH"}, "geometry": {"type": "Point", "coordinates": [11.884533, 47.6928997]}}, {"type": "Feature", "properties": {"Name": "Yoga Haus Samvit", "description": "<b>Kategorie:</b> Freizeit & Sport — Sportzentrum<br><b>Distanz:</b> 1564 m<br><b>Website:</b> https://yogahaus.org/<br><b>Wikipedia:</b> ", "timestamp": null, "begin": null, "end": null, "altitudeMode": null, "tessellate": -1, "extrude": 0, "visibility": -1, "drawOrder": null, "icon": null, "category_group": "Freizeit & Sport"}, "geometry": {"type": "Point", "coordinates": [11.8675422, 47.7010305]}}, {"type": "Feature", "properties": {"Name": "Verlobungstanne", "description": "<b>Kategorie:</b> Information — Besucherinformation<br><b>Distanz:</b> 2858 m<br><b>Website:</b> <br><b>Wikipedia:</b> ", "timestamp": null, "begin": null, "end": null, "altitudeMode": null, "tessellate": -1, "extrude": 0, "visibility": -1, "drawOrder": null, "icon": null, "category_group": "Information"}, "geometry": {"type": "Point", "coordinates": [11.8612485, 47.7132355]}}, {"type": "Feature", "properties": {"Name": "Die alte Linde von St. Leonhard", "description": "<b>Kategorie:</b> Information — Besucherinformation<br><b>Distanz:</b> 1863 m<br><b>Website:</b> <br><b>Wikipedia:</b> ", "timestamp": null, "begin": null, "end": null, "altitudeMode": null, "tessellate": -1, "extrude": 0, "visibility": -1, "drawOrder": null, "icon": null, "category_group": "Information"}, "geometry": {"type": "Point", "coordinates": [11.873525, 47.7079117]}}, {"type": "Feature", "properties": {"Name": "Ankel-Alm", "description": "<b>Kategorie:</b> Information — Besucherinformation<br><b>Distanz:</b> 1643 m<br><b>Website:</b> <br><b>Wikipedia:</b> ", "timestamp": null, "begin": null, "end": null, "altitudeMode": null, "tessellate": -1, "extrude": 0, "visibility": -1, "drawOrder": null, "icon": null, "category_group": "Information"}, "geometry": {"type": "Point", "coordinates": [11.8682586, 47.6830186]}}, {"type": "Feature", "properties": {"Name": "Parkplatz Dürnbach-Bodenschneid", "description": "<b>Kategorie:</b> Information — Besucherinformation<br><b>Distanz:</b> 1599 m<br><b>Website:</b> <br><b>Wikipedia:</b> ", "timestamp": null, "begin": null, "end": null, "altitudeMode": null, "tessellate": -1, "extrude": 0, "visibility": -1, "drawOrder": null, "icon": null, "category_group": "Information"}, "geometry": {"type": "Point", "coordinates": [11.8661414, 47.7001527]}}, {"type": "Feature", "properties": {"Name": "Natürlich auf Tour", "description": "<b>Kategorie:</b> Information — Besucherinformation<br><b>Distanz:</b> 3321 m<br><b>Website:</b> <br><b>Wikipedia:</b> ", "timestamp": null, "begin": null, "end": null, "altitudeMode": null, "tessellate": -1, "extrude": 0, "visibility": -1, "drawOrder": null, "icon": null, "category_group": "Information"}, "geometry": {"type": "Point", "coordinates": [11.9146619, 47.6710357]}}, {"type": "Feature", "properties": {"Name": "DAV Skibergsteigen", "description": "<b>Kategorie:</b> Information — Besucherinformation<br><b>Distanz:</b> 2697 m<br><b>Website:</b> <br><b>Wikipedia:</b> ", "timestamp": null, "begin": null, "end": null, "altitudeMode": null, "tessellate": -1, "extrude": 0, "visibility": -1, "drawOrder": null, "icon": null, "category_group": "Information"}, "geometry": {"type": "Point", "coordinates": [11.9139791, 47.6790061]}}, {"type": "Feature", "properties": {"Name": "Fischhausen Neuhaus Bahnhof", "description": "<b>Kategorie:</b> Information — Besucherinformation<br><b>Distanz:</b> 1565 m<br><b>Website:</b> <br><b>Wikipedia:</b> ", "timestamp": null, "begin": null, "end": null, "altitudeMode": null, "tessellate": -1, "extrude": 0, "visibility": -1, "drawOrder": null, "icon": null, "category_group": "Information"}, "geometry": {"type": "Point", "coordinates": [11.8753771, 47.7055463]}}, {"type": "Feature", "properties": {"Name": "Radeln & biken zwischen Schliersee und Thiersee", "description": "<b>Kategorie:</b> Information — Besucherinformation<br><b>Distanz:</b> 1576 m<br><b>Website:</b> <br><b>Wikipedia:</b> ", "timestamp": null, "begin": null, "end": null, "altitudeMode": null, "tessellate": -1, "extrude": 0, "visibility": -1, "drawOrder": null, "icon": null, "category_group": "Information"}, "geometry": {"type": "Point", "coordinates": [11.8751236, 47.7055676]}}, {"type": "Feature", "properties": {"Name": "Spitzingsattel", "description": "<b>Kategorie:</b> Information — Besucherinformation<br><b>Distanz:</b> 2269 m<br><b>Website:</b> <br><b>Wikipedia:</b> ", "timestamp": null, "begin": null, "end": null, "altitudeMode": null, "tessellate": -1, "extrude": 0, "visibility": -1, "drawOrder": null, "icon": null, "category_group": "Information"}, "geometry": {"type": "Point", "coordinates": [11.8865417, 47.6725425]}}, {"type": "Feature", "properties": {"Name": "Spitzingsattel", "description": "<b>Kategorie:</b> Information — Besucherinformation<br><b>Distanz:</b> 2263 m<br><b>Website:</b> <br><b>Wikipedia:</b> ", "timestamp": null, "begin": null, "end": null, "altitudeMode": null, "tessellate": -1, "extrude": 0, "visibility": -1, "drawOrder": null, "icon": null, "category_group": "Information"}, "geometry": {"type": "Point", "coordinates": [11.8865543, 47.6725933]}}, {"type": "Feature", "properties": {"Name": "Gästeinformation", "description": "<b>Kategorie:</b> Information — Besucherinformation<br><b>Distanz:</b> 1640 m<br><b>Website:</b> <br><b>Wikipedia:</b> ", "timestamp": null, "begin": null, "end": null, "altitudeMode": null, "tessellate": -1, "extrude": 0, "visibility": -1, "drawOrder": null, "icon": null, "category_group": "Information"}, "geometry": {"type": "Point", "coordinates": [11.8743844, 47.7059565]}}, {"type": "Feature", "properties": {"Name": "Rhamus frangula", "description": "<b>Kategorie:</b> Information — Besucherinformation<br><b>Distanz:</b> 2715 m<br><b>Website:</b> <br><b>Wikipedia:</b> ", "timestamp": null, "begin": null, "end": null, "altitudeMode": null, "tessellate": -1, "extrude": 0, "visibility": -1, "drawOrder": null, "icon": null, "category_group": "Information"}, "geometry": {"type": "Point", "coordinates": [11.8696748, 47.7151596]}}, {"type": "Feature", "properties": {"Name": "Euonymus europaeus", "description": "<b>Kategorie:</b> Information — Besucherinformation<br><b>Distanz:</b> 3050 m<br><b>Website:</b> <br><b>Wikipedia:</b> ", "timestamp": null, "begin": null, "end": null, "altitudeMode": null, "tessellate": -1, "extrude": 0, "visibility": -1, "drawOrder": null, "icon": null, "category_group": "Information"}, "geometry": {"type": "Point", "coordinates": [11.8597025, 47.7146068]}}, {"type": "Feature", "properties": {"Name": "Übernachtung", "description": "<b>Kategorie:</b> Information — Besucherinformation<br><b>Distanz:</b> 1635 m<br><b>Website:</b> <br><b>Wikipedia:</b> ", "timestamp": null, "begin": null, "end": null, "altitudeMode": null, "tessellate": -1, "extrude": 0, "visibility": -1, "drawOrder": null, "icon": null, "category_group": "Information"}, "geometry": {"type": "Point", "coordinates": [11.8743351, 47.7058887]}}, {"type": "Feature", "properties": {"Name": "Alpiner Premiumweg Spitzing Panorama", "description": "<b>Kategorie:</b> Information — Besucherinformation<br><b>Distanz:</b> 3172 m<br><b>Website:</b> <br><b>Wikipedia:</b> ", "timestamp": null, "begin": null, "end": null, "altitudeMode": null, "tessellate": -1, "extrude": 0, "visibility": -1, "drawOrder": null, "icon": null, "category_group": "Information"}, "geometry": {"type": "Point", "coordinates": [11.8567918, 47.671392]}}, {"type": "Feature", "properties": {"Name": "Alpiner Premiumweg Spitzing Panorama", "description": "<b>Kategorie:</b> Information — Besucherinformation<br><b>Distanz:</b> 2264 m<br><b>Website:</b> <br><b>Wikipedia:</b> ", "timestamp": null, "begin": null, "end": null, "altitudeMode": null, "tessellate": -1, "extrude": 0, "visibility": -1, "drawOrder": null, "icon": null, "category_group": "Information"}, "geometry": {"type": "Point", "coordinates": [11.8865513, 47.6725863]}}, {"type": "Feature", "properties": {"Name": "Whisky-Destillerie Slyrs", "description": "<b>Kategorie:</b> Kultur & Geschichte — Museum<br><b>Distanz:</b> 1122 m<br><b>Website:</b> https://slyrs.com/<br><b>Wikipedia:</b> ", "timestamp": null, "begin": null, "end": null, "altitudeMode": null, "tessellate": -1, "extrude": 0, "visibility": -1, "drawOrder": null, "icon": null, "category_group": "Kultur & Geschichte"}, "geometry": {"type": "Point", "coordinates": [11.8854485, 47.7029748]}}, {"type": "Feature", "properties": {"Name": "Josefsthaler Wasserfälle", "description": "<b>Kategorie:</b> Kultur & Geschichte — Attraktion<br><b>Distanz:</b>  821 m<br><b>Website:</b> <br><b>Wikipedia:</b> ", "timestamp": null, "begin": null, "end": null, "altitudeMode": null, "tessellate": -1, "extrude": 0, "visibility": -1, "drawOrder": null, "icon": null, "category_group": "Kultur & Geschichte"}, "geometry": {"type": "Point", "coordinates": [11.8843961, 47.6855201]}}, {"type": "Feature", "properties": {"Name": "Spitzingsattel", "description": "<b>Kategorie:</b> Natur & Landschaft — Natur-Feature (alle)<br><b>Distanz:</b> 2260 m<br><b>Website:</b> <br><b>Wikipedia:</b> de:Spitzingsattel", "timestamp": null, "begin": null, "end": null, "altitudeMode": null, "tessellate": -1, "extrude": 0, "visibility": -1, "drawOrder": null, "icon": null, "category_group": "Natur & Landschaft"}, "geometry": {"type": "Point", "coordinates": [11.8867038, 47.6726326]}}, {"type": "Feature", "properties": {"Name": "Jägerkamp", "description": "<b>Kategorie:</b> Natur & Landschaft — Natur-Feature (alle)<br><b>Distanz:</b> 2694 m<br><b>Website:</b> <br><b>Wikipedia:</b> de:Jägerkamp", "timestamp": null, "begin": null, "end": null, "altitudeMode": null, "tessellate": -1, "extrude": 0, "visibility": -1, "drawOrder": null, "icon": null, "category_group": "Natur & Landschaft"}, "geometry": {"type": "Point", "coordinates": [11.9060494, 47.673511]}}, {"type": "Feature", "properties": {"Name": "Freudenreichsattel", "description": "<b>Kategorie:</b> Natur & Landschaft — Natur-Feature (alle)<br><b>Distanz:</b> 3145 m<br><b>Website:</b> <br><b>Wikipedia:</b> ", "timestamp": null, "begin": null, "end": null, "altitudeMode": null, "tessellate": -1, "extrude": 0, "visibility": -1, "drawOrder": null, "icon": null, "category_group": "Natur & Landschaft"}, "geometry": {"type": "Point", "coordinates": [11.8540207, 47.6735333]}}, {"type": "Feature", "properties": {"Name": "Brecherspitz", "description": "<b>Kategorie:</b> Natur & Landschaft — Natur-Feature (alle)<br><b>Distanz:</b> 2092 m<br><b>Website:</b> <br><b>Wikipedia:</b> ", "timestamp": null, "begin": null, "end": null, "altitudeMode": null, "tessellate": -1, "extrude": 0, "visibility": -1, "drawOrder": null, "icon": null, "category_group": "Natur & Landschaft"}, "geometry": {"type": "Point", "coordinates": [11.8710533, 47.6764385]}}, {"type": "Feature", "properties": {"Name": "Anklspitz", "description": "<b>Kategorie:</b> Natur & Landschaft — Natur-Feature (alle)<br><b>Distanz:</b> 1063 m<br><b>Website:</b> <br><b>Wikipedia:</b> ", "timestamp": null, "begin": null, "end": null, "altitudeMode": null, "tessellate": -1, "extrude": 0, "visibility": -1, "drawOrder": null, "icon": null, "category_group": "Natur & Landschaft"}, "geometry": {"type": "Point", "coordinates": [11.8708218, 47.6952837]}}, {"type": "Feature", "properties": {"Name": "Benzingspitz", "description": "<b>Kategorie:</b> Natur & Landschaft — Natur-Feature (alle)<br><b>Distanz:</b> 3029 m<br><b>Website:</b> <br><b>Wikipedia:</b> ", "timestamp": null, "begin": null, "end": null, "altitudeMode": null, "tessellate": -1, "extrude": 0, "visibility": -1, "drawOrder": null, "icon": null, "category_group": "Natur & Landschaft"}, "geometry": {"type": "Point", "coordinates": [11.9123447, 47.6731668]}}, {"type": "Feature", "properties": {"Name": "Auracher Köpferl", "description": "<b>Kategorie:</b> Natur & Landschaft — Natur-Feature (alle)<br><b>Distanz:</b> 2910 m<br><b>Website:</b> <br><b>Wikipedia:</b> ", "timestamp": null, "begin": null, "end": null, "altitudeMode": null, "tessellate": -1, "extrude": 0, "visibility": -1, "drawOrder": null, "icon": null, "category_group": "Natur & Landschaft"}, "geometry": {"type": "Point", "coordinates": [11.9079192, 47.7137651]}}, {"type": "Feature", "properties": {"Name": "Hachelspitz", "description": "<b>Kategorie:</b> Natur & Landschaft — Natur-Feature (alle)<br><b>Distanz:</b> 1109 m<br><b>Website:</b> <br><b>Wikipedia:</b> ", "timestamp": null, "begin": null, "end": null, "altitudeMode": null, "tessellate": -1, "extrude": 0, "visibility": -1, "drawOrder": null, "icon": null, "category_group": "Natur & Landschaft"}, "geometry": {"type": "Point", "coordinates": [11.8976098, 47.6882708]}}, {"type": "Feature", "properties": {"Name": "Hirschgröhrkopf", "description": "<b>Kategorie:</b> Natur & Landschaft — Natur-Feature (alle)<br><b>Distanz:</b> 2346 m<br><b>Website:</b> <br><b>Wikipedia:</b> ", "timestamp": null, "begin": null, "end": null, "altitudeMode": null, "tessellate": -1, "extrude": 0, "visibility": -1, "drawOrder": null, "icon": null, "category_group": "Natur & Landschaft"}, "geometry": {"type": "Point", "coordinates": [11.8891802, 47.713758]}}, {"type": "Feature", "properties": {"Name": "Brecherspitz Vorgipfel", "description": "<b>Kategorie:</b> Natur & Landschaft — Natur-Feature (alle)<br><b>Distanz:</b> 2478 m<br><b>Website:</b> <br><b>Wikipedia:</b> ", "timestamp": null, "begin": null, "end": null, "altitudeMode": null, "tessellate": -1, "extrude": 0, "visibility": -1, "drawOrder": null, "icon": null, "category_group": "Natur & Landschaft"}, "geometry": {"type": "Point", "coordinates": [11.8645597, 47.6751604]}}, {"type": "Feature", "properties": {"Name": "Nagelspitz", "description": "<b>Kategorie:</b> Natur & Landschaft — Natur-Feature (alle)<br><b>Distanz:</b> 1974 m<br><b>Website:</b> <br><b>Wikipedia:</b> ", "timestamp": null, "begin": null, "end": null, "altitudeMode": null, "tessellate": -1, "extrude": 0, "visibility": -1, "drawOrder": null, "icon": null, "category_group": "Natur & Landschaft"}, "geometry": {"type": "Point", "coordinates": [11.9080106, 47.6849103]}}, {"type": "Feature", "properties": {"Name": "Die alte Hoflinde im Josefstal", "description": "<b>Kategorie:</b> Natur & Landschaft — Natur-Feature (alle)<br><b>Distanz:</b>  394 m<br><b>Website:</b> <br><b>Wikipedia:</b> ", "timestamp": null, "begin": null, "end": null, "altitudeMode": null, "tessellate": -1, "extrude": 0, "visibility": -1, "drawOrder": null, "icon": null, "category_group": "Natur & Landschaft"}, "geometry": {"type": "Point", "coordinates": [11.8810347, 47.6955368]}}, {"type": "Feature", "properties": {"Name": "Talwand", "description": "<b>Kategorie:</b> Natur & Landschaft — Natur-Feature (alle)<br><b>Distanz:</b> 2291 m<br><b>Website:</b> <br><b>Wikipedia:</b> ", "timestamp": null, "begin": null, "end": null, "altitudeMode": null, "tessellate": -1, "extrude": 0, "visibility": -1, "drawOrder": null, "icon": null, "category_group": "Natur & Landschaft"}, "geometry": {"type": "Point", "coordinates": [11.9150031, 47.693938]}}, {"type": "Feature", "properties": {"Name": "Dürnbachwand", "description": "<b>Kategorie:</b> Natur & Landschaft — Natur-Feature (alle)<br><b>Distanz:</b> 1362 m<br><b>Website:</b> <br><b>Wikipedia:</b> ", "timestamp": null, "begin": null, "end": null, "altitudeMode": null, "tessellate": -1, "extrude": 0, "visibility": -1, "drawOrder": null, "icon": null, "category_group": "Natur & Landschaft"}, "geometry": {"type": "Point", "coordinates": [11.8665749, 47.694642]}}, {"type": "Feature", "properties": {"Name": "Schlierseespitz", "description": "<b>Kategorie:</b> Natur & Landschaft — Natur-Feature (alle)<br><b>Distanz:</b> 1381 m<br><b>Website:</b> <br><b>Wikipedia:</b> ", "timestamp": null, "begin": null, "end": null, "altitudeMode": null, "tessellate": -1, "extrude": 0, "visibility": -1, "drawOrder": null, "icon": null, "category_group": "Natur & Landschaft"}, "geometry": {"type": "Point", "coordinates": [11.8662156, 47.6940627]}}]}