{"type": "FeatureCollection", "features": [{"type": "Feature", "properties": {"Name": "JH 241 — Jugendherberge Lindau", "description": "<b>JH Nr:</b> 241<br><b>Name:</b> Jugendherberge Lindau<br><b>Ort:</b> Lindau<br><b>Adresse:</b> Herbergsweg 11 88131 Lindau<br><b>Telefon:</b> +49 8382 9671-0<br><b>Bundesland:</b> Bayern", "timestamp": null, "begin": null, "end": null, "altitudeMode": null, "tessellate": -1, "extrude": 0, "visibility": -1, "drawOrder": null, "icon": null, "category_group": "JH"}, "geometry": {"type": "Point", "coordinates": [9.7002945, 47.5541817]}}, {"type": "Feature", "properties": {"Name": "Maria-Ward-Mädchenrealschule", "description": "<b>Kategorie:</b> Bildungsinfrastruktur — Schule<br><b>Distanz:</b> 1441 m<br><b>Website:</b> <br><b>Wikipedia:</b> <br><b>Telefon:</b> ", "timestamp": null, "begin": null, "end": null, "altitudeMode": null, "tessellate": -1, "extrude": 0, "visibility": -1, "drawOrder": null, "icon": null, "category_group": "Bildungsinfrastruktur"}, "geometry": {"type": "Point", "coordinates": [9.6857724, 47.5457338]}}, {"type": "Feature", "properties": {"Name": "Stadtarchiv und Ehemals Reichsstädtische Bibliothek Lindau am Bodensee", "description": "<b>Kategorie:</b> Bildungsinfrastruktur — Bibliothek<br><b>Distanz:</b> 1725 m<br><b>Website:</b> <br><b>Wikipedia:</b> <br><b>Telefon:</b> ", "timestamp": null, "begin": null, "end": null, "altitudeMode": null, "tessellate": -1, "extrude": 0, "visibility": -1, "drawOrder": null, "icon": null, "category_group": "Bildungsinfrastruktur"}, "geometry": {"type": "Point", "coordinates": [9.6809542, 47.5458418]}}, {"type": "Feature", "properties": {"Name": "Stadtbücherei Lindau/Bodensee", "description": "<b>Kategorie:</b> Bildungsinfrastruktur — Bibliothek<br><b>Distanz:</b> 1730 m<br><b>Website:</b> https://www.kultur-lindau.de/buecherei/<br><b>Wikipedia:</b> <br><b>Telefon:</b> +49 8382 2747470", "timestamp": null, "begin": null, "end": null, "altitudeMode": null, "tessellate": -1, "extrude": 0, "visibility": -1, "drawOrder": null, "icon": null, "category_group": "Bildungsinfrastruktur"}, "geometry": {"type": "Point", "coordinates": [9.6809073, 47.545811]}}, {"type": "Feature", "properties": {"Name": "Berufliche Oberschule Lindau", "description": "<b>Kategorie:</b> Bildungsinfrastruktur — Schule<br><b>Distanz:</b>  366 m<br><b>Website:</b> <br><b>Wikipedia:</b> <br><b>Telefon:</b> ", "timestamp": null, "begin": null, "end": null, "altitudeMode": null, "tessellate": -1, "extrude": 0, "visibility": -1, "drawOrder": null, "icon": null, "category_group": "Bildungsinfrastruktur"}, "geometry": {"type": "Point", "coordinates": [9.6976279, 47.5569358]}}, {"type": "Feature", "properties": {"Name": "Xtra", "description": "<b>Kategorie:</b> Bildungsinfrastruktur — Gemeindezentrum<br><b>Distanz:</b> 1561 m<br><b>Website:</b> https://jugend-lindau.de/einrichtungen/jugendzentrum-xtra/<br><b>Wikipedia:</b> <br><b>Telefon:</b> ", "timestamp": null, "begin": null, "end": null, "altitudeMode": null, "tessellate": -1, "extrude": 0, "visibility": -1, "drawOrder": null, "icon": null, "category_group": "Bildungsinfrastruktur"}, "geometry": {"type": "Point", "coordinates": [9.6821046, 47.547422]}}, {"type": "Feature", "properties": {"Name": "Volkshochschule Lindau", "description": "<b>Kategorie:</b> Bildungsinfrastruktur — Hochschule<br><b>Distanz:</b> 1988 m<br><b>Website:</b> <br><b>Wikipedia:</b> <br><b>Telefon:</b> ", "timestamp": null, "begin": null, "end": null, "altitudeMode": null, "tessellate": -1, "extrude": 0, "visibility": -1, "drawOrder": null, "icon": null, "category_group": "Bildungsinfrastruktur"}, "geometry": {"type": "Point", "coordinates": [9.6767944, 47.5460112]}}, {"type": "Feature", "properties": {"Name": "Grundschule Lindau-Insel", "description": "<b>Kategorie:</b> Bildungsinfrastruktur — Schule<br><b>Distanz:</b> 1398 m<br><b>Website:</b> http://www.inselgrundschule-lindau.de/<br><b>Wikipedia:</b> <br><b>Telefon:</b> ", "timestamp": null, "begin": null, "end": null, "altitudeMode": null, "tessellate": -1, "extrude": 0, "visibility": -1, "drawOrder": null, "icon": null, "category_group": "Bildungsinfrastruktur"}, "geometry": {"type": "Point", "coordinates": [9.686904, 47.5454633]}}, {"type": "Feature", "properties": {"Name": "Freie Schule Lindau", "description": "<b>Kategorie:</b> Bildungsinfrastruktur — Schule<br><b>Distanz:</b> 1944 m<br><b>Website:</b> https://www.freieschulelindau.de/<br><b>Wikipedia:</b> <br><b>Telefon:</b> ", "timestamp": null, "begin": null, "end": null, "altitudeMode": null, "tessellate": -1, "extrude": 0, "visibility": -1, "drawOrder": null, "icon": null, "category_group": "Bildungsinfrastruktur"}, "geometry": {"type": "Point", "coordinates": [9.6775341, 47.5459126]}}, {"type": "Feature", "properties": {"Name": "Lindauer Segler-Club", "description": "<b>Kategorie:</b> Freizeit & Sport — Yachthafen<br><b>Distanz:</b> 1477 m<br><b>Website:</b> https://www.lsc.de/<br><b>Wikipedia:</b> <br><b>Telefon:</b> +49 160 96669311", "timestamp": null, "begin": null, "end": null, "altitudeMode": null, "tessellate": -1, "extrude": 0, "visibility": -1, "drawOrder": null, "icon": null, "category_group": "Freizeit & Sport"}, "geometry": {"type": "Point", "coordinates": [9.6875634, 47.5440712]}}, {"type": "Feature", "properties": {"Name": "Fußballplatz Hoyren", "description": "<b>Kategorie:</b> Freizeit & Sport — Sportzentrum<br><b>Distanz:</b> 2066 m<br><b>Website:</b> <br><b>Wikipedia:</b> <br><b>Telefon:</b> ", "timestamp": null, "begin": null, "end": null, "altitudeMode": null, "tessellate": -1, "extrude": 0, "visibility": -1, "drawOrder": null, "icon": null, "category_group": "Freizeit & Sport"}, "geometry": {"type": "Point", "coordinates": [9.6787435, 47.5656989]}}, {"type": "Feature", "properties": {"Name": "Turnhalle Hoyren", "description": "<b>Kategorie:</b> Freizeit & Sport — Sportzentrum<br><b>Distanz:</b> 2071 m<br><b>Website:</b> <br><b>Wikipedia:</b> <br><b>Telefon:</b> ", "timestamp": null, "begin": null, "end": null, "altitudeMode": null, "tessellate": -1, "extrude": 0, "visibility": -1, "drawOrder": null, "icon": null, "category_group": "Freizeit & Sport"}, "geometry": {"type": "Point", "coordinates": [9.6783369, 47.5654228]}}, {"type": "Feature", "properties": {"Name": "Segelhafen TSG Lindau - Zech", "description": "<b>Kategorie:</b> Freizeit & Sport — Yachthafen<br><b>Distanz:</b> 3115 m<br><b>Website:</b> https://www.tsg-wassersport.de/<br><b>Wikipedia:</b> <br><b>Telefon:</b> +49 171 1764328", "timestamp": null, "begin": null, "end": null, "altitudeMode": null, "tessellate": -1, "extrude": 0, "visibility": -1, "drawOrder": null, "icon": null, "category_group": "Freizeit & Sport"}, "geometry": {"type": "Point", "coordinates": [9.7295562, 47.5343583]}}, {"type": "Feature", "properties": {"Name": "Yacht Club Lindau", "description": "<b>Kategorie:</b> Freizeit & Sport — Yachthafen<br><b>Distanz:</b> 1374 m<br><b>Website:</b> https://yacht-club-lindau.de/<br><b>Wikipedia:</b> <br><b>Telefon:</b> ", "timestamp": null, "begin": null, "end": null, "altitudeMode": null, "tessellate": -1, "extrude": 0, "visibility": -1, "drawOrder": null, "icon": null, "category_group": "Freizeit & Sport"}, "geometry": {"type": "Point", "coordinates": [9.6879665, 47.5450587]}}, {"type": "Feature", "properties": {"Name": "Fitness World 24", "description": "<b>Kategorie:</b> Freizeit & Sport — Sportzentrum<br><b>Distanz:</b> 1577 m<br><b>Website:</b> <br><b>Wikipedia:</b> <br><b>Telefon:</b> ", "timestamp": null, "begin": null, "end": null, "altitudeMode": null, "tessellate": -1, "extrude": 0, "visibility": -1, "drawOrder": null, "icon": null, "category_group": "Freizeit & Sport"}, "geometry": {"type": "Point", "coordinates": [9.7206457, 47.5508002]}}, {"type": "Feature", "properties": {"Name": "Home of Fitness", "description": "<b>Kategorie:</b> Freizeit & Sport — Sportzentrum<br><b>Distanz:</b> 2172 m<br><b>Website:</b> http://www.home-of-fitness.biz/<br><b>Wikipedia:</b> <br><b>Telefon:</b> ", "timestamp": null, "begin": null, "end": null, "altitudeMode": null, "tessellate": -1, "extrude": 0, "visibility": -1, "drawOrder": null, "icon": null, "category_group": "Freizeit & Sport"}, "geometry": {"type": "Point", "coordinates": [9.7286725, 47.5505938]}}, {"type": "Feature", "properties": {"Name": "Sporthalle Aeschach", "description": "<b>Kategorie:</b> Freizeit & Sport — Sportzentrum<br><b>Distanz:</b>  590 m<br><b>Website:</b> <br><b>Wikipedia:</b> <br><b>Telefon:</b> ", "timestamp": null, "begin": null, "end": null, "altitudeMode": null, "tessellate": -1, "extrude": 0, "visibility": -1, "drawOrder": null, "icon": null, "category_group": "Freizeit & Sport"}, "geometry": {"type": "Point", "coordinates": [9.6951251, 47.5581779]}}, {"type": "Feature", "properties": {"Name": "Schulturnhalle Reutin", "description": "<b>Kategorie:</b> Freizeit & Sport — Sportzentrum<br><b>Distanz:</b>  728 m<br><b>Website:</b> <br><b>Wikipedia:</b> <br><b>Telefon:</b> ", "timestamp": null, "begin": null, "end": null, "altitudeMode": null, "tessellate": -1, "extrude": 0, "visibility": -1, "drawOrder": null, "icon": null, "category_group": "Freizeit & Sport"}, "geometry": {"type": "Point", "coordinates": [9.7078901, 47.5582432]}}, {"type": "Feature", "properties": {"Name": "Steganlagen \"Kleiner See\"", "description": "<b>Kategorie:</b> Freizeit & Sport — Yachthafen<br><b>Distanz:</b> 1209 m<br><b>Website:</b> <br><b>Wikipedia:</b> <br><b>Telefon:</b> ", "timestamp": null, "begin": null, "end": null, "altitudeMode": null, "tessellate": -1, "extrude": 0, "visibility": -1, "drawOrder": null, "icon": null, "category_group": "Freizeit & Sport"}, "geometry": {"type": "Point", "coordinates": [9.6859395, 47.5492903]}}, {"type": "Feature", "properties": {"Name": "Tourist-Information Lindau", "description": "<b>Kategorie:</b> Information — Besucherinformation<br><b>Distanz:</b> 1806 m<br><b>Website:</b> https://www.lindau.de/<br><b>Wikipedia:</b> <br><b>Telefon:</b> +49 8382 8899900", "timestamp": null, "begin": null, "end": null, "altitudeMode": null, "tessellate": -1, "extrude": 0, "visibility": -1, "drawOrder": null, "icon": null, "category_group": "Information"}, "geometry": {"type": "Point", "coordinates": [9.6817675, 47.5438533]}}, {"type": "Feature", "properties": {"Name": "Gemeindliche Anschlagtafel", "description": "<b>Kategorie:</b> Information — Besucherinformation<br><b>Distanz:</b> 2822 m<br><b>Website:</b> <br><b>Wikipedia:</b> <br><b>Telefon:</b> ", "timestamp": null, "begin": null, "end": null, "altitudeMode": null, "tessellate": -1, "extrude": 0, "visibility": -1, "drawOrder": null, "icon": null, "category_group": "Information"}, "geometry": {"type": "Point", "coordinates": [9.6693109, 47.5684912]}}, {"type": "Feature", "properties": {"Name": "Lindau Tourismus und Kongress GmbH", "description": "<b>Kategorie:</b> Information — Besucherinformation<br><b>Distanz:</b> 1771 m<br><b>Website:</b> <br><b>Wikipedia:</b> <br><b>Telefon:</b> ", "timestamp": null, "begin": null, "end": null, "altitudeMode": null, "tessellate": -1, "extrude": 0, "visibility": -1, "drawOrder": null, "icon": null, "category_group": "Information"}, "geometry": {"type": "Point", "coordinates": [9.6816393, 47.5444635]}}, {"type": "Feature", "properties": {"Name": "Bösenreutin Tobelbach", "description": "<b>Kategorie:</b> Information — Besucherinformation<br><b>Distanz:</b> 2292 m<br><b>Website:</b> <br><b>Wikipedia:</b> <br><b>Telefon:</b> ", "timestamp": null, "begin": null, "end": null, "altitudeMode": null, "tessellate": -1, "extrude": 0, "visibility": -1, "drawOrder": null, "icon": null, "category_group": "Information"}, "geometry": {"type": "Point", "coordinates": [9.7278541, 47.5629808]}}, {"type": "Feature", "properties": {"Name": "Oberdorf", "description": "<b>Kategorie:</b> Information — Besucherinformation<br><b>Distanz:</b> 2814 m<br><b>Website:</b> <br><b>Wikipedia:</b> <br><b>Telefon:</b> ", "timestamp": null, "begin": null, "end": null, "altitudeMode": null, "tessellate": -1, "extrude": 0, "visibility": -1, "drawOrder": null, "icon": null, "category_group": "Information"}, "geometry": {"type": "Point", "coordinates": [9.7249067, 47.5732522]}}, {"type": "Feature", "properties": {"Name": "Tobel", "description": "<b>Kategorie:</b> Information — Besucherinformation<br><b>Distanz:</b> 2838 m<br><b>Website:</b> <br><b>Wikipedia:</b> <br><b>Telefon:</b> ", "timestamp": null, "begin": null, "end": null, "altitudeMode": null, "tessellate": -1, "extrude": 0, "visibility": -1, "drawOrder": null, "icon": null, "category_group": "Information"}, "geometry": {"type": "Point", "coordinates": [9.7285751, 47.5710831]}}, {"type": "Feature", "properties": {"Name": "Tobelkreuzung", "description": "<b>Kategorie:</b> Information — Besucherinformation<br><b>Distanz:</b> 3045 m<br><b>Website:</b> <br><b>Wikipedia:</b> <br><b>Telefon:</b> ", "timestamp": null, "begin": null, "end": null, "altitudeMode": null, "tessellate": -1, "extrude": 0, "visibility": -1, "drawOrder": null, "icon": null, "category_group": "Information"}, "geometry": {"type": "Point", "coordinates": [9.7297018, 47.5730028]}}, {"type": "Feature", "properties": {"Name": "Geodätischer Referenzpunkt Lindau", "description": "<b>Kategorie:</b> Information — Besucherinformation<br><b>Distanz:</b> 1666 m<br><b>Website:</b> <br><b>Wikipedia:</b> <br><b>Telefon:</b> ", "timestamp": null, "begin": null, "end": null, "altitudeMode": null, "tessellate": -1, "extrude": 0, "visibility": -1, "drawOrder": null, "icon": null, "category_group": "Information"}, "geometry": {"type": "Point", "coordinates": [9.6850885, 47.5432885]}}, {"type": "Feature", "properties": {"Name": "Hochbuch", "description": "<b>Kategorie:</b> Information — Besucherinformation<br><b>Distanz:</b> 2007 m<br><b>Website:</b> <br><b>Wikipedia:</b> <br><b>Telefon:</b> ", "timestamp": null, "begin": null, "end": null, "altitudeMode": null, "tessellate": -1, "extrude": 0, "visibility": -1, "drawOrder": null, "icon": null, "category_group": "Information"}, "geometry": {"type": "Point", "coordinates": [9.6852368, 47.5690898]}}, {"type": "Feature", "properties": {"Name": "Lindau Insel", "description": "<b>Kategorie:</b> Information — Besucherinformation<br><b>Distanz:</b> 1263 m<br><b>Website:</b> <br><b>Wikipedia:</b> <br><b>Telefon:</b> ", "timestamp": null, "begin": null, "end": null, "altitudeMode": null, "tessellate": -1, "extrude": 0, "visibility": -1, "drawOrder": null, "icon": null, "category_group": "Information"}, "geometry": {"type": "Point", "coordinates": [9.6886842, 47.5459735]}}, {"type": "Feature", "properties": {"Name": "Hoyren", "description": "<b>Kategorie:</b> Information — Besucherinformation<br><b>Distanz:</b> 2047 m<br><b>Website:</b> <br><b>Wikipedia:</b> <br><b>Telefon:</b> ", "timestamp": null, "begin": null, "end": null, "altitudeMode": null, "tessellate": -1, "extrude": 0, "visibility": -1, "drawOrder": null, "icon": null, "category_group": "Information"}, "geometry": {"type": "Point", "coordinates": [9.6783368, 47.5650617]}}, {"type": "Feature", "properties": {"Name": "Lindau", "description": "<b>Kategorie:</b> Information — Besucherinformation<br><b>Distanz:</b>  764 m<br><b>Website:</b> <br><b>Wikipedia:</b> <br><b>Telefon:</b> ", "timestamp": null, "begin": null, "end": null, "altitudeMode": null, "tessellate": -1, "extrude": 0, "visibility": -1, "drawOrder": null, "icon": null, "category_group": "Information"}, "geometry": {"type": "Point", "coordinates": [9.692224, 47.5500108]}}, {"type": "Feature", "properties": {"Name": "Giebelbach", "description": "<b>Kategorie:</b> Information — Besucherinformation<br><b>Distanz:</b> 1846 m<br><b>Website:</b> <br><b>Wikipedia:</b> <br><b>Telefon:</b> ", "timestamp": null, "begin": null, "end": null, "altitudeMode": null, "tessellate": -1, "extrude": 0, "visibility": -1, "drawOrder": null, "icon": null, "category_group": "Information"}, "geometry": {"type": "Point", "coordinates": [9.6765813, 47.5584314]}}, {"type": "Feature", "properties": {"Name": "Lindau Insel", "description": "<b>Kategorie:</b> Information — Besucherinformation<br><b>Distanz:</b> 1525 m<br><b>Website:</b> <br><b>Wikipedia:</b> <br><b>Telefon:</b> ", "timestamp": null, "begin": null, "end": null, "altitudeMode": null, "tessellate": -1, "extrude": 0, "visibility": -1, "drawOrder": null, "icon": null, "category_group": "Information"}, "geometry": {"type": "Point", "coordinates": [9.6855158, 47.5447932]}}, {"type": "Feature", "properties": {"Name": "Lindau Insel", "description": "<b>Kategorie:</b> Information — Besucherinformation<br><b>Distanz:</b> 1547 m<br><b>Website:</b> <br><b>Wikipedia:</b> <br><b>Telefon:</b> ", "timestamp": null, "begin": null, "end": null, "altitudeMode": null, "tessellate": -1, "extrude": 0, "visibility": -1, "drawOrder": null, "icon": null, "category_group": "Information"}, "geometry": {"type": "Point", "coordinates": [9.6853314, 47.5446411]}}, {"type": "Feature", "properties": {"Name": "Lindau Insel", "description": "<b>Kategorie:</b> Information — Besucherinformation<br><b>Distanz:</b> 1077 m<br><b>Website:</b> <br><b>Wikipedia:</b> <br><b>Telefon:</b> ", "timestamp": null, "begin": null, "end": null, "altitudeMode": null, "tessellate": -1, "extrude": 0, "visibility": -1, "drawOrder": null, "icon": null, "category_group": "Information"}, "geometry": {"type": "Point", "coordinates": [9.690276, 47.5472644]}}, {"type": "Feature", "properties": {"Name": "Stadtgarten", "description": "<b>Kategorie:</b> Information — Besucherinformation<br><b>Distanz:</b> 1005 m<br><b>Website:</b> <br><b>Wikipedia:</b> <br><b>Telefon:</b> ", "timestamp": null, "begin": null, "end": null, "altitudeMode": null, "tessellate": -1, "extrude": 0, "visibility": -1, "drawOrder": null, "icon": null, "category_group": "Information"}, "geometry": {"type": "Point", "coordinates": [9.6892623, 47.5490909]}}, {"type": "Feature", "properties": {"Name": "Schönau", "description": "<b>Kategorie:</b> Information — Besucherinformation<br><b>Distanz:</b> 3088 m<br><b>Website:</b> <br><b>Wikipedia:</b> <br><b>Telefon:</b> ", "timestamp": null, "begin": null, "end": null, "altitudeMode": null, "tessellate": -1, "extrude": 0, "visibility": -1, "drawOrder": null, "icon": null, "category_group": "Information"}, "geometry": {"type": "Point", "coordinates": [9.6730851, 47.5749836]}}, {"type": "Feature", "properties": {"Name": "Karl-Bever-Platz", "description": "<b>Kategorie:</b> Information — Besucherinformation<br><b>Distanz:</b>  764 m<br><b>Website:</b> <br><b>Wikipedia:</b> <br><b>Telefon:</b> ", "timestamp": null, "begin": null, "end": null, "altitudeMode": null, "tessellate": -1, "extrude": 0, "visibility": -1, "drawOrder": null, "icon": null, "category_group": "Information"}, "geometry": {"type": "Point", "coordinates": [9.6922223, 47.5500185]}}, {"type": "Feature", "properties": {"Name": "Karl-Bever-Platz", "description": "<b>Kategorie:</b> Information — Besucherinformation<br><b>Distanz:</b>  791 m<br><b>Website:</b> <br><b>Wikipedia:</b> <br><b>Telefon:</b> ", "timestamp": null, "begin": null, "end": null, "altitudeMode": null, "tessellate": -1, "extrude": 0, "visibility": -1, "drawOrder": null, "icon": null, "category_group": "Information"}, "geometry": {"type": "Point", "coordinates": [9.6916017, 47.550186]}}, {"type": "Feature", "properties": {"Name": "Hafenmeister Info", "description": "<b>Kategorie:</b> Information — Besucherinformation<br><b>Distanz:</b> 1138 m<br><b>Website:</b> <br><b>Wikipedia:</b> <br><b>Telefon:</b> ", "timestamp": null, "begin": null, "end": null, "altitudeMode": null, "tessellate": -1, "extrude": 0, "visibility": -1, "drawOrder": null, "icon": null, "category_group": "Information"}, "geometry": {"type": "Point", "coordinates": [9.6873283, 47.5489029]}}, {"type": "Feature", "properties": {"Name": "Reutiner Bucht Wasservögel am Bodensee", "description": "<b>Kategorie:</b> Information — Besucherinformation<br><b>Distanz:</b>  570 m<br><b>Website:</b> <br><b>Wikipedia:</b> <br><b>Telefon:</b> ", "timestamp": null, "begin": null, "end": null, "altitudeMode": null, "tessellate": -1, "extrude": 0, "visibility": -1, "drawOrder": null, "icon": null, "category_group": "Information"}, "geometry": {"type": "Point", "coordinates": [9.7038942, 47.5496653]}}, {"type": "Feature", "properties": {"Name": "Reutiner Bucht Strandrasengesellschaften am Bodensee", "description": "<b>Kategorie:</b> Information — Besucherinformation<br><b>Distanz:</b>  572 m<br><b>Website:</b> <br><b>Wikipedia:</b> <br><b>Telefon:</b> ", "timestamp": null, "begin": null, "end": null, "altitudeMode": null, "tessellate": -1, "extrude": 0, "visibility": -1, "drawOrder": null, "icon": null, "category_group": "Information"}, "geometry": {"type": "Point", "coordinates": [9.7039106, 47.5496563]}}, {"type": "Feature", "properties": {"Name": "Der Bodensee Aktuelle Veränderungen", "description": "<b>Kategorie:</b> Information — Besucherinformation<br><b>Distanz:</b>  568 m<br><b>Website:</b> <br><b>Wikipedia:</b> <br><b>Telefon:</b> ", "timestamp": null, "begin": null, "end": null, "altitudeMode": null, "tessellate": -1, "extrude": 0, "visibility": -1, "drawOrder": null, "icon": null, "category_group": "Information"}, "geometry": {"type": "Point", "coordinates": [9.703882, 47.5496877]}}, {"type": "Feature", "properties": {"Name": "Reutiner Bucht Wasser", "description": "<b>Kategorie:</b> Information — Besucherinformation<br><b>Distanz:</b>  458 m<br><b>Website:</b> <br><b>Wikipedia:</b> <br><b>Telefon:</b> ", "timestamp": null, "begin": null, "end": null, "altitudeMode": null, "tessellate": -1, "extrude": 0, "visibility": -1, "drawOrder": null, "icon": null, "category_group": "Information"}, "geometry": {"type": "Point", "coordinates": [9.703692, 47.5507583]}}, {"type": "Feature", "properties": {"Name": "Reutiner Bucht Lebensraum Schilf und Flachwasser", "description": "<b>Kategorie:</b> Information — Besucherinformation<br><b>Distanz:</b>  573 m<br><b>Website:</b> <br><b>Wikipedia:</b> <br><b>Telefon:</b> ", "timestamp": null, "begin": null, "end": null, "altitudeMode": null, "tessellate": -1, "extrude": 0, "visibility": -1, "drawOrder": null, "icon": null, "category_group": "Information"}, "geometry": {"type": "Point", "coordinates": [9.7039755, 47.5496644]}}, {"type": "Feature", "properties": {"Name": "Reutiner Bucht Ein typisches Bodenseeufer", "description": "<b>Kategorie:</b> Information — Besucherinformation<br><b>Distanz:</b>  467 m<br><b>Website:</b> <br><b>Wikipedia:</b> <br><b>Telefon:</b> ", "timestamp": null, "begin": null, "end": null, "altitudeMode": null, "tessellate": -1, "extrude": 0, "visibility": -1, "drawOrder": null, "icon": null, "category_group": "Information"}, "geometry": {"type": "Point", "coordinates": [9.7038469, 47.5507396]}}, {"type": "Feature", "properties": {"Name": "Stadtgarten", "description": "<b>Kategorie:</b> Information — Besucherinformation<br><b>Distanz:</b> 1049 m<br><b>Website:</b> <br><b>Wikipedia:</b> <br><b>Telefon:</b> ", "timestamp": null, "begin": null, "end": null, "altitudeMode": null, "tessellate": -1, "extrude": 0, "visibility": -1, "drawOrder": null, "icon": null, "category_group": "Information"}, "geometry": {"type": "Point", "coordinates": [9.6885748, 47.549069]}}, {"type": "Feature", "properties": {"Name": "Stadtgarten", "description": "<b>Kategorie:</b> Information — Besucherinformation<br><b>Distanz:</b> 1084 m<br><b>Website:</b> <br><b>Wikipedia:</b> <br><b>Telefon:</b> ", "timestamp": null, "begin": null, "end": null, "altitudeMode": null, "tessellate": -1, "extrude": 0, "visibility": -1, "drawOrder": null, "icon": null, "category_group": "Information"}, "geometry": {"type": "Point", "coordinates": [9.6902801, 47.5471733]}}, {"type": "Feature", "properties": {"Name": "Stadtgarten", "description": "<b>Kategorie:</b> Information — Besucherinformation<br><b>Distanz:</b>  957 m<br><b>Website:</b> <br><b>Wikipedia:</b> <br><b>Telefon:</b> ", "timestamp": null, "begin": null, "end": null, "altitudeMode": null, "tessellate": -1, "extrude": 0, "visibility": -1, "drawOrder": null, "icon": null, "category_group": "Information"}, "geometry": {"type": "Point", "coordinates": [9.6903727, 47.5487907]}}, {"type": "Feature", "properties": {"Name": "Stadtgarten", "description": "<b>Kategorie:</b> Information — Besucherinformation<br><b>Distanz:</b>  998 m<br><b>Website:</b> <br><b>Wikipedia:</b> <br><b>Telefon:</b> ", "timestamp": null, "begin": null, "end": null, "altitudeMode": null, "tessellate": -1, "extrude": 0, "visibility": -1, "drawOrder": null, "icon": null, "category_group": "Information"}, "geometry": {"type": "Point", "coordinates": [9.6897061, 47.5487782]}}, {"type": "Feature", "properties": {"Name": "Spielbank", "description": "<b>Kategorie:</b> Information — Besucherinformation<br><b>Distanz:</b> 1084 m<br><b>Website:</b> <br><b>Wikipedia:</b> <br><b>Telefon:</b> ", "timestamp": null, "begin": null, "end": null, "altitudeMode": null, "tessellate": -1, "extrude": 0, "visibility": -1, "drawOrder": null, "icon": null, "category_group": "Information"}, "geometry": {"type": "Point", "coordinates": [9.6901918, 47.5472292]}}, {"type": "Feature", "properties": {"Name": "Gerberschanze", "description": "<b>Kategorie:</b> Information — Besucherinformation<br><b>Distanz:</b> 1264 m<br><b>Website:</b> <br><b>Wikipedia:</b> <br><b>Telefon:</b> ", "timestamp": null, "begin": null, "end": null, "altitudeMode": null, "tessellate": -1, "extrude": 0, "visibility": -1, "drawOrder": null, "icon": null, "category_group": "Information"}, "geometry": {"type": "Point", "coordinates": [9.6887648, 47.5459133]}}, {"type": "Feature", "properties": {"Name": "Segelhafen", "description": "<b>Kategorie:</b> Information — Besucherinformation<br><b>Distanz:</b> 1430 m<br><b>Website:</b> <br><b>Wikipedia:</b> <br><b>Telefon:</b> ", "timestamp": null, "begin": null, "end": null, "altitudeMode": null, "tessellate": -1, "extrude": 0, "visibility": -1, "drawOrder": null, "icon": null, "category_group": "Information"}, "geometry": {"type": "Point", "coordinates": [9.6869778, 47.5449981]}}, {"type": "Feature", "properties": {"Name": "Mangturm", "description": "<b>Kategorie:</b> Information — Besucherinformation<br><b>Distanz:</b> 1667 m<br><b>Website:</b> <br><b>Wikipedia:</b> <br><b>Telefon:</b> ", "timestamp": null, "begin": null, "end": null, "altitudeMode": null, "tessellate": -1, "extrude": 0, "visibility": -1, "drawOrder": null, "icon": null, "category_group": "Information"}, "geometry": {"type": "Point", "coordinates": [9.6834513, 47.5444343]}}, {"type": "Feature", "properties": {"Name": "Lindau", "description": "<b>Kategorie:</b> Information — Besucherinformation<br><b>Distanz:</b> 1795 m<br><b>Website:</b> <br><b>Wikipedia:</b> <br><b>Telefon:</b> ", "timestamp": null, "begin": null, "end": null, "altitudeMode": null, "tessellate": -1, "extrude": 0, "visibility": -1, "drawOrder": null, "icon": null, "category_group": "Information"}, "geometry": {"type": "Point", "coordinates": [9.6809474, 47.5447354]}}, {"type": "Feature", "properties": {"Name": "Lindau", "description": "<b>Kategorie:</b> Information — Besucherinformation<br><b>Distanz:</b> 1794 m<br><b>Website:</b> <br><b>Wikipedia:</b> <br><b>Telefon:</b> ", "timestamp": null, "begin": null, "end": null, "altitudeMode": null, "tessellate": -1, "extrude": 0, "visibility": -1, "drawOrder": null, "icon": null, "category_group": "Information"}, "geometry": {"type": "Point", "coordinates": [9.6809392, 47.5447577]}}, {"type": "Feature", "properties": {"Name": "Über die Grenze", "description": "<b>Kategorie:</b> Information — Besucherinformation<br><b>Distanz:</b> 1779 m<br><b>Website:</b> <br><b>Wikipedia:</b> <br><b>Telefon:</b> ", "timestamp": null, "begin": null, "end": null, "altitudeMode": null, "tessellate": -1, "extrude": 0, "visibility": -1, "drawOrder": null, "icon": null, "category_group": "Information"}, "geometry": {"type": "Point", "coordinates": [9.6820408, 47.54401]}}, {"type": "Feature", "properties": {"Name": "Lindau entdecken", "description": "<b>Kategorie:</b> Information — Besucherinformation<br><b>Distanz:</b> 1777 m<br><b>Website:</b> <br><b>Wikipedia:</b> <br><b>Telefon:</b> ", "timestamp": null, "begin": null, "end": null, "altitudeMode": null, "tessellate": -1, "extrude": 0, "visibility": -1, "drawOrder": null, "icon": null, "category_group": "Information"}, "geometry": {"type": "Point", "coordinates": [9.6815376, 47.5444611]}}, {"type": "Feature", "properties": {"Name": "Villa Engel", "description": "<b>Kategorie:</b> Kinder & Jugend — Kindergarten<br><b>Distanz:</b>  722 m<br><b>Website:</b> <br><b>Wikipedia:</b> <br><b>Telefon:</b> ", "timestamp": null, "begin": null, "end": null, "altitudeMode": null, "tessellate": -1, "extrude": 0, "visibility": -1, "drawOrder": null, "icon": null, "category_group": "Kinder & Jugend"}, "geometry": {"type": "Point", "coordinates": [9.6933714, 47.5586776]}}, {"type": "Feature", "properties": {"Name": "Kinderhaus St. Stephan", "description": "<b>Kategorie:</b> Kinder & Jugend — Kindergarten<br><b>Distanz:</b> 1316 m<br><b>Website:</b> <br><b>Wikipedia:</b> <br><b>Telefon:</b> ", "timestamp": null, "begin": null, "end": null, "altitudeMode": null, "tessellate": -1, "extrude": 0, "visibility": -1, "drawOrder": null, "icon": null, "category_group": "Kinder & Jugend"}, "geometry": {"type": "Point", "coordinates": [9.6858852, 47.547465]}}, {"type": "Feature", "properties": {"Name": "Torkel am Hoyerberg", "description": "<b>Kategorie:</b> Kultur & Geschichte — Attraktion<br><b>Distanz:</b> 2152 m<br><b>Website:</b> <br><b>Wikipedia:</b> <br><b>Telefon:</b> ", "timestamp": null, "begin": null, "end": null, "altitudeMode": null, "tessellate": -1, "extrude": 0, "visibility": -1, "drawOrder": null, "icon": null, "category_group": "Kultur & Geschichte"}, "geometry": {"type": "Point", "coordinates": [9.6752907, 47.5635931]}}, {"type": "Feature", "properties": {"Name": "Diebsturm", "description": "<b>Kategorie:</b> Kultur & Geschichte — Attraktion<br><b>Distanz:</b> 1633 m<br><b>Website:</b> <br><b>Wikipedia:</b> <br><b>Telefon:</b> ", "timestamp": null, "begin": null, "end": null, "altitudeMode": null, "tessellate": -1, "extrude": 0, "visibility": -1, "drawOrder": null, "icon": null, "category_group": "Kultur & Geschichte"}, "geometry": {"type": "Point", "coordinates": [9.6816561, 47.5466529]}}, {"type": "Feature", "properties": {"Name": "Neues Rathaus", "description": "<b>Kategorie:</b> Kultur & Geschichte — Attraktion<br><b>Distanz:</b> 1526 m<br><b>Website:</b> <br><b>Wikipedia:</b> <br><b>Telefon:</b> ", "timestamp": null, "begin": null, "end": null, "altitudeMode": null, "tessellate": -1, "extrude": 0, "visibility": -1, "drawOrder": null, "icon": null, "category_group": "Kultur & Geschichte"}, "geometry": {"type": "Point", "coordinates": [9.6838297, 47.5461675]}}, {"type": "Feature", "properties": {"Name": "Parktheater", "description": "<b>Kategorie:</b> Kultur & Geschichte — Kino<br><b>Distanz:</b> 1126 m<br><b>Website:</b> https://kino-lindau.de/<br><b>Wikipedia:</b> <br><b>Telefon:</b> ", "timestamp": null, "begin": null, "end": null, "altitudeMode": null, "tessellate": -1, "extrude": 0, "visibility": -1, "drawOrder": null, "icon": null, "category_group": "Kultur & Geschichte"}, "geometry": {"type": "Point", "coordinates": [9.6878873, 47.5485117]}}, {"type": "Feature", "properties": {"Name": "Römerschanze", "description": "<b>Kategorie:</b> Kultur & Geschichte — Attraktion<br><b>Distanz:</b> 1595 m<br><b>Website:</b> <br><b>Wikipedia:</b> <br><b>Telefon:</b> ", "timestamp": null, "begin": null, "end": null, "altitudeMode": null, "tessellate": -1, "extrude": 0, "visibility": -1, "drawOrder": null, "icon": null, "category_group": "Kultur & Geschichte"}, "geometry": {"type": "Point", "coordinates": [9.6855325, 47.543882]}}, {"type": "Feature", "properties": {"Name": "Zeughaus", "description": "<b>Kategorie:</b> Kultur & Geschichte — Theater<br><b>Distanz:</b> 1576 m<br><b>Website:</b> https://www.zeughaus-lindau.de/<br><b>Wikipedia:</b> <br><b>Telefon:</b> ", "timestamp": null, "begin": null, "end": null, "altitudeMode": null, "tessellate": -1, "extrude": 0, "visibility": -1, "drawOrder": null, "icon": null, "category_group": "Kultur & Geschichte"}, "geometry": {"type": "Point", "coordinates": [9.6819938, 47.5472922]}}, {"type": "Feature", "properties": {"Name": "Galerie und Weinstube Zur Fischerin", "description": "<b>Kategorie:</b> Kultur & Geschichte — Galerie<br><b>Distanz:</b> 1709 m<br><b>Website:</b> https://www.fischerin.com/<br><b>Wikipedia:</b> <br><b>Telefon:</b> ", "timestamp": null, "begin": null, "end": null, "altitudeMode": null, "tessellate": -1, "extrude": 0, "visibility": -1, "drawOrder": null, "icon": null, "category_group": "Kultur & Geschichte"}, "geometry": {"type": "Point", "coordinates": [9.6823052, 47.5447887]}}, {"type": "Feature", "properties": {"Name": "Stadttheater Lindau", "description": "<b>Kategorie:</b> Kultur & Geschichte — Theater<br><b>Distanz:</b> 1335 m<br><b>Website:</b> https://www.kultur-lindau.de/theater/<br><b>Wikipedia:</b> de:Stadttheater Lindau<br><b>Telefon:</b> +49 8382 9113911", "timestamp": null, "begin": null, "end": null, "altitudeMode": null, "tessellate": -1, "extrude": 0, "visibility": -1, "drawOrder": null, "icon": null, "category_group": "Kultur & Geschichte"}, "geometry": {"type": "Point", "coordinates": [9.6873266, 47.5459784]}}, {"type": "Feature", "properties": {"Name": "Linggbrunnen", "description": "<b>Kategorie:</b> Kultur & Geschichte — Attraktion<br><b>Distanz:</b> 1350 m<br><b>Website:</b> <br><b>Wikipedia:</b> <br><b>Telefon:</b> ", "timestamp": null, "begin": null, "end": null, "altitudeMode": null, "tessellate": -1, "extrude": 0, "visibility": -1, "drawOrder": null, "icon": null, "category_group": "Kultur & Geschichte"}, "geometry": {"type": "Point", "coordinates": [9.686454, 47.5464531]}}, {"type": "Feature", "properties": {"Name": "Waldlehrpfad Motzach", "description": "<b>Kategorie:</b> Kultur & Geschichte — Attraktion<br><b>Distanz:</b> 2010 m<br><b>Website:</b> <br><b>Wikipedia:</b> <br><b>Telefon:</b> ", "timestamp": null, "begin": null, "end": null, "altitudeMode": null, "tessellate": -1, "extrude": 0, "visibility": -1, "drawOrder": null, "icon": null, "category_group": "Kultur & Geschichte"}, "geometry": {"type": "Point", "coordinates": [9.707384, 47.571616]}}, {"type": "Feature", "properties": {"Name": "Lindauer Marionettenoper", "description": "<b>Kategorie:</b> Kultur & Geschichte — Theater<br><b>Distanz:</b> 1352 m<br><b>Website:</b> https://www.marionettenoper.de<br><b>Wikipedia:</b> <br><b>Telefon:</b> +49 8382 942446", "timestamp": null, "begin": null, "end": null, "altitudeMode": null, "tessellate": -1, "extrude": 0, "visibility": -1, "drawOrder": null, "icon": null, "category_group": "Kultur & Geschichte"}, "geometry": {"type": "Point", "coordinates": [9.6870748, 47.5459457]}}, {"type": "Feature", "properties": {"Name": "Glockengiesserei", "description": "<b>Kategorie:</b> Kultur & Geschichte — Attraktion<br><b>Distanz:</b> 1621 m<br><b>Website:</b> <br><b>Wikipedia:</b> <br><b>Telefon:</b> ", "timestamp": null, "begin": null, "end": null, "altitudeMode": null, "tessellate": -1, "extrude": 0, "visibility": -1, "drawOrder": null, "icon": null, "category_group": "Kultur & Geschichte"}, "geometry": {"type": "Point", "coordinates": [9.6817658, 47.5467423]}}, {"type": "Feature", "properties": {"Name": "Haus Zum Pflug", "description": "<b>Kategorie:</b> Kultur & Geschichte — Attraktion<br><b>Distanz:</b> 1551 m<br><b>Website:</b> <br><b>Wikipedia:</b> <br><b>Telefon:</b> ", "timestamp": null, "begin": null, "end": null, "altitudeMode": null, "tessellate": -1, "extrude": 0, "visibility": -1, "drawOrder": null, "icon": null, "category_group": "Kultur & Geschichte"}, "geometry": {"type": "Point", "coordinates": [9.6832552, 47.5463334]}}, {"type": "Feature", "properties": {"Name": "Alte Hauptwache", "description": "<b>Kategorie:</b> Kultur & Geschichte — Attraktion<br><b>Distanz:</b> 1284 m<br><b>Website:</b> <br><b>Wikipedia:</b> <br><b>Telefon:</b> ", "timestamp": null, "begin": null, "end": null, "altitudeMode": null, "tessellate": -1, "extrude": 0, "visibility": -1, "drawOrder": null, "icon": null, "category_group": "Kultur & Geschichte"}, "geometry": {"type": "Point", "coordinates": [9.6868305, 47.5470793]}}, {"type": "Feature", "properties": {"Name": "Gerberschanze", "description": "<b>Kategorie:</b> Kultur & Geschichte — Attraktion<br><b>Distanz:</b> 1262 m<br><b>Website:</b> <br><b>Wikipedia:</b> <br><b>Telefon:</b> ", "timestamp": null, "begin": null, "end": null, "altitudeMode": null, "tessellate": -1, "extrude": 0, "visibility": -1, "drawOrder": null, "icon": null, "category_group": "Kultur & Geschichte"}, "geometry": {"type": "Point", "coordinates": [9.6888659, 47.5458703]}}, {"type": "Feature", "properties": {"Name": "Ehemalige Klostermühle", "description": "<b>Kategorie:</b> Kultur & Geschichte — Attraktion<br><b>Distanz:</b> 1241 m<br><b>Website:</b> <br><b>Wikipedia:</b> <br><b>Telefon:</b> ", "timestamp": null, "begin": null, "end": null, "altitudeMode": null, "tessellate": -1, "extrude": 0, "visibility": -1, "drawOrder": null, "icon": null, "category_group": "Kultur & Geschichte"}, "geometry": {"type": "Point", "coordinates": [9.6980598, 47.5652446]}}, {"type": "Feature", "properties": {"Name": "Hexenstein", "description": "<b>Kategorie:</b> Kultur & Geschichte — Attraktion<br><b>Distanz:</b> 1770 m<br><b>Website:</b> <br><b>Wikipedia:</b> de:Hexenstein (Lindau)<br><b>Telefon:</b> ", "timestamp": null, "begin": null, "end": null, "altitudeMode": null, "tessellate": -1, "extrude": 0, "visibility": -1, "drawOrder": null, "icon": null, "category_group": "Kultur & Geschichte"}, "geometry": {"type": "Point", "coordinates": [9.6783977, 47.5483664]}}, {"type": "Feature", "properties": {"Name": "Touristeninformation", "description": "<b>Kategorie:</b> Kultur & Geschichte — Attraktion<br><b>Distanz:</b> 1773 m<br><b>Website:</b> <br><b>Wikipedia:</b> <br><b>Telefon:</b> ", "timestamp": null, "begin": null, "end": null, "altitudeMode": null, "tessellate": -1, "extrude": 0, "visibility": -1, "drawOrder": null, "icon": null, "category_group": "Kultur & Geschichte"}, "geometry": {"type": "Point", "coordinates": [9.6815707, 47.5445012]}}, {"type": "Feature", "properties": {"Name": "Pulverschanze", "description": "<b>Kategorie:</b> Kultur & Geschichte — Attraktion<br><b>Distanz:</b> 2028 m<br><b>Website:</b> <br><b>Wikipedia:</b> <br><b>Telefon:</b> ", "timestamp": null, "begin": null, "end": null, "altitudeMode": null, "tessellate": -1, "extrude": 0, "visibility": -1, "drawOrder": null, "icon": null, "category_group": "Kultur & Geschichte"}, "geometry": {"type": "Point", "coordinates": [9.6759782, 47.5463143]}}, {"type": "Feature", "properties": {"Name": "Kunstatelier Irina Levina", "description": "<b>Kategorie:</b> Kultur & Geschichte — Galerie<br><b>Distanz:</b> 1260 m<br><b>Website:</b> <br><b>Wikipedia:</b> <br><b>Telefon:</b> ", "timestamp": null, "begin": null, "end": null, "altitudeMode": null, "tessellate": -1, "extrude": 0, "visibility": -1, "drawOrder": null, "icon": null, "category_group": "Kultur & Geschichte"}, "geometry": {"type": "Point", "coordinates": [9.6882512, 47.5463057]}}, {"type": "Feature", "properties": {"Name": "Kunstforum Hundertwasser", "description": "<b>Kategorie:</b> Kultur & Geschichte — Museum<br><b>Distanz:</b> 1722 m<br><b>Website:</b> https://kultur.lindau.de/kunstforum/<br><b>Wikipedia:</b> <br><b>Telefon:</b> +49 8382 274747850", "timestamp": null, "begin": null, "end": null, "altitudeMode": null, "tessellate": -1, "extrude": 0, "visibility": -1, "drawOrder": null, "icon": null, "category_group": "Kultur & Geschichte"}, "geometry": {"type": "Point", "coordinates": [9.6811511, 47.5456957]}}, {"type": "Feature", "properties": {"Name": "Mang Haus", "description": "<b>Kategorie:</b> Kultur & Geschichte — Attraktion<br><b>Distanz:</b> 1603 m<br><b>Website:</b> <br><b>Wikipedia:</b> <br><b>Telefon:</b> ", "timestamp": null, "begin": null, "end": null, "altitudeMode": null, "tessellate": -1, "extrude": 0, "visibility": -1, "drawOrder": null, "icon": null, "category_group": "Kultur & Geschichte"}, "geometry": {"type": "Point", "coordinates": [9.6819603, 47.5468438]}}, {"type": "Feature", "properties": {"Name": "Haus zum Glogge", "description": "<b>Kategorie:</b> Kultur & Geschichte — Attraktion<br><b>Distanz:</b> 1574 m<br><b>Website:</b> <br><b>Wikipedia:</b> <br><b>Telefon:</b> ", "timestamp": null, "begin": null, "end": null, "altitudeMode": null, "tessellate": -1, "extrude": 0, "visibility": -1, "drawOrder": null, "icon": null, "category_group": "Kultur & Geschichte"}, "geometry": {"type": "Point", "coordinates": [9.6821783, 47.5470954]}}, {"type": "Feature", "properties": {"Name": "Haus zum Storchen", "description": "<b>Kategorie:</b> Kultur & Geschichte — Attraktion<br><b>Distanz:</b> 1494 m<br><b>Website:</b> <br><b>Wikipedia:</b> <br><b>Telefon:</b> ", "timestamp": null, "begin": null, "end": null, "altitudeMode": null, "tessellate": -1, "extrude": 0, "visibility": -1, "drawOrder": null, "icon": null, "category_group": "Kultur & Geschichte"}, "geometry": {"type": "Point", "coordinates": [9.6834207, 47.5470936]}}, {"type": "Feature", "properties": {"Name": "Nobelpreisträger-Steg", "description": "<b>Kategorie:</b> Kultur & Geschichte — Attraktion<br><b>Distanz:</b> 1183 m<br><b>Website:</b> <br><b>Wikipedia:</b> <br><b>Telefon:</b> ", "timestamp": null, "begin": null, "end": null, "altitudeMode": null, "tessellate": -1, "extrude": 0, "visibility": -1, "drawOrder": null, "icon": null, "category_group": "Kultur & Geschichte"}, "geometry": {"type": "Point", "coordinates": [9.6863112, 47.5493064]}}, {"type": "Feature", "properties": {"Name": "Allgäuer Art Galerie", "description": "<b>Kategorie:</b> Kultur & Geschichte — Galerie<br><b>Distanz:</b> 1499 m<br><b>Website:</b> https://www.sargladen.com/kontakt/<br><b>Wikipedia:</b> <br><b>Telefon:</b> ", "timestamp": null, "begin": null, "end": null, "altitudeMode": null, "tessellate": -1, "extrude": 0, "visibility": -1, "drawOrder": null, "icon": null, "category_group": "Kultur & Geschichte"}, "geometry": {"type": "Point", "coordinates": [9.6836781, 47.5467478]}}, {"type": "Feature", "properties": {"Name": "Atelier Mathes Seidl", "description": "<b>Kategorie:</b> Kultur & Geschichte — Galerie<br><b>Distanz:</b> 1351 m<br><b>Website:</b> https://www.mathes-seidl.de/<br><b>Wikipedia:</b> <br><b>Telefon:</b> ", "timestamp": null, "begin": null, "end": null, "altitudeMode": null, "tessellate": -1, "extrude": 0, "visibility": -1, "drawOrder": null, "icon": null, "category_group": "Kultur & Geschichte"}, "geometry": {"type": "Point", "coordinates": [9.6869297, 47.5460658]}}, {"type": "Feature", "properties": {"Name": "Cavazzen Museum", "description": "<b>Kategorie:</b> Kultur & Geschichte — Museum<br><b>Distanz:</b> 1291 m<br><b>Website:</b> https://kultur.lindau.de/cavazzen-museum/<br><b>Wikipedia:</b> de:Stadtmuseum Lindau<br><b>Telefon:</b> +49 8382 918810", "timestamp": null, "begin": null, "end": null, "altitudeMode": null, "tessellate": -1, "extrude": 0, "visibility": -1, "drawOrder": null, "icon": null, "category_group": "Kultur & Geschichte"}, "geometry": {"type": "Point", "coordinates": [9.6865953, 47.5471821]}}, {"type": "Feature", "properties": {"Name": "Gerberschanze", "description": "<b>Kategorie:</b> Natur & Landschaft — Aussichtspunkt<br><b>Distanz:</b> 1262 m<br><b>Website:</b> <br><b>Wikipedia:</b> <br><b>Telefon:</b> ", "timestamp": null, "begin": null, "end": null, "altitudeMode": null, "tessellate": -1, "extrude": 0, "visibility": -1, "drawOrder": null, "icon": null, "category_group": "Natur & Landschaft"}, "geometry": {"type": "Point", "coordinates": [9.6889818, 47.5457949]}}, {"type": "Feature", "properties": {"Name": "Hochberg", "description": "<b>Kategorie:</b> Natur & Landschaft — Natur-Feature (alle)<br><b>Distanz:</b> 7845 m<br><b>Website:</b> <br><b>Wikipedia:</b> de:Hochberg (Allgäuer Alpen)<br><b>Telefon:</b> ", "timestamp": null, "begin": null, "end": null, "altitudeMode": null, "tessellate": -1, "extrude": 0, "visibility": -1, "drawOrder": null, "icon": null, "category_group": "Natur & Landschaft"}, "geometry": {"type": "Point", "coordinates": [9.8031382, 47.5425853]}}, {"type": "Feature", "properties": {"Name": "Entenberg", "description": "<b>Kategorie:</b> Natur & Landschaft — Aussichtspunkt<br><b>Distanz:</b> 2526 m<br><b>Website:</b> <br><b>Wikipedia:</b> <br><b>Telefon:</b> ", "timestamp": null, "begin": null, "end": null, "altitudeMode": null, "tessellate": -1, "extrude": 0, "visibility": -1, "drawOrder": null, "icon": null, "category_group": "Natur & Landschaft"}, "geometry": {"type": "Point", "coordinates": [9.679434, 47.5719869]}}, {"type": "Feature", "properties": {"Name": "Hoyerberg", "description": "<b>Kategorie:</b> Natur & Landschaft — Natur-Feature (alle)<br><b>Distanz:</b> 2320 m<br><b>Website:</b> <br><b>Wikipedia:</b> <br><b>Telefon:</b> ", "timestamp": null, "begin": null, "end": null, "altitudeMode": null, "tessellate": -1, "extrude": 0, "visibility": -1, "drawOrder": null, "icon": null, "category_group": "Natur & Landschaft"}, "geometry": {"type": "Point", "coordinates": [9.6741428, 47.5652431]}}, {"type": "Feature", "properties": {"Name": "Pulverschanze", "description": "<b>Kategorie:</b> Natur & Landschaft — Aussichtspunkt<br><b>Distanz:</b> 2030 m<br><b>Website:</b> <br><b>Wikipedia:</b> <br><b>Telefon:</b> ", "timestamp": null, "begin": null, "end": null, "altitudeMode": null, "tessellate": -1, "extrude": 0, "visibility": -1, "drawOrder": null, "icon": null, "category_group": "Natur & Landschaft"}, "geometry": {"type": "Point", "coordinates": [9.6759602, 47.5463002]}}, {"type": "Feature", "properties": {"Name": "Blick über den Bodensee", "description": "<b>Kategorie:</b> Natur & Landschaft — Aussichtspunkt<br><b>Distanz:</b> 1787 m<br><b>Website:</b> <br><b>Wikipedia:</b> <br><b>Telefon:</b> ", "timestamp": null, "begin": null, "end": null, "altitudeMode": null, "tessellate": -1, "extrude": 0, "visibility": -1, "drawOrder": null, "icon": null, "category_group": "Natur & Landschaft"}, "geometry": {"type": "Point", "coordinates": [9.6784357, 47.5478887]}}, {"type": "Feature", "properties": {"Name": "Entenberg", "description": "<b>Kategorie:</b> Natur & Landschaft — Natur-Feature (alle)<br><b>Distanz:</b> 2542 m<br><b>Website:</b> <br><b>Wikipedia:</b> <br><b>Telefon:</b> ", "timestamp": null, "begin": null, "end": null, "altitudeMode": null, "tessellate": -1, "extrude": 0, "visibility": -1, "drawOrder": null, "icon": null, "category_group": "Natur & Landschaft"}, "geometry": {"type": "Point", "coordinates": [9.6793868, 47.5721538]}}, {"type": "Feature", "properties": {"Name": "Johannesberg", "description": "<b>Kategorie:</b> Natur & Landschaft — Natur-Feature (alle)<br><b>Distanz:</b> 3898 m<br><b>Website:</b> <br><b>Wikipedia:</b> <br><b>Telefon:</b> ", "timestamp": null, "begin": null, "end": null, "altitudeMode": null, "tessellate": -1, "extrude": 0, "visibility": -1, "drawOrder": null, "icon": null, "category_group": "Natur & Landschaft"}, "geometry": {"type": "Point", "coordinates": [9.7386503, 47.5777634]}}, {"type": "Feature", "properties": {"Name": "Sandbichel", "description": "<b>Kategorie:</b> Natur & Landschaft — Natur-Feature (alle)<br><b>Distanz:</b> 3038 m<br><b>Website:</b> <br><b>Wikipedia:</b> <br><b>Telefon:</b> ", "timestamp": null, "begin": null, "end": null, "altitudeMode": null, "tessellate": -1, "extrude": 0, "visibility": -1, "drawOrder": null, "icon": null, "category_group": "Natur & Landschaft"}, "geometry": {"type": "Point", "coordinates": [9.7281253, 47.5739852]}}]}