{"type": "FeatureCollection", "features": [{"type": "Feature", "properties": {"Name": "JH 31 — Jugendherberge Triberg", "description": "<b>JH Nr:</b> 31<br><b>Name:</b> Jugendherberge Triberg<br><b>Ort:</b> Triberg<br><b>Adresse:</b> Rohrbacher Str. 35 78098 Triberg<br><b>Telefon:</b> +49 7722 4110<br><b>Bundesland:</b> Baden-Württemberg", "timestamp": null, "begin": null, "end": null, "altitudeMode": null, "tessellate": -1, "extrude": 0, "visibility": -1, "drawOrder": null, "icon": null, "category_group": "JH"}, "geometry": {"type": "Point", "coordinates": [8.2440334, 48.1245761]}}, {"type": "Feature", "properties": {"Name": "Gastgeber in Triberg", "description": "<b>Kategorie:</b> Information — Besucherinformation<br><b>Distanz:</b>  1462 m<br><b>Website:</b> <br><b>Wikipedia:</b> <br><b>Telefon:</b> ", "timestamp": null, "begin": null, "end": null, "altitudeMode": null, "tessellate": -1, "extrude": 0, "visibility": -1, "drawOrder": null, "icon": null, "category_group": "Information"}, "geometry": {"type": "Point", "coordinates": [8.2365264, 48.1367314]}}, {"type": "Feature", "properties": {"Name": "TRI11", "description": "<b>Kategorie:</b> Information — Besucherinformation<br><b>Distanz:</b>  1611 m<br><b>Website:</b> <br><b>Wikipedia:</b> <br><b>Telefon:</b> ", "timestamp": null, "begin": null, "end": null, "altitudeMode": null, "tessellate": -1, "extrude": 0, "visibility": -1, "drawOrder": null, "icon": null, "category_group": "Information"}, "geometry": {"type": "Point", "coordinates": [8.2400518, 48.1388265]}}, {"type": "Feature", "properties": {"Name": "Bahnhofsbrücke", "description": "<b>Kategorie:</b> Information — Besucherinformation<br><b>Distanz:</b>  1529 m<br><b>Website:</b> <br><b>Wikipedia:</b> <br><b>Telefon:</b> ", "timestamp": null, "begin": null, "end": null, "altitudeMode": null, "tessellate": -1, "extrude": 0, "visibility": -1, "drawOrder": null, "icon": null, "category_group": "Information"}, "geometry": {"type": "Point", "coordinates": [8.2388311, 48.137882]}}, {"type": "Feature", "properties": {"Name": "Triberg/Schwarzwald", "description": "<b>Kategorie:</b> Information — Besucherinformation<br><b>Distanz:</b>  1752 m<br><b>Website:</b> <br><b>Wikipedia:</b> <br><b>Telefon:</b> ", "timestamp": null, "begin": null, "end": null, "altitudeMode": null, "tessellate": -1, "extrude": 0, "visibility": -1, "drawOrder": null, "icon": null, "category_group": "Information"}, "geometry": {"type": "Point", "coordinates": [8.237732, 48.1397659]}}, {"type": "Feature", "properties": {"Name": "Adelheid", "description": "<b>Kategorie:</b> Information — Besucherinformation<br><b>Distanz:</b>  1662 m<br><b>Website:</b> <br><b>Wikipedia:</b> <br><b>Telefon:</b> ", "timestamp": null, "begin": null, "end": null, "altitudeMode": null, "tessellate": -1, "extrude": 0, "visibility": -1, "drawOrder": null, "icon": null, "category_group": "Information"}, "geometry": {"type": "Point", "coordinates": [8.2217282, 48.1237935]}}, {"type": "Feature", "properties": {"Name": "Hauptstraße", "description": "<b>Kategorie:</b> Information — Besucherinformation<br><b>Distanz:</b>  1194 m<br><b>Website:</b> <br><b>Wikipedia:</b> <br><b>Telefon:</b> ", "timestamp": null, "begin": null, "end": null, "altitudeMode": null, "tessellate": -1, "extrude": 0, "visibility": -1, "drawOrder": null, "icon": null, "category_group": "Information"}, "geometry": {"type": "Point", "coordinates": [8.2338897, 48.1328945]}}, {"type": "Feature", "properties": {"Name": "Kohlplatz", "description": "<b>Kategorie:</b> Information — Besucherinformation<br><b>Distanz:</b>   964 m<br><b>Website:</b> <br><b>Wikipedia:</b> <br><b>Telefon:</b> ", "timestamp": null, "begin": null, "end": null, "altitudeMode": null, "tessellate": -1, "extrude": 0, "visibility": -1, "drawOrder": null, "icon": null, "category_group": "Information"}, "geometry": {"type": "Point", "coordinates": [8.2310875, 48.1244337]}}, {"type": "Feature", "properties": {"Name": "Kurhaus", "description": "<b>Kategorie:</b> Information — Besucherinformation<br><b>Distanz:</b>   951 m<br><b>Website:</b> <br><b>Wikipedia:</b> <br><b>Telefon:</b> ", "timestamp": null, "begin": null, "end": null, "altitudeMode": null, "tessellate": -1, "extrude": 0, "visibility": -1, "drawOrder": null, "icon": null, "category_group": "Information"}, "geometry": {"type": "Point", "coordinates": [8.2321353, 48.1276989]}}, {"type": "Feature", "properties": {"Name": "Unterstadt", "description": "<b>Kategorie:</b> Information — Besucherinformation<br><b>Distanz:</b>  1280 m<br><b>Website:</b> <br><b>Wikipedia:</b> <br><b>Telefon:</b> ", "timestamp": null, "begin": null, "end": null, "altitudeMode": null, "tessellate": -1, "extrude": 0, "visibility": -1, "drawOrder": null, "icon": null, "category_group": "Information"}, "geometry": {"type": "Point", "coordinates": [8.2356871, 48.1346437]}}, {"type": "Feature", "properties": {"Name": "Wasserfälle Haupteingang", "description": "<b>Kategorie:</b> Information — Besucherinformation<br><b>Distanz:</b>  1100 m<br><b>Website:</b> <br><b>Wikipedia:</b> <br><b>Telefon:</b> ", "timestamp": null, "begin": null, "end": null, "altitudeMode": null, "tessellate": -1, "extrude": 0, "visibility": -1, "drawOrder": null, "icon": null, "category_group": "Information"}, "geometry": {"type": "Point", "coordinates": [8.2305029, 48.1285621]}}, {"type": "Feature", "properties": {"Name": "Froschbrunnen", "description": "<b>Kategorie:</b> Information — Besucherinformation<br><b>Distanz:</b>   647 m<br><b>Website:</b> <br><b>Wikipedia:</b> <br><b>Telefon:</b> ", "timestamp": null, "begin": null, "end": null, "altitudeMode": null, "tessellate": -1, "extrude": 0, "visibility": -1, "drawOrder": null, "icon": null, "category_group": "Information"}, "geometry": {"type": "Point", "coordinates": [8.2353432, 48.1243946]}}, {"type": "Feature", "properties": {"Name": "Geutsche", "description": "<b>Kategorie:</b> Information — Besucherinformation<br><b>Distanz:</b>   690 m<br><b>Website:</b> <br><b>Wikipedia:</b> <br><b>Telefon:</b> ", "timestamp": null, "begin": null, "end": null, "altitudeMode": null, "tessellate": -1, "extrude": 0, "visibility": -1, "drawOrder": null, "icon": null, "category_group": "Information"}, "geometry": {"type": "Point", "coordinates": [8.2473851, 48.1187873]}}, {"type": "Feature", "properties": {"Name": "Oberliemberg", "description": "<b>Kategorie:</b> Information — Besucherinformation<br><b>Distanz:</b>  1007 m<br><b>Website:</b> <br><b>Wikipedia:</b> <br><b>Telefon:</b> ", "timestamp": null, "begin": null, "end": null, "altitudeMode": null, "tessellate": -1, "extrude": 0, "visibility": -1, "drawOrder": null, "icon": null, "category_group": "Information"}, "geometry": {"type": "Point", "coordinates": [8.248493, 48.1160263]}}, {"type": "Feature", "properties": {"Name": "Rodelbahn", "description": "<b>Kategorie:</b> Information — Besucherinformation<br><b>Distanz:</b>   294 m<br><b>Website:</b> <br><b>Wikipedia:</b> <br><b>Telefon:</b> ", "timestamp": null, "begin": null, "end": null, "altitudeMode": null, "tessellate": -1, "extrude": 0, "visibility": -1, "drawOrder": null, "icon": null, "category_group": "Information"}, "geometry": {"type": "Point", "coordinates": [8.2424212, 48.1221595]}}, {"type": "Feature", "properties": {"Name": "Feißesberg", "description": "<b>Kategorie:</b> Information — Besucherinformation<br><b>Distanz:</b>  2024 m<br><b>Website:</b> <br><b>Wikipedia:</b> <br><b>Telefon:</b> ", "timestamp": null, "begin": null, "end": null, "altitudeMode": null, "tessellate": -1, "extrude": 0, "visibility": -1, "drawOrder": null, "icon": null, "category_group": "Information"}, "geometry": {"type": "Point", "coordinates": [8.2466094, 48.1426993]}}, {"type": "Feature", "properties": {"Name": "Hohnen", "description": "<b>Kategorie:</b> Information — Besucherinformation<br><b>Distanz:</b>  2680 m<br><b>Website:</b> <br><b>Wikipedia:</b> <br><b>Telefon:</b> ", "timestamp": null, "begin": null, "end": null, "altitudeMode": null, "tessellate": -1, "extrude": 0, "visibility": -1, "drawOrder": null, "icon": null, "category_group": "Information"}, "geometry": {"type": "Point", "coordinates": [8.257184, 48.1470203]}}, {"type": "Feature", "properties": {"Name": "Kreisbacher Höhe", "description": "<b>Kategorie:</b> Information — Besucherinformation<br><b>Distanz:</b>  2690 m<br><b>Website:</b> <br><b>Wikipedia:</b> <br><b>Telefon:</b> ", "timestamp": null, "begin": null, "end": null, "altitudeMode": null, "tessellate": -1, "extrude": 0, "visibility": -1, "drawOrder": null, "icon": null, "category_group": "Information"}, "geometry": {"type": "Point", "coordinates": [8.2656479, 48.1439805]}}, {"type": "Feature", "properties": {"Name": "Lange Lochen", "description": "<b>Kategorie:</b> Information — Besucherinformation<br><b>Distanz:</b>  2937 m<br><b>Website:</b> <br><b>Wikipedia:</b> <br><b>Telefon:</b> ", "timestamp": null, "begin": null, "end": null, "altitudeMode": null, "tessellate": -1, "extrude": 0, "visibility": -1, "drawOrder": null, "icon": null, "category_group": "Information"}, "geometry": {"type": "Point", "coordinates": [8.2768899, 48.1099432]}}, {"type": "Feature", "properties": {"Name": "Unterer Hirzwald", "description": "<b>Kategorie:</b> Information — Besucherinformation<br><b>Distanz:</b>  3148 m<br><b>Website:</b> <br><b>Wikipedia:</b> <br><b>Telefon:</b> ", "timestamp": null, "begin": null, "end": null, "altitudeMode": null, "tessellate": -1, "extrude": 0, "visibility": -1, "drawOrder": null, "icon": null, "category_group": "Information"}, "geometry": {"type": "Point", "coordinates": [8.2748299, 48.1051678]}}, {"type": "Feature", "properties": {"Name": "Bergsee", "description": "<b>Kategorie:</b> Information — Besucherinformation<br><b>Distanz:</b>  1733 m<br><b>Website:</b> <br><b>Wikipedia:</b> <br><b>Telefon:</b> ", "timestamp": null, "begin": null, "end": null, "altitudeMode": null, "tessellate": -1, "extrude": 0, "visibility": -1, "drawOrder": null, "icon": null, "category_group": "Information"}, "geometry": {"type": "Point", "coordinates": [8.2235594, 48.1319977]}}, {"type": "Feature", "properties": {"Name": "Busparkplatz", "description": "<b>Kategorie:</b> Information — Besucherinformation<br><b>Distanz:</b>  1320 m<br><b>Website:</b> <br><b>Wikipedia:</b> <br><b>Telefon:</b> ", "timestamp": null, "begin": null, "end": null, "altitudeMode": null, "tessellate": -1, "extrude": 0, "visibility": -1, "drawOrder": null, "icon": null, "category_group": "Information"}, "geometry": {"type": "Point", "coordinates": [8.2285366, 48.1303549]}}, {"type": "Feature", "properties": {"Name": "Kuckucksuhr", "description": "<b>Kategorie:</b> Information — Besucherinformation<br><b>Distanz:</b>  2583 m<br><b>Website:</b> <br><b>Wikipedia:</b> <br><b>Telefon:</b> ", "timestamp": null, "begin": null, "end": null, "altitudeMode": null, "tessellate": -1, "extrude": 0, "visibility": -1, "drawOrder": null, "icon": null, "category_group": "Information"}, "geometry": {"type": "Point", "coordinates": [8.2140385, 48.1362726]}}, {"type": "Feature", "properties": {"Name": "Schweizerhaus", "description": "<b>Kategorie:</b> Information — Besucherinformation<br><b>Distanz:</b>  3127 m<br><b>Website:</b> <br><b>Wikipedia:</b> <br><b>Telefon:</b> ", "timestamp": null, "begin": null, "end": null, "altitudeMode": null, "tessellate": -1, "extrude": 0, "visibility": -1, "drawOrder": null, "icon": null, "category_group": "Information"}, "geometry": {"type": "Point", "coordinates": [8.2125015, 48.1059861]}}, {"type": "Feature", "properties": {"Name": "Schwenninger Hütte", "description": "<b>Kategorie:</b> Information — Besucherinformation<br><b>Distanz:</b>  2079 m<br><b>Website:</b> <br><b>Wikipedia:</b> <br><b>Telefon:</b> ", "timestamp": null, "begin": null, "end": null, "altitudeMode": null, "tessellate": -1, "extrude": 0, "visibility": -1, "drawOrder": null, "icon": null, "category_group": "Information"}, "geometry": {"type": "Point", "coordinates": [8.2579065, 48.1083382]}}, {"type": "Feature", "properties": {"Name": "Prisenhäusle", "description": "<b>Kategorie:</b> Information — Besucherinformation<br><b>Distanz:</b>   792 m<br><b>Website:</b> <br><b>Wikipedia:</b> <br><b>Telefon:</b> ", "timestamp": null, "begin": null, "end": null, "altitudeMode": null, "tessellate": -1, "extrude": 0, "visibility": -1, "drawOrder": null, "icon": null, "category_group": "Information"}, "geometry": {"type": "Point", "coordinates": [8.2339255, 48.1223344]}}, {"type": "Feature", "properties": {"Name": "Bobbahn", "description": "<b>Kategorie:</b> Information — Besucherinformation<br><b>Distanz:</b>  1574 m<br><b>Website:</b> <br><b>Wikipedia:</b> <br><b>Telefon:</b> ", "timestamp": null, "begin": null, "end": null, "altitudeMode": null, "tessellate": -1, "extrude": 0, "visibility": -1, "drawOrder": null, "icon": null, "category_group": "Information"}, "geometry": {"type": "Point", "coordinates": [8.2234987, 48.1211929]}}, {"type": "Feature", "properties": {"Name": "Inselklause", "description": "<b>Kategorie:</b> Information — Besucherinformation<br><b>Distanz:</b>  2456 m<br><b>Website:</b> <br><b>Wikipedia:</b> <br><b>Telefon:</b> ", "timestamp": null, "begin": null, "end": null, "altitudeMode": null, "tessellate": -1, "extrude": 0, "visibility": -1, "drawOrder": null, "icon": null, "category_group": "Information"}, "geometry": {"type": "Point", "coordinates": [8.2127479, 48.1175574]}}, {"type": "Feature", "properties": {"Name": "Russenbuche", "description": "<b>Kategorie:</b> Information — Besucherinformation<br><b>Distanz:</b>  1116 m<br><b>Website:</b> <br><b>Wikipedia:</b> <br><b>Telefon:</b> ", "timestamp": null, "begin": null, "end": null, "altitudeMode": null, "tessellate": -1, "extrude": 0, "visibility": -1, "drawOrder": null, "icon": null, "category_group": "Information"}, "geometry": {"type": "Point", "coordinates": [8.2402099, 48.1342854]}}, {"type": "Feature", "properties": {"Name": "Am Kroneck", "description": "<b>Kategorie:</b> Information — Besucherinformation<br><b>Distanz:</b>  2738 m<br><b>Website:</b> <br><b>Wikipedia:</b> <br><b>Telefon:</b> ", "timestamp": null, "begin": null, "end": null, "altitudeMode": null, "tessellate": -1, "extrude": 0, "visibility": -1, "drawOrder": null, "icon": null, "category_group": "Information"}, "geometry": {"type": "Point", "coordinates": [8.2191065, 48.1426967]}}, {"type": "Feature", "properties": {"Name": "Bienenstand", "description": "<b>Kategorie:</b> Information — Besucherinformation<br><b>Distanz:</b>   492 m<br><b>Website:</b> <br><b>Wikipedia:</b> <br><b>Telefon:</b> ", "timestamp": null, "begin": null, "end": null, "altitudeMode": null, "tessellate": -1, "extrude": 0, "visibility": -1, "drawOrder": null, "icon": null, "category_group": "Information"}, "geometry": {"type": "Point", "coordinates": [8.2462242, 48.1287535]}}, {"type": "Feature", "properties": {"Name": "Dreikaiser-Felsen", "description": "<b>Kategorie:</b> Information — Besucherinformation<br><b>Distanz:</b>   807 m<br><b>Website:</b> <br><b>Wikipedia:</b> <br><b>Telefon:</b> ", "timestamp": null, "begin": null, "end": null, "altitudeMode": null, "tessellate": -1, "extrude": 0, "visibility": -1, "drawOrder": null, "icon": null, "category_group": "Information"}, "geometry": {"type": "Point", "coordinates": [8.2401435, 48.1313535]}}, {"type": "Feature", "properties": {"Name": "Retschen", "description": "<b>Kategorie:</b> Information — Besucherinformation<br><b>Distanz:</b>   455 m<br><b>Website:</b> <br><b>Wikipedia:</b> <br><b>Telefon:</b> ", "timestamp": null, "begin": null, "end": null, "altitudeMode": null, "tessellate": -1, "extrude": 0, "visibility": -1, "drawOrder": null, "icon": null, "category_group": "Information"}, "geometry": {"type": "Point", "coordinates": [8.2456769, 48.1285176]}}, {"type": "Feature", "properties": {"Name": "Triberg-Blick", "description": "<b>Kategorie:</b> Information — Besucherinformation<br><b>Distanz:</b>  1637 m<br><b>Website:</b> <br><b>Wikipedia:</b> <br><b>Telefon:</b> ", "timestamp": null, "begin": null, "end": null, "altitudeMode": null, "tessellate": -1, "extrude": 0, "visibility": -1, "drawOrder": null, "icon": null, "category_group": "Information"}, "geometry": {"type": "Point", "coordinates": [8.2313212, 48.1365907]}}, {"type": "Feature", "properties": {"Name": "Rigi-Pavillon", "description": "<b>Kategorie:</b> Information — Besucherinformation<br><b>Distanz:</b>  1365 m<br><b>Website:</b> <br><b>Wikipedia:</b> <br><b>Telefon:</b> ", "timestamp": null, "begin": null, "end": null, "altitudeMode": null, "tessellate": -1, "extrude": 0, "visibility": -1, "drawOrder": null, "icon": null, "category_group": "Information"}, "geometry": {"type": "Point", "coordinates": [8.2411343, 48.1367056]}}, {"type": "Feature", "properties": {"Name": "Schützenhaus", "description": "<b>Kategorie:</b> Information — Besucherinformation<br><b>Distanz:</b>  1049 m<br><b>Website:</b> <br><b>Wikipedia:</b> <br><b>Telefon:</b> ", "timestamp": null, "begin": null, "end": null, "altitudeMode": null, "tessellate": -1, "extrude": 0, "visibility": -1, "drawOrder": null, "icon": null, "category_group": "Information"}, "geometry": {"type": "Point", "coordinates": [8.2443427, 48.1340071]}}, {"type": "Feature", "properties": {"Name": "Triberg Asklepios-Klinik", "description": "<b>Kategorie:</b> Information — Besucherinformation<br><b>Distanz:</b>  1060 m<br><b>Website:</b> <br><b>Wikipedia:</b> <br><b>Telefon:</b> ", "timestamp": null, "begin": null, "end": null, "altitudeMode": null, "tessellate": -1, "extrude": 0, "visibility": -1, "drawOrder": null, "icon": null, "category_group": "Information"}, "geometry": {"type": "Point", "coordinates": [8.2305694, 48.1276993]}}, {"type": "Feature", "properties": {"Name": "Wasserfälle Bergseebrücke", "description": "<b>Kategorie:</b> Information — Besucherinformation<br><b>Distanz:</b>  1238 m<br><b>Website:</b> <br><b>Wikipedia:</b> <br><b>Telefon:</b> ", "timestamp": null, "begin": null, "end": null, "altitudeMode": null, "tessellate": -1, "extrude": 0, "visibility": -1, "drawOrder": null, "icon": null, "category_group": "Information"}, "geometry": {"type": "Point", "coordinates": [8.227558, 48.1261205]}}, {"type": "Feature", "properties": {"Name": "Wasserfälle Bergseebrücke", "description": "<b>Kategorie:</b> Information — Besucherinformation<br><b>Distanz:</b>  1208 m<br><b>Website:</b> <br><b>Wikipedia:</b> <br><b>Telefon:</b> ", "timestamp": null, "begin": null, "end": null, "altitudeMode": null, "tessellate": -1, "extrude": 0, "visibility": -1, "drawOrder": null, "icon": null, "category_group": "Information"}, "geometry": {"type": "Point", "coordinates": [8.2280062, 48.1262763]}}, {"type": "Feature", "properties": {"Name": "Eingang Bergseebrücke", "description": "<b>Kategorie:</b> Information — Besucherinformation<br><b>Distanz:</b>  1295 m<br><b>Website:</b> <br><b>Wikipedia:</b> <br><b>Telefon:</b> ", "timestamp": null, "begin": null, "end": null, "altitudeMode": null, "tessellate": -1, "extrude": 0, "visibility": -1, "drawOrder": null, "icon": null, "category_group": "Information"}, "geometry": {"type": "Point", "coordinates": [8.2273493, 48.1278866]}}, {"type": "Feature", "properties": {"Name": "Ehrenmal", "description": "<b>Kategorie:</b> Information — Besucherinformation<br><b>Distanz:</b>  1459 m<br><b>Website:</b> <br><b>Wikipedia:</b> <br><b>Telefon:</b> ", "timestamp": null, "begin": null, "end": null, "altitudeMode": null, "tessellate": -1, "extrude": 0, "visibility": -1, "drawOrder": null, "icon": null, "category_group": "Information"}, "geometry": {"type": "Point", "coordinates": [8.2303579, 48.1339885]}}, {"type": "Feature", "properties": {"Name": "Untere Geutsche", "description": "<b>Kategorie:</b> Information — Besucherinformation<br><b>Distanz:</b>   259 m<br><b>Website:</b> <br><b>Wikipedia:</b> <br><b>Telefon:</b> ", "timestamp": null, "begin": null, "end": null, "altitudeMode": null, "tessellate": -1, "extrude": 0, "visibility": -1, "drawOrder": null, "icon": null, "category_group": "Information"}, "geometry": {"type": "Point", "coordinates": [8.2469173, 48.1258813]}}, {"type": "Feature", "properties": {"Name": "Jugendherberge", "description": "<b>Kategorie:</b> Information — Besucherinformation<br><b>Distanz:</b>    72 m<br><b>Website:</b> <br><b>Wikipedia:</b> <br><b>Telefon:</b> ", "timestamp": null, "begin": null, "end": null, "altitudeMode": null, "tessellate": -1, "extrude": 0, "visibility": -1, "drawOrder": null, "icon": null, "category_group": "Information"}, "geometry": {"type": "Point", "coordinates": [8.2447015, 48.1241051]}}, {"type": "Feature", "properties": {"Name": "Mosenbach", "description": "<b>Kategorie:</b> Information — Besucherinformation<br><b>Distanz:</b>   545 m<br><b>Website:</b> <br><b>Wikipedia:</b> <br><b>Telefon:</b> ", "timestamp": null, "begin": null, "end": null, "altitudeMode": null, "tessellate": -1, "extrude": 0, "visibility": -1, "drawOrder": null, "icon": null, "category_group": "Information"}, "geometry": {"type": "Point", "coordinates": [8.2382686, 48.1215456]}}, {"type": "Feature", "properties": {"Name": "Prisenparkplatz", "description": "<b>Kategorie:</b> Information — Besucherinformation<br><b>Distanz:</b>   543 m<br><b>Website:</b> <br><b>Wikipedia:</b> <br><b>Telefon:</b> ", "timestamp": null, "begin": null, "end": null, "altitudeMode": null, "tessellate": -1, "extrude": 0, "visibility": -1, "drawOrder": null, "icon": null, "category_group": "Information"}, "geometry": {"type": "Point", "coordinates": [8.237931, 48.1219036]}}, {"type": "Feature", "properties": {"Name": "Schützenhausweg", "description": "<b>Kategorie:</b> Information — Besucherinformation<br><b>Distanz:</b>   994 m<br><b>Website:</b> <br><b>Wikipedia:</b> <br><b>Telefon:</b> ", "timestamp": null, "begin": null, "end": null, "altitudeMode": null, "tessellate": -1, "extrude": 0, "visibility": -1, "drawOrder": null, "icon": null, "category_group": "Information"}, "geometry": {"type": "Point", "coordinates": [8.2473535, 48.1332417]}}, {"type": "Feature", "properties": {"Name": "Unterliemberg", "description": "<b>Kategorie:</b> Information — Besucherinformation<br><b>Distanz:</b>   552 m<br><b>Website:</b> <br><b>Wikipedia:</b> <br><b>Telefon:</b> ", "timestamp": null, "begin": null, "end": null, "altitudeMode": null, "tessellate": -1, "extrude": 0, "visibility": -1, "drawOrder": null, "icon": null, "category_group": "Information"}, "geometry": {"type": "Point", "coordinates": [8.2510698, 48.1230063]}}, {"type": "Feature", "properties": {"Name": "Ratshaus", "description": "<b>Kategorie:</b> Information — Besucherinformation<br><b>Distanz:</b>  1218 m<br><b>Website:</b> <br><b>Wikipedia:</b> <br><b>Telefon:</b> ", "timestamp": null, "begin": null, "end": null, "altitudeMode": null, "tessellate": -1, "extrude": 0, "visibility": -1, "drawOrder": null, "icon": null, "category_group": "Information"}, "geometry": {"type": "Point", "coordinates": [8.2581707, 48.1301046]}}, {"type": "Feature", "properties": {"Name": "Bahnübergang Kreisbach", "description": "<b>Kategorie:</b> Information — Besucherinformation<br><b>Distanz:</b>  2052 m<br><b>Website:</b> <br><b>Wikipedia:</b> <br><b>Telefon:</b> ", "timestamp": null, "begin": null, "end": null, "altitudeMode": null, "tessellate": -1, "extrude": 0, "visibility": -1, "drawOrder": null, "icon": null, "category_group": "Information"}, "geometry": {"type": "Point", "coordinates": [8.2652317, 48.1363866]}}, {"type": "Feature", "properties": {"Name": "Jockenbauer", "description": "<b>Kategorie:</b> Information — Besucherinformation<br><b>Distanz:</b>   854 m<br><b>Website:</b> <br><b>Wikipedia:</b> <br><b>Telefon:</b> ", "timestamp": null, "begin": null, "end": null, "altitudeMode": null, "tessellate": -1, "extrude": 0, "visibility": -1, "drawOrder": null, "icon": null, "category_group": "Information"}, "geometry": {"type": "Point", "coordinates": [8.2540645, 48.1208461]}}, {"type": "Feature", "properties": {"Name": "Alte Straße", "description": "<b>Kategorie:</b> Information — Besucherinformation<br><b>Distanz:</b>  1217 m<br><b>Website:</b> <br><b>Wikipedia:</b> <br><b>Telefon:</b> ", "timestamp": null, "begin": null, "end": null, "altitudeMode": null, "tessellate": -1, "extrude": 0, "visibility": -1, "drawOrder": null, "icon": null, "category_group": "Information"}, "geometry": {"type": "Point", "coordinates": [8.2575028, 48.1307784]}}, {"type": "Feature", "properties": {"Name": "Gutenhöhe", "description": "<b>Kategorie:</b> Information — Besucherinformation<br><b>Distanz:</b>  2514 m<br><b>Website:</b> <br><b>Wikipedia:</b> <br><b>Telefon:</b> ", "timestamp": null, "begin": null, "end": null, "altitudeMode": null, "tessellate": -1, "extrude": 0, "visibility": -1, "drawOrder": null, "icon": null, "category_group": "Information"}, "geometry": {"type": "Point", "coordinates": [8.2342262, 48.1029286]}}, {"type": "Feature", "properties": {"Name": "Lourdes-Grotte", "description": "<b>Kategorie:</b> Information — Besucherinformation<br><b>Distanz:</b>  1271 m<br><b>Website:</b> <br><b>Wikipedia:</b> <br><b>Telefon:</b> ", "timestamp": null, "begin": null, "end": null, "altitudeMode": null, "tessellate": -1, "extrude": 0, "visibility": -1, "drawOrder": null, "icon": null, "category_group": "Information"}, "geometry": {"type": "Point", "coordinates": [8.2591427, 48.1299062]}}, {"type": "Feature", "properties": {"Name": "Pappelntal", "description": "<b>Kategorie:</b> Information — Besucherinformation<br><b>Distanz:</b>  1128 m<br><b>Website:</b> <br><b>Wikipedia:</b> <br><b>Telefon:</b> ", "timestamp": null, "begin": null, "end": null, "altitudeMode": null, "tessellate": -1, "extrude": 0, "visibility": -1, "drawOrder": null, "icon": null, "category_group": "Information"}, "geometry": {"type": "Point", "coordinates": [8.2551961, 48.1177079]}}, {"type": "Feature", "properties": {"Name": "Am Kroneck", "description": "<b>Kategorie:</b> Information — Besucherinformation<br><b>Distanz:</b>  1777 m<br><b>Website:</b> <br><b>Wikipedia:</b> <br><b>Telefon:</b> ", "timestamp": null, "begin": null, "end": null, "altitudeMode": null, "tessellate": -1, "extrude": 0, "visibility": -1, "drawOrder": null, "icon": null, "category_group": "Information"}, "geometry": {"type": "Point", "coordinates": [8.2241405, 48.1334138]}}, {"type": "Feature", "properties": {"Name": "Hintertal", "description": "<b>Kategorie:</b> Information — Besucherinformation<br><b>Distanz:</b>  1265 m<br><b>Website:</b> <br><b>Wikipedia:</b> <br><b>Telefon:</b> ", "timestamp": null, "begin": null, "end": null, "altitudeMode": null, "tessellate": -1, "extrude": 0, "visibility": -1, "drawOrder": null, "icon": null, "category_group": "Information"}, "geometry": {"type": "Point", "coordinates": [8.26094, 48.1257449]}}, {"type": "Feature", "properties": {"Name": "Prisen", "description": "<b>Kategorie:</b> Information — Besucherinformation<br><b>Distanz:</b>  2247 m<br><b>Website:</b> <br><b>Wikipedia:</b> <br><b>Telefon:</b> ", "timestamp": null, "begin": null, "end": null, "altitudeMode": null, "tessellate": -1, "extrude": 0, "visibility": -1, "drawOrder": null, "icon": null, "category_group": "Information"}, "geometry": {"type": "Point", "coordinates": [8.2307335, 48.1064251]}}, {"type": "Feature", "properties": {"Name": "Bahnhof", "description": "<b>Kategorie:</b> Information — Besucherinformation<br><b>Distanz:</b>  1690 m<br><b>Website:</b> <br><b>Wikipedia:</b> <br><b>Telefon:</b> ", "timestamp": null, "begin": null, "end": null, "altitudeMode": null, "tessellate": -1, "extrude": 0, "visibility": -1, "drawOrder": null, "icon": null, "category_group": "Information"}, "geometry": {"type": "Point", "coordinates": [8.2376978, 48.1391775]}}, {"type": "Feature", "properties": {"Name": "Feißesberg West", "description": "<b>Kategorie:</b> Information — Besucherinformation<br><b>Distanz:</b>  2001 m<br><b>Website:</b> <br><b>Wikipedia:</b> <br><b>Telefon:</b> ", "timestamp": null, "begin": null, "end": null, "altitudeMode": null, "tessellate": -1, "extrude": 0, "visibility": -1, "drawOrder": null, "icon": null, "category_group": "Information"}, "geometry": {"type": "Point", "coordinates": [8.2452826, 48.1425581]}}, {"type": "Feature", "properties": {"Name": "Tourist-Information Triberg", "description": "<b>Kategorie:</b> Information — Besucherinformation<br><b>Distanz:</b>  1172 m<br><b>Website:</b> <br><b>Wikipedia:</b> <br><b>Telefon:</b> ", "timestamp": null, "begin": null, "end": null, "altitudeMode": null, "tessellate": -1, "extrude": 0, "visibility": -1, "drawOrder": null, "icon": null, "category_group": "Information"}, "geometry": {"type": "Point", "coordinates": [8.2297769, 48.1290486]}}, {"type": "Feature", "properties": {"Name": "Gibbesbach", "description": "<b>Kategorie:</b> Information — Besucherinformation<br><b>Distanz:</b>  1454 m<br><b>Website:</b> <br><b>Wikipedia:</b> <br><b>Telefon:</b> ", "timestamp": null, "begin": null, "end": null, "altitudeMode": null, "tessellate": -1, "extrude": 0, "visibility": -1, "drawOrder": null, "icon": null, "category_group": "Information"}, "geometry": {"type": "Point", "coordinates": [8.2539319, 48.1358519]}}, {"type": "Feature", "properties": {"Name": "Im Burgerwald", "description": "<b>Kategorie:</b> Information — Besucherinformation<br><b>Distanz:</b>  1345 m<br><b>Website:</b> <br><b>Wikipedia:</b> <br><b>Telefon:</b> ", "timestamp": null, "begin": null, "end": null, "altitudeMode": null, "tessellate": -1, "extrude": 0, "visibility": -1, "drawOrder": null, "icon": null, "category_group": "Information"}, "geometry": {"type": "Point", "coordinates": [8.2260497, 48.1234187]}}, {"type": "Feature", "properties": {"Name": "Nußhurt-Kapelle", "description": "<b>Kategorie:</b> Information — Besucherinformation<br><b>Distanz:</b>  1775 m<br><b>Website:</b> <br><b>Wikipedia:</b> <br><b>Telefon:</b> ", "timestamp": null, "begin": null, "end": null, "altitudeMode": null, "tessellate": -1, "extrude": 0, "visibility": -1, "drawOrder": null, "icon": null, "category_group": "Information"}, "geometry": {"type": "Point", "coordinates": [8.248586, 48.1088976]}}, {"type": "Feature", "properties": {"Name": "Mosenberg", "description": "<b>Kategorie:</b> Information — Besucherinformation<br><b>Distanz:</b>  2176 m<br><b>Website:</b> <br><b>Wikipedia:</b> <br><b>Telefon:</b> ", "timestamp": null, "begin": null, "end": null, "altitudeMode": null, "tessellate": -1, "extrude": 0, "visibility": -1, "drawOrder": null, "icon": null, "category_group": "Information"}, "geometry": {"type": "Point", "coordinates": [8.2389948, 48.1052923]}}, {"type": "Feature", "properties": {"Name": "Prisen Klausenhof", "description": "<b>Kategorie:</b> Information — Besucherinformation<br><b>Distanz:</b>  2180 m<br><b>Website:</b> <br><b>Wikipedia:</b> <br><b>Telefon:</b> ", "timestamp": null, "begin": null, "end": null, "altitudeMode": null, "tessellate": -1, "extrude": 0, "visibility": -1, "drawOrder": null, "icon": null, "category_group": "Information"}, "geometry": {"type": "Point", "coordinates": [8.2324619, 48.1065563]}}, {"type": "Feature", "properties": {"Name": "Überm Gotterhäusle", "description": "<b>Kategorie:</b> Information — Besucherinformation<br><b>Distanz:</b>  2630 m<br><b>Website:</b> <br><b>Wikipedia:</b> <br><b>Telefon:</b> ", "timestamp": null, "begin": null, "end": null, "altitudeMode": null, "tessellate": -1, "extrude": 0, "visibility": -1, "drawOrder": null, "icon": null, "category_group": "Information"}, "geometry": {"type": "Point", "coordinates": [8.2208969, 48.1066893]}}, {"type": "Feature", "properties": {"Name": "Bobbahn", "description": "<b>Kategorie:</b> Information — Besucherinformation<br><b>Distanz:</b>  1548 m<br><b>Website:</b> <br><b>Wikipedia:</b> <br><b>Telefon:</b> ", "timestamp": null, "begin": null, "end": null, "altitudeMode": null, "tessellate": -1, "extrude": 0, "visibility": -1, "drawOrder": null, "icon": null, "category_group": "Information"}, "geometry": {"type": "Point", "coordinates": [8.2236526, 48.1217921]}}, {"type": "Feature", "properties": {"Name": "Blick zur Brigachquelle", "description": "<b>Kategorie:</b> Information — Besucherinformation<br><b>Distanz:</b>  2938 m<br><b>Website:</b> <br><b>Wikipedia:</b> <br><b>Telefon:</b> ", "timestamp": null, "begin": null, "end": null, "altitudeMode": null, "tessellate": -1, "extrude": 0, "visibility": -1, "drawOrder": null, "icon": null, "category_group": "Information"}, "geometry": {"type": "Point", "coordinates": [8.2768864, 48.1099241]}}, {"type": "Feature", "properties": {"Name": "Robert-Gerwig-Denkmal", "description": "<b>Kategorie:</b> Information — Besucherinformation<br><b>Distanz:</b>  1671 m<br><b>Website:</b> <br><b>Wikipedia:</b> <br><b>Telefon:</b> ", "timestamp": null, "begin": null, "end": null, "altitudeMode": null, "tessellate": -1, "extrude": 0, "visibility": -1, "drawOrder": null, "icon": null, "category_group": "Information"}, "geometry": {"type": "Point", "coordinates": [8.2471865, 48.139457]}}, {"type": "Feature", "properties": {"Name": "Planstadt Triberg", "description": "<b>Kategorie:</b> Information — Besucherinformation<br><b>Distanz:</b>  1141 m<br><b>Website:</b> <br><b>Wikipedia:</b> <br><b>Telefon:</b> ", "timestamp": null, "begin": null, "end": null, "altitudeMode": null, "tessellate": -1, "extrude": 0, "visibility": -1, "drawOrder": null, "icon": null, "category_group": "Information"}, "geometry": {"type": "Point", "coordinates": [8.2324032, 48.1312637]}}, {"type": "Feature", "properties": {"Name": "Henkerhäusle", "description": "<b>Kategorie:</b> Information — Besucherinformation<br><b>Distanz:</b>  1236 m<br><b>Website:</b> <br><b>Wikipedia:</b> <br><b>Telefon:</b> ", "timestamp": null, "begin": null, "end": null, "altitudeMode": null, "tessellate": -1, "extrude": 0, "visibility": -1, "drawOrder": null, "icon": null, "category_group": "Information"}, "geometry": {"type": "Point", "coordinates": [8.2347475, 48.1337919]}}, {"type": "Feature", "properties": {"Name": "Altes Spital und Siechenhaus", "description": "<b>Kategorie:</b> Information — Besucherinformation<br><b>Distanz:</b>  1217 m<br><b>Website:</b> <br><b>Wikipedia:</b> <br><b>Telefon:</b> ", "timestamp": null, "begin": null, "end": null, "altitudeMode": null, "tessellate": -1, "extrude": 0, "visibility": -1, "drawOrder": null, "icon": null, "category_group": "Information"}, "geometry": {"type": "Point", "coordinates": [8.2343969, 48.1334249]}}, {"type": "Feature", "properties": {"Name": "Wandern im Hochschwarzwald", "description": "<b>Kategorie:</b> Information — Besucherinformation<br><b>Distanz:</b>  3394 m<br><b>Website:</b> <br><b>Wikipedia:</b> <br><b>Telefon:</b> ", "timestamp": null, "begin": null, "end": null, "altitudeMode": null, "tessellate": -1, "extrude": 0, "visibility": -1, "drawOrder": null, "icon": null, "category_group": "Information"}, "geometry": {"type": "Point", "coordinates": [8.2131426, 48.1470424]}}, {"type": "Feature", "properties": {"Name": "Naturwald", "description": "<b>Kategorie:</b> Information — Besucherinformation<br><b>Distanz:</b>  1210 m<br><b>Website:</b> <br><b>Wikipedia:</b> <br><b>Telefon:</b> ", "timestamp": null, "begin": null, "end": null, "altitudeMode": null, "tessellate": -1, "extrude": 0, "visibility": -1, "drawOrder": null, "icon": null, "category_group": "Information"}, "geometry": {"type": "Point", "coordinates": [8.2279699, 48.1262817]}}, {"type": "Feature", "properties": {"Name": "Tannenhäher", "description": "<b>Kategorie:</b> Information — Besucherinformation<br><b>Distanz:</b>  1238 m<br><b>Website:</b> <br><b>Wikipedia:</b> <br><b>Telefon:</b> ", "timestamp": null, "begin": null, "end": null, "altitudeMode": null, "tessellate": -1, "extrude": 0, "visibility": -1, "drawOrder": null, "icon": null, "category_group": "Information"}, "geometry": {"type": "Point", "coordinates": [8.2275565, 48.1261276]}}, {"type": "Feature", "properties": {"Name": "Schöne Ferien", "description": "<b>Kategorie:</b> Information — Besucherinformation<br><b>Distanz:</b>  1164 m<br><b>Website:</b> <br><b>Wikipedia:</b> <br><b>Telefon:</b> ", "timestamp": null, "begin": null, "end": null, "altitudeMode": null, "tessellate": -1, "extrude": 0, "visibility": -1, "drawOrder": null, "icon": null, "category_group": "Information"}, "geometry": {"type": "Point", "coordinates": [8.2287096, 48.1266932]}}, {"type": "Feature", "properties": {"Name": "Berühmte Tanne", "description": "<b>Kategorie:</b> Information — Besucherinformation<br><b>Distanz:</b>  1150 m<br><b>Website:</b> <br><b>Wikipedia:</b> <br><b>Telefon:</b> ", "timestamp": null, "begin": null, "end": null, "altitudeMode": null, "tessellate": -1, "extrude": 0, "visibility": -1, "drawOrder": null, "icon": null, "category_group": "Information"}, "geometry": {"type": "Point", "coordinates": [8.2291044, 48.1272368]}}, {"type": "Feature", "properties": {"Name": "Eichhörnchen", "description": "<b>Kategorie:</b> Information — Besucherinformation<br><b>Distanz:</b>  1118 m<br><b>Website:</b> <br><b>Wikipedia:</b> <br><b>Telefon:</b> ", "timestamp": null, "begin": null, "end": null, "altitudeMode": null, "tessellate": -1, "extrude": 0, "visibility": -1, "drawOrder": null, "icon": null, "category_group": "Information"}, "geometry": {"type": "Point", "coordinates": [8.2298226, 48.1278527]}}, {"type": "Feature", "properties": {"Name": "Alter Schönwälder Weg", "description": "<b>Kategorie:</b> Information — Besucherinformation<br><b>Distanz:</b>  1082 m<br><b>Website:</b> <br><b>Wikipedia:</b> <br><b>Telefon:</b> ", "timestamp": null, "begin": null, "end": null, "altitudeMode": null, "tessellate": -1, "extrude": 0, "visibility": -1, "drawOrder": null, "icon": null, "category_group": "Information"}, "geometry": {"type": "Point", "coordinates": [8.2299896, 48.1270909]}}, {"type": "Feature", "properties": {"Name": "TR 040", "description": "<b>Kategorie:</b> Information — Besucherinformation<br><b>Distanz:</b>  2028 m<br><b>Website:</b> <br><b>Wikipedia:</b> <br><b>Telefon:</b> ", "timestamp": null, "begin": null, "end": null, "altitudeMode": null, "tessellate": -1, "extrude": 0, "visibility": -1, "drawOrder": null, "icon": null, "category_group": "Information"}, "geometry": {"type": "Point", "coordinates": [8.2309954, 48.1405962]}}, {"type": "Feature", "properties": {"Name": "Panoramaweg", "description": "<b>Kategorie:</b> Information — Besucherinformation<br><b>Distanz:</b>  1666 m<br><b>Website:</b> <br><b>Wikipedia:</b> <br><b>Telefon:</b> ", "timestamp": null, "begin": null, "end": null, "altitudeMode": null, "tessellate": -1, "extrude": 0, "visibility": -1, "drawOrder": null, "icon": null, "category_group": "Information"}, "geometry": {"type": "Point", "coordinates": [8.2350465, 48.1383014]}}, {"type": "Feature", "properties": {"Name": "Bahnhof Triberg", "description": "<b>Kategorie:</b> Information — Besucherinformation<br><b>Distanz:</b>  1711 m<br><b>Website:</b> <br><b>Wikipedia:</b> <br><b>Telefon:</b> ", "timestamp": null, "begin": null, "end": null, "altitudeMode": null, "tessellate": -1, "extrude": 0, "visibility": -1, "drawOrder": null, "icon": null, "category_group": "Information"}, "geometry": {"type": "Point", "coordinates": [8.2375193, 48.1393406]}}, {"type": "Feature", "properties": {"Name": "Retsche-Feldkreuz", "description": "<b>Kategorie:</b> Information — Besucherinformation<br><b>Distanz:</b>   842 m<br><b>Website:</b> <br><b>Wikipedia:</b> <br><b>Telefon:</b> ", "timestamp": null, "begin": null, "end": null, "altitudeMode": null, "tessellate": -1, "extrude": 0, "visibility": -1, "drawOrder": null, "icon": null, "category_group": "Information"}, "geometry": {"type": "Point", "coordinates": [8.2419985, 48.132027]}}, {"type": "Feature", "properties": {"Name": "„Russenbuche“", "description": "<b>Kategorie:</b> Information — Besucherinformation<br><b>Distanz:</b>  1084 m<br><b>Website:</b> <br><b>Wikipedia:</b> <br><b>Telefon:</b> ", "timestamp": null, "begin": null, "end": null, "altitudeMode": null, "tessellate": -1, "extrude": 0, "visibility": -1, "drawOrder": null, "icon": null, "category_group": "Information"}, "geometry": {"type": "Point", "coordinates": [8.2409812, 48.1341139]}}, {"type": "Feature", "properties": {"Name": "Evangelische Kirche", "description": "<b>Kategorie:</b> Information — Besucherinformation<br><b>Distanz:</b>   937 m<br><b>Website:</b> <br><b>Wikipedia:</b> <br><b>Telefon:</b> ", "timestamp": null, "begin": null, "end": null, "altitudeMode": null, "tessellate": -1, "extrude": 0, "visibility": -1, "drawOrder": null, "icon": null, "category_group": "Information"}, "geometry": {"type": "Point", "coordinates": [8.2324444, 48.1278634]}}, {"type": "Feature", "properties": {"Name": "Hansjakob-Weg", "description": "<b>Kategorie:</b> Information — Besucherinformation<br><b>Distanz:</b>  1606 m<br><b>Website:</b> <br><b>Wikipedia:</b> <br><b>Telefon:</b> ", "timestamp": null, "begin": null, "end": null, "altitudeMode": null, "tessellate": -1, "extrude": 0, "visibility": -1, "drawOrder": null, "icon": null, "category_group": "Information"}, "geometry": {"type": "Point", "coordinates": [8.2250543, 48.1314555]}}, {"type": "Feature", "properties": {"Name": "Wallfahrtskirche „Maria in der Tanne“", "description": "<b>Kategorie:</b> Information — Besucherinformation<br><b>Distanz:</b>  1621 m<br><b>Website:</b> <br><b>Wikipedia:</b> <br><b>Telefon:</b> ", "timestamp": null, "begin": null, "end": null, "altitudeMode": null, "tessellate": -1, "extrude": 0, "visibility": -1, "drawOrder": null, "icon": null, "category_group": "Information"}, "geometry": {"type": "Point", "coordinates": [8.2248142, 48.1314363]}}, {"type": "Feature", "properties": {"Name": "Zasius-Tanne", "description": "<b>Kategorie:</b> Information — Besucherinformation<br><b>Distanz:</b>   778 m<br><b>Website:</b> <br><b>Wikipedia:</b> <br><b>Telefon:</b> ", "timestamp": null, "begin": null, "end": null, "altitudeMode": null, "tessellate": -1, "extrude": 0, "visibility": -1, "drawOrder": null, "icon": null, "category_group": "Information"}, "geometry": {"type": "Point", "coordinates": [8.2336313, 48.1252459]}}, {"type": "Feature", "properties": {"Name": "Berühmte Gäste", "description": "<b>Kategorie:</b> Information — Besucherinformation<br><b>Distanz:</b>  1246 m<br><b>Website:</b> <br><b>Wikipedia:</b> <br><b>Telefon:</b> ", "timestamp": null, "begin": null, "end": null, "altitudeMode": null, "tessellate": -1, "extrude": 0, "visibility": -1, "drawOrder": null, "icon": null, "category_group": "Information"}, "geometry": {"type": "Point", "coordinates": [8.2274079, 48.1259379]}}, {"type": "Feature", "properties": {"Name": "Landschaft", "description": "<b>Kategorie:</b> Information — Besucherinformation<br><b>Distanz:</b>  1402 m<br><b>Website:</b> <br><b>Wikipedia:</b> <br><b>Telefon:</b> ", "timestamp": null, "begin": null, "end": null, "altitudeMode": null, "tessellate": -1, "extrude": 0, "visibility": -1, "drawOrder": null, "icon": null, "category_group": "Information"}, "geometry": {"type": "Point", "coordinates": [8.2503408, 48.1364579]}}, {"type": "Feature", "properties": {"Name": "Nußbacher Bahnhof", "description": "<b>Kategorie:</b> Information — Besucherinformation<br><b>Distanz:</b>  1434 m<br><b>Website:</b> <br><b>Wikipedia:</b> <br><b>Telefon:</b> ", "timestamp": null, "begin": null, "end": null, "altitudeMode": null, "tessellate": -1, "extrude": 0, "visibility": -1, "drawOrder": null, "icon": null, "category_group": "Information"}, "geometry": {"type": "Point", "coordinates": [8.2561971, 48.1345846]}}, {"type": "Feature", "properties": {"Name": "Leben an der Schwarzwaldbahn", "description": "<b>Kategorie:</b> Information — Besucherinformation<br><b>Distanz:</b>  1739 m<br><b>Website:</b> <br><b>Wikipedia:</b> <br><b>Telefon:</b> ", "timestamp": null, "begin": null, "end": null, "altitudeMode": null, "tessellate": -1, "extrude": 0, "visibility": -1, "drawOrder": null, "icon": null, "category_group": "Information"}, "geometry": {"type": "Point", "coordinates": [8.2484834, 48.1399349]}}, {"type": "Feature", "properties": {"Name": "Technik & Spiel", "description": "<b>Kategorie:</b> Information — Besucherinformation<br><b>Distanz:</b>  1938 m<br><b>Website:</b> <br><b>Wikipedia:</b> <br><b>Telefon:</b> ", "timestamp": null, "begin": null, "end": null, "altitudeMode": null, "tessellate": -1, "extrude": 0, "visibility": -1, "drawOrder": null, "icon": null, "category_group": "Information"}, "geometry": {"type": "Point", "coordinates": [8.2643906, 48.1354555]}}, {"type": "Feature", "properties": {"Name": "Der Bahnwärter", "description": "<b>Kategorie:</b> Information — Besucherinformation<br><b>Distanz:</b>  2002 m<br><b>Website:</b> <br><b>Wikipedia:</b> <br><b>Telefon:</b> ", "timestamp": null, "begin": null, "end": null, "altitudeMode": null, "tessellate": -1, "extrude": 0, "visibility": -1, "drawOrder": null, "icon": null, "category_group": "Information"}, "geometry": {"type": "Point", "coordinates": [8.2649682, 48.1358963]}}, {"type": "Feature", "properties": {"Name": "Eisenbahn als Lastenträger", "description": "<b>Kategorie:</b> Information — Besucherinformation<br><b>Distanz:</b>  1520 m<br><b>Website:</b> <br><b>Wikipedia:</b> <br><b>Telefon:</b> ", "timestamp": null, "begin": null, "end": null, "altitudeMode": null, "tessellate": -1, "extrude": 0, "visibility": -1, "drawOrder": null, "icon": null, "category_group": "Information"}, "geometry": {"type": "Point", "coordinates": [8.2590637, 48.1338344]}}, {"type": "Feature", "properties": {"Name": "Güterverkehr", "description": "<b>Kategorie:</b> Information — Besucherinformation<br><b>Distanz:</b>  1516 m<br><b>Website:</b> <br><b>Wikipedia:</b> <br><b>Telefon:</b> ", "timestamp": null, "begin": null, "end": null, "altitudeMode": null, "tessellate": -1, "extrude": 0, "visibility": -1, "drawOrder": null, "icon": null, "category_group": "Information"}, "geometry": {"type": "Point", "coordinates": [8.2590329, 48.1338022]}}, {"type": "Feature", "properties": {"Name": "Randgeschichte Geologie", "description": "<b>Kategorie:</b> Information — Besucherinformation<br><b>Distanz:</b>  1519 m<br><b>Website:</b> <br><b>Wikipedia:</b> <br><b>Telefon:</b> ", "timestamp": null, "begin": null, "end": null, "altitudeMode": null, "tessellate": -1, "extrude": 0, "visibility": -1, "drawOrder": null, "icon": null, "category_group": "Information"}, "geometry": {"type": "Point", "coordinates": [8.2589956, 48.1338695]}}, {"type": "Feature", "properties": {"Name": "Hofgeschichten", "description": "<b>Kategorie:</b> Information — Besucherinformation<br><b>Distanz:</b>  1520 m<br><b>Website:</b> <br><b>Wikipedia:</b> <br><b>Telefon:</b> ", "timestamp": null, "begin": null, "end": null, "altitudeMode": null, "tessellate": -1, "extrude": 0, "visibility": -1, "drawOrder": null, "icon": null, "category_group": "Information"}, "geometry": {"type": "Point", "coordinates": [8.2485451, 48.1379156]}}, {"type": "Feature", "properties": {"Name": "Topografie", "description": "<b>Kategorie:</b> Information — Besucherinformation<br><b>Distanz:</b>  1670 m<br><b>Website:</b> <br><b>Wikipedia:</b> <br><b>Telefon:</b> ", "timestamp": null, "begin": null, "end": null, "altitudeMode": null, "tessellate": -1, "extrude": 0, "visibility": -1, "drawOrder": null, "icon": null, "category_group": "Information"}, "geometry": {"type": "Point", "coordinates": [8.2472295, 48.139446]}}, {"type": "Feature", "properties": {"Name": "Amtshaus-Schopf", "description": "<b>Kategorie:</b> Information — Besucherinformation<br><b>Distanz:</b>  1054 m<br><b>Website:</b> <br><b>Wikipedia:</b> <br><b>Telefon:</b> ", "timestamp": null, "begin": null, "end": null, "altitudeMode": null, "tessellate": -1, "extrude": 0, "visibility": -1, "drawOrder": null, "icon": null, "category_group": "Information"}, "geometry": {"type": "Point", "coordinates": [8.2319677, 48.1295447]}}, {"type": "Feature", "properties": {"Name": "Amtshaus", "description": "<b>Kategorie:</b> Information — Besucherinformation<br><b>Distanz:</b>  1061 m<br><b>Website:</b> <br><b>Wikipedia:</b> <br><b>Telefon:</b> ", "timestamp": null, "begin": null, "end": null, "altitudeMode": null, "tessellate": -1, "extrude": 0, "visibility": -1, "drawOrder": null, "icon": null, "category_group": "Information"}, "geometry": {"type": "Point", "coordinates": [8.2318805, 48.1295624]}}, {"type": "Feature", "properties": {"Name": "Rathaus", "description": "<b>Kategorie:</b> Information — Besucherinformation<br><b>Distanz:</b>  1106 m<br><b>Website:</b> <br><b>Wikipedia:</b> <br><b>Telefon:</b> ", "timestamp": null, "begin": null, "end": null, "altitudeMode": null, "tessellate": -1, "extrude": 0, "visibility": -1, "drawOrder": null, "icon": null, "category_group": "Information"}, "geometry": {"type": "Point", "coordinates": [8.2321447, 48.1305434]}}, {"type": "Feature", "properties": {"Name": "Schwarzwald-Hotel", "description": "<b>Kategorie:</b> Information — Besucherinformation<br><b>Distanz:</b>  1037 m<br><b>Website:</b> <br><b>Wikipedia:</b> <br><b>Telefon:</b> ", "timestamp": null, "begin": null, "end": null, "altitudeMode": null, "tessellate": -1, "extrude": 0, "visibility": -1, "drawOrder": null, "icon": null, "category_group": "Information"}, "geometry": {"type": "Point", "coordinates": [8.2314916, 48.1286404]}}, {"type": "Feature", "properties": {"Name": "Hebelweg", "description": "<b>Kategorie:</b> Information — Besucherinformation<br><b>Distanz:</b>   896 m<br><b>Website:</b> <br><b>Wikipedia:</b> <br><b>Telefon:</b> ", "timestamp": null, "begin": null, "end": null, "altitudeMode": null, "tessellate": -1, "extrude": 0, "visibility": -1, "drawOrder": null, "icon": null, "category_group": "Information"}, "geometry": {"type": "Point", "coordinates": [8.2324532, 48.1267711]}}, {"type": "Feature", "properties": {"Name": "Badischer Grenzstein", "description": "<b>Kategorie:</b> Information — Besucherinformation<br><b>Distanz:</b>   877 m<br><b>Website:</b> <br><b>Wikipedia:</b> <br><b>Telefon:</b> ", "timestamp": null, "begin": null, "end": null, "altitudeMode": null, "tessellate": -1, "extrude": 0, "visibility": -1, "drawOrder": null, "icon": null, "category_group": "Information"}, "geometry": {"type": "Point", "coordinates": [8.2326181, 48.1265287]}}, {"type": "Feature", "properties": {"Name": "Badischer Grenzstein", "description": "<b>Kategorie:</b> Information — Besucherinformation<br><b>Distanz:</b>   875 m<br><b>Website:</b> <br><b>Wikipedia:</b> <br><b>Telefon:</b> ", "timestamp": null, "begin": null, "end": null, "altitudeMode": null, "tessellate": -1, "extrude": 0, "visibility": -1, "drawOrder": null, "icon": null, "category_group": "Information"}, "geometry": {"type": "Point", "coordinates": [8.2326275, 48.1264893]}}, {"type": "Feature", "properties": {"Name": "Sterenberg-Bobsleighbahn", "description": "<b>Kategorie:</b> Information — Besucherinformation<br><b>Distanz:</b>   813 m<br><b>Website:</b> <br><b>Wikipedia:</b> <br><b>Telefon:</b> ", "timestamp": null, "begin": null, "end": null, "altitudeMode": null, "tessellate": -1, "extrude": 0, "visibility": -1, "drawOrder": null, "icon": null, "category_group": "Information"}, "geometry": {"type": "Point", "coordinates": [8.2335649, 48.1224797]}}, {"type": "Feature", "properties": {"Name": "Sterenberg-Bobsleighbahn", "description": "<b>Kategorie:</b> Information — Besucherinformation<br><b>Distanz:</b>  1000 m<br><b>Website:</b> <br><b>Wikipedia:</b> <br><b>Telefon:</b> ", "timestamp": null, "begin": null, "end": null, "altitudeMode": null, "tessellate": -1, "extrude": 0, "visibility": -1, "drawOrder": null, "icon": null, "category_group": "Information"}, "geometry": {"type": "Point", "coordinates": [8.2308371, 48.1228754]}}, {"type": "Feature", "properties": {"Name": "Eingang Wasserfall", "description": "<b>Kategorie:</b> Information — Besucherinformation<br><b>Distanz:</b>  1645 m<br><b>Website:</b> <br><b>Wikipedia:</b> <br><b>Telefon:</b> ", "timestamp": null, "begin": null, "end": null, "altitudeMode": null, "tessellate": -1, "extrude": 0, "visibility": -1, "drawOrder": null, "icon": null, "category_group": "Information"}, "geometry": {"type": "Point", "coordinates": [8.2220009, 48.1233559]}}, {"type": "Feature", "properties": {"Name": "Prisenhäusle", "description": "<b>Kategorie:</b> Information — Besucherinformation<br><b>Distanz:</b>   766 m<br><b>Website:</b> <br><b>Wikipedia:</b> <br><b>Telefon:</b> ", "timestamp": null, "begin": null, "end": null, "altitudeMode": null, "tessellate": -1, "extrude": 0, "visibility": -1, "drawOrder": null, "icon": null, "category_group": "Information"}, "geometry": {"type": "Point", "coordinates": [8.2347201, 48.1216324]}}, {"type": "Feature", "properties": {"Name": "Wetzel-Gedenkstein", "description": "<b>Kategorie:</b> Information — Besucherinformation<br><b>Distanz:</b>   726 m<br><b>Website:</b> <br><b>Wikipedia:</b> <br><b>Telefon:</b> ", "timestamp": null, "begin": null, "end": null, "altitudeMode": null, "tessellate": -1, "extrude": 0, "visibility": -1, "drawOrder": null, "icon": null, "category_group": "Information"}, "geometry": {"type": "Point", "coordinates": [8.2342831, 48.1248498]}}, {"type": "Feature", "properties": {"Name": "Krusche-Brunnen / Hochbehälter Prisen", "description": "<b>Kategorie:</b> Information — Besucherinformation<br><b>Distanz:</b>   659 m<br><b>Website:</b> <br><b>Wikipedia:</b> <br><b>Telefon:</b> ", "timestamp": null, "begin": null, "end": null, "altitudeMode": null, "tessellate": -1, "extrude": 0, "visibility": -1, "drawOrder": null, "icon": null, "category_group": "Information"}, "geometry": {"type": "Point", "coordinates": [8.2366629, 48.1212933]}}, {"type": "Feature", "properties": {"Name": "Amtshaus-Schopf", "description": "<b>Kategorie:</b> Information — Besucherinformation<br><b>Distanz:</b>  1057 m<br><b>Website:</b> <br><b>Wikipedia:</b> <br><b>Telefon:</b> ", "timestamp": null, "begin": null, "end": null, "altitudeMode": null, "tessellate": -1, "extrude": 0, "visibility": -1, "drawOrder": null, "icon": null, "category_group": "Information"}, "geometry": {"type": "Point", "coordinates": [8.2319254, 48.1295418]}}, {"type": "Feature", "properties": {"Name": "Burg Triberg", "description": "<b>Kategorie:</b> Information — Besucherinformation<br><b>Distanz:</b>  1044 m<br><b>Website:</b> <br><b>Wikipedia:</b> <br><b>Telefon:</b> ", "timestamp": null, "begin": null, "end": null, "altitudeMode": null, "tessellate": -1, "extrude": 0, "visibility": -1, "drawOrder": null, "icon": null, "category_group": "Information"}, "geometry": {"type": "Point", "coordinates": [8.2319375, 48.129339]}}, {"type": "Feature", "properties": {"Name": "Adelheid", "description": "<b>Kategorie:</b> Information — Besucherinformation<br><b>Distanz:</b>  1644 m<br><b>Website:</b> <br><b>Wikipedia:</b> <br><b>Telefon:</b> ", "timestamp": null, "begin": null, "end": null, "altitudeMode": null, "tessellate": -1, "extrude": 0, "visibility": -1, "drawOrder": null, "icon": null, "category_group": "Information"}, "geometry": {"type": "Point", "coordinates": [8.2220495, 48.1231619]}}, {"type": "Feature", "properties": {"Name": "Haldenhof", "description": "<b>Kategorie:</b> Information — Besucherinformation<br><b>Distanz:</b>  2528 m<br><b>Website:</b> <br><b>Wikipedia:</b> <br><b>Telefon:</b> ", "timestamp": null, "begin": null, "end": null, "altitudeMode": null, "tessellate": -1, "extrude": 0, "visibility": -1, "drawOrder": null, "icon": null, "category_group": "Information"}, "geometry": {"type": "Point", "coordinates": [8.2336203, 48.1462252]}}, {"type": "Feature", "properties": {"Name": "Waldhäusle", "description": "<b>Kategorie:</b> Information — Besucherinformation<br><b>Distanz:</b>  1753 m<br><b>Website:</b> <br><b>Wikipedia:</b> <br><b>Telefon:</b> ", "timestamp": null, "begin": null, "end": null, "altitudeMode": null, "tessellate": -1, "extrude": 0, "visibility": -1, "drawOrder": null, "icon": null, "category_group": "Information"}, "geometry": {"type": "Point", "coordinates": [8.259882, 48.1129036]}}, {"type": "Feature", "properties": {"Name": "Gutenhöhe", "description": "<b>Kategorie:</b> Information — Besucherinformation<br><b>Distanz:</b>  2561 m<br><b>Website:</b> <br><b>Wikipedia:</b> <br><b>Telefon:</b> ", "timestamp": null, "begin": null, "end": null, "altitudeMode": null, "tessellate": -1, "extrude": 0, "visibility": -1, "drawOrder": null, "icon": null, "category_group": "Information"}, "geometry": {"type": "Point", "coordinates": [8.2343997, 48.1024607]}}, {"type": "Feature", "properties": {"Name": "Parkplatz Gutenhöhe", "description": "<b>Kategorie:</b> Information — Besucherinformation<br><b>Distanz:</b>  2535 m<br><b>Website:</b> <br><b>Wikipedia:</b> <br><b>Telefon:</b> ", "timestamp": null, "begin": null, "end": null, "altitudeMode": null, "tessellate": -1, "extrude": 0, "visibility": -1, "drawOrder": null, "icon": null, "category_group": "Information"}, "geometry": {"type": "Point", "coordinates": [8.236892, 48.102279]}}, {"type": "Feature", "properties": {"Name": "Gerwig Denkmal", "description": "<b>Kategorie:</b> Information — Besucherinformation<br><b>Distanz:</b>  1469 m<br><b>Website:</b> <br><b>Wikipedia:</b> <br><b>Telefon:</b> ", "timestamp": null, "begin": null, "end": null, "altitudeMode": null, "tessellate": -1, "extrude": 0, "visibility": -1, "drawOrder": null, "icon": null, "category_group": "Information"}, "geometry": {"type": "Point", "coordinates": [8.2397257, 48.1374716]}}, {"type": "Feature", "properties": {"Name": "Radnetz BW", "description": "<b>Kategorie:</b> Information — Besucherinformation<br><b>Distanz:</b>  1750 m<br><b>Website:</b> <br><b>Wikipedia:</b> <br><b>Telefon:</b> ", "timestamp": null, "begin": null, "end": null, "altitudeMode": null, "tessellate": -1, "extrude": 0, "visibility": -1, "drawOrder": null, "icon": null, "category_group": "Information"}, "geometry": {"type": "Point", "coordinates": [8.2374784, 48.1396946]}}, {"type": "Feature", "properties": {"Name": "Triberg Bahnhof", "description": "<b>Kategorie:</b> Information — Besucherinformation<br><b>Distanz:</b>  1781 m<br><b>Website:</b> <br><b>Wikipedia:</b> <br><b>Telefon:</b> ", "timestamp": null, "begin": null, "end": null, "altitudeMode": null, "tessellate": -1, "extrude": 0, "visibility": -1, "drawOrder": null, "icon": null, "category_group": "Information"}, "geometry": {"type": "Point", "coordinates": [8.2372909, 48.1399469]}}, {"type": "Feature", "properties": {"Name": "Auf dem Mountainbike durch dein Ferienland im Schwarzwald", "description": "<b>Kategorie:</b> Information — Besucherinformation<br><b>Distanz:</b>  1568 m<br><b>Website:</b> <br><b>Wikipedia:</b> <br><b>Telefon:</b> ", "timestamp": null, "begin": null, "end": null, "altitudeMode": null, "tessellate": -1, "extrude": 0, "visibility": -1, "drawOrder": null, "icon": null, "category_group": "Information"}, "geometry": {"type": "Point", "coordinates": [8.2383679, 48.1381666]}}, {"type": "Feature", "properties": {"Name": "Haus Bogoljubow", "description": "<b>Kategorie:</b> Information — Besucherinformation<br><b>Distanz:</b>  1214 m<br><b>Website:</b> <br><b>Wikipedia:</b> <br><b>Telefon:</b> ", "timestamp": null, "begin": null, "end": null, "altitudeMode": null, "tessellate": -1, "extrude": 0, "visibility": -1, "drawOrder": null, "icon": null, "category_group": "Information"}, "geometry": {"type": "Point", "coordinates": [8.229321, 48.1293028]}}, {"type": "Feature", "properties": {"Name": "Freiheit", "description": "<b>Kategorie:</b> Information — Besucherinformation<br><b>Distanz:</b>  3391 m<br><b>Website:</b> <br><b>Wikipedia:</b> <br><b>Telefon:</b> ", "timestamp": null, "begin": null, "end": null, "altitudeMode": null, "tessellate": -1, "extrude": 0, "visibility": -1, "drawOrder": null, "icon": null, "category_group": "Information"}, "geometry": {"type": "Point", "coordinates": [8.213153, 48.1470165]}}, {"type": "Feature", "properties": {"Name": "Messnerhäuschen", "description": "<b>Kategorie:</b> Information — Besucherinformation<br><b>Distanz:</b>  1558 m<br><b>Website:</b> <br><b>Wikipedia:</b> <br><b>Telefon:</b> ", "timestamp": null, "begin": null, "end": null, "altitudeMode": null, "tessellate": -1, "extrude": 0, "visibility": -1, "drawOrder": null, "icon": null, "category_group": "Information"}, "geometry": {"type": "Point", "coordinates": [8.2261461, 48.1318601]}}, {"type": "Feature", "properties": {"Name": "Heilige Orte", "description": "<b>Kategorie:</b> Information — Besucherinformation<br><b>Distanz:</b>  1564 m<br><b>Website:</b> <br><b>Wikipedia:</b> <br><b>Telefon:</b> ", "timestamp": null, "begin": null, "end": null, "altitudeMode": null, "tessellate": -1, "extrude": 0, "visibility": -1, "drawOrder": null, "icon": null, "category_group": "Information"}, "geometry": {"type": "Point", "coordinates": [8.2260376, 48.131846]}}, {"type": "Feature", "properties": {"Name": "Wallfahrtskirche Maria in der Tanne", "description": "<b>Kategorie:</b> Information — Besucherinformation<br><b>Distanz:</b>  1619 m<br><b>Website:</b> <br><b>Wikipedia:</b> <br><b>Telefon:</b> ", "timestamp": null, "begin": null, "end": null, "altitudeMode": null, "tessellate": -1, "extrude": 0, "visibility": -1, "drawOrder": null, "icon": null, "category_group": "Information"}, "geometry": {"type": "Point", "coordinates": [8.2250894, 48.1317351]}}, {"type": "Feature", "properties": {"Name": "Wallfahrtskirche", "description": "<b>Kategorie:</b> Information — Besucherinformation<br><b>Distanz:</b>  1611 m<br><b>Website:</b> <br><b>Wikipedia:</b> <br><b>Telefon:</b> ", "timestamp": null, "begin": null, "end": null, "altitudeMode": null, "tessellate": -1, "extrude": 0, "visibility": -1, "drawOrder": null, "icon": null, "category_group": "Information"}, "geometry": {"type": "Point", "coordinates": [8.2252576, 48.1317841]}}, {"type": "Feature", "properties": {"Name": "Stationskreuz", "description": "<b>Kategorie:</b> Information — Besucherinformation<br><b>Distanz:</b>  1486 m<br><b>Website:</b> <br><b>Wikipedia:</b> <br><b>Telefon:</b> ", "timestamp": null, "begin": null, "end": null, "altitudeMode": null, "tessellate": -1, "extrude": 0, "visibility": -1, "drawOrder": null, "icon": null, "category_group": "Information"}, "geometry": {"type": "Point", "coordinates": [8.2270786, 48.1316386]}}, {"type": "Feature", "properties": {"Name": "Triberg", "description": "<b>Kategorie:</b> Information — Besucherinformation<br><b>Distanz:</b>  1283 m<br><b>Website:</b> <br><b>Wikipedia:</b> <br><b>Telefon:</b> ", "timestamp": null, "begin": null, "end": null, "altitudeMode": null, "tessellate": -1, "extrude": 0, "visibility": -1, "drawOrder": null, "icon": null, "category_group": "Information"}, "geometry": {"type": "Point", "coordinates": [8.2291272, 48.1303763]}}, {"type": "Feature", "properties": {"Name": "Triberger Krankenhaus", "description": "<b>Kategorie:</b> Information — Besucherinformation<br><b>Distanz:</b>  1278 m<br><b>Website:</b> <br><b>Wikipedia:</b> <br><b>Telefon:</b> ", "timestamp": null, "begin": null, "end": null, "altitudeMode": null, "tessellate": -1, "extrude": 0, "visibility": -1, "drawOrder": null, "icon": null, "category_group": "Information"}, "geometry": {"type": "Point", "coordinates": [8.22905, 48.1301909]}}, {"type": "Feature", "properties": {"Name": "Triberg - einzigartig Schwarzwald", "description": "<b>Kategorie:</b> Information — Besucherinformation<br><b>Distanz:</b>  1276 m<br><b>Website:</b> <br><b>Wikipedia:</b> <br><b>Telefon:</b> ", "timestamp": null, "begin": null, "end": null, "altitudeMode": null, "tessellate": -1, "extrude": 0, "visibility": -1, "drawOrder": null, "icon": null, "category_group": "Information"}, "geometry": {"type": "Point", "coordinates": [8.2290283, 48.130129]}}, {"type": "Feature", "properties": {"Name": "Lazarus von Schwendi", "description": "<b>Kategorie:</b> Information — Besucherinformation<br><b>Distanz:</b>  1165 m<br><b>Website:</b> <br><b>Wikipedia:</b> <br><b>Telefon:</b> ", "timestamp": null, "begin": null, "end": null, "altitudeMode": null, "tessellate": -1, "extrude": 0, "visibility": -1, "drawOrder": null, "icon": null, "category_group": "Information"}, "geometry": {"type": "Point", "coordinates": [8.2312003, 48.130587]}}, {"type": "Feature", "properties": {"Name": "Gasthaus Löwen", "description": "<b>Kategorie:</b> Information — Besucherinformation<br><b>Distanz:</b>  1133 m<br><b>Website:</b> <br><b>Wikipedia:</b> <br><b>Telefon:</b> ", "timestamp": null, "begin": null, "end": null, "altitudeMode": null, "tessellate": -1, "extrude": 0, "visibility": -1, "drawOrder": null, "icon": null, "category_group": "Information"}, "geometry": {"type": "Point", "coordinates": [8.2316047, 48.1304668]}}, {"type": "Feature", "properties": {"Name": "Heilig-Kreuz-Kapelle", "description": "<b>Kategorie:</b> Information — Besucherinformation<br><b>Distanz:</b>  1186 m<br><b>Website:</b> <br><b>Wikipedia:</b> <br><b>Telefon:</b> ", "timestamp": null, "begin": null, "end": null, "altitudeMode": null, "tessellate": -1, "extrude": 0, "visibility": -1, "drawOrder": null, "icon": null, "category_group": "Information"}, "geometry": {"type": "Point", "coordinates": [8.2341793, 48.1329574]}}, {"type": "Feature", "properties": {"Name": "Gerwig-Denkmal", "description": "<b>Kategorie:</b> Information — Besucherinformation<br><b>Distanz:</b>  1489 m<br><b>Website:</b> <br><b>Wikipedia:</b> <br><b>Telefon:</b> ", "timestamp": null, "begin": null, "end": null, "altitudeMode": null, "tessellate": -1, "extrude": 0, "visibility": -1, "drawOrder": null, "icon": null, "category_group": "Information"}, "geometry": {"type": "Point", "coordinates": [8.2395653, 48.1376371]}}, {"type": "Feature", "properties": {"Name": "Triberg Jägerhaus", "description": "<b>Kategorie:</b> Information — Besucherinformation<br><b>Distanz:</b>  1865 m<br><b>Website:</b> <br><b>Wikipedia:</b> <br><b>Telefon:</b> ", "timestamp": null, "begin": null, "end": null, "altitudeMode": null, "tessellate": -1, "extrude": 0, "visibility": -1, "drawOrder": null, "icon": null, "category_group": "Information"}, "geometry": {"type": "Point", "coordinates": [8.2223826, 48.1330266]}}, {"type": "Feature", "properties": {"Name": "Schwarzwaldmuseum", "description": "<b>Kategorie:</b> Information — Besucherinformation<br><b>Distanz:</b>  1163 m<br><b>Website:</b> <br><b>Wikipedia:</b> <br><b>Telefon:</b> ", "timestamp": null, "begin": null, "end": null, "altitudeMode": null, "tessellate": -1, "extrude": 0, "visibility": -1, "drawOrder": null, "icon": null, "category_group": "Information"}, "geometry": {"type": "Point", "coordinates": [8.2298467, 48.1289707]}}, {"type": "Feature", "properties": {"Name": "Kesselberg Hirzbauer", "description": "<b>Kategorie:</b> Information — Besucherinformation<br><b>Distanz:</b>  3155 m<br><b>Website:</b> <br><b>Wikipedia:</b> <br><b>Telefon:</b> ", "timestamp": null, "begin": null, "end": null, "altitudeMode": null, "tessellate": -1, "extrude": 0, "visibility": -1, "drawOrder": null, "icon": null, "category_group": "Information"}, "geometry": {"type": "Point", "coordinates": [8.2746845, 48.1049663]}}, {"type": "Feature", "properties": {"Name": "Marktplatz", "description": "<b>Kategorie:</b> Information — Besucherinformation<br><b>Distanz:</b>  1111 m<br><b>Website:</b> <br><b>Wikipedia:</b> <br><b>Telefon:</b> ", "timestamp": null, "begin": null, "end": null, "altitudeMode": null, "tessellate": -1, "extrude": 0, "visibility": -1, "drawOrder": null, "icon": null, "category_group": "Information"}, "geometry": {"type": "Point", "coordinates": [8.2317798, 48.1302904]}}, {"type": "Feature", "properties": {"Name": "Parkplatz Geutsche", "description": "<b>Kategorie:</b> Information — Besucherinformation<br><b>Distanz:</b>   824 m<br><b>Website:</b> <br><b>Wikipedia:</b> <br><b>Telefon:</b> ", "timestamp": null, "begin": null, "end": null, "altitudeMode": null, "tessellate": -1, "extrude": 0, "visibility": -1, "drawOrder": null, "icon": null, "category_group": "Information"}, "geometry": {"type": "Point", "coordinates": [8.2480352, 48.1176644]}}, {"type": "Feature", "properties": {"Name": "Startpunkt \"Bobsleighbahn\"", "description": "<b>Kategorie:</b> Information — Besucherinformation<br><b>Distanz:</b>  1286 m<br><b>Website:</b> <br><b>Wikipedia:</b> <br><b>Telefon:</b> ", "timestamp": null, "begin": null, "end": null, "altitudeMode": null, "tessellate": -1, "extrude": 0, "visibility": -1, "drawOrder": null, "icon": null, "category_group": "Information"}, "geometry": {"type": "Point", "coordinates": [8.2276306, 48.12093]}}, {"type": "Feature", "properties": {"Name": "St. Anna", "description": "<b>Kategorie:</b> Kinder & Jugend — Kindergarten<br><b>Distanz:</b>  1616 m<br><b>Website:</b> <br><b>Wikipedia:</b> <br><b>Telefon:</b> ", "timestamp": null, "begin": null, "end": null, "altitudeMode": null, "tessellate": -1, "extrude": 0, "visibility": -1, "drawOrder": null, "icon": null, "category_group": "Kinder & Jugend"}, "geometry": {"type": "Point", "coordinates": [8.2390436, 48.1387285]}}, {"type": "Feature", "properties": {"Name": "Triberger Wasserfälle", "description": "<b>Kategorie:</b> Kultur & Geschichte — Attraktion<br><b>Distanz:</b>  1235 m<br><b>Website:</b> <br><b>Wikipedia:</b> de:Triberger Wasserfälle<br><b>Telefon:</b> ", "timestamp": null, "begin": null, "end": null, "altitudeMode": null, "tessellate": -1, "extrude": 0, "visibility": -1, "drawOrder": null, "icon": null, "category_group": "Kultur & Geschichte"}, "geometry": {"type": "Point", "coordinates": [8.2276469, 48.1263564]}}, {"type": "Feature", "properties": {"Name": "Haus der 1000 Uhren", "description": "<b>Kategorie:</b> Kultur & Geschichte — Attraktion<br><b>Distanz:</b>  1086 m<br><b>Website:</b> <br><b>Wikipedia:</b> <br><b>Telefon:</b> ", "timestamp": null, "begin": null, "end": null, "altitudeMode": null, "tessellate": -1, "extrude": 0, "visibility": -1, "drawOrder": null, "icon": null, "category_group": "Kultur & Geschichte"}, "geometry": {"type": "Point", "coordinates": [8.2310822, 48.1290723]}}, {"type": "Feature", "properties": {"Name": "Bahnhof Triberg - Ausstellung", "description": "<b>Kategorie:</b> Kultur & Geschichte — Museum<br><b>Distanz:</b>  1789 m<br><b>Website:</b> https://www.triberg.de/english/sights/schwarzwaldbahn<br><b>Wikipedia:</b> <br><b>Telefon:</b> +49 7722 8664 90", "timestamp": null, "begin": null, "end": null, "altitudeMode": null, "tessellate": -1, "extrude": 0, "visibility": -1, "drawOrder": null, "icon": null, "category_group": "Kultur & Geschichte"}, "geometry": {"type": "Point", "coordinates": [8.2371658, 48.1399984]}}, {"type": "Feature", "properties": {"Name": "Triberg-Fantasy", "description": "<b>Kategorie:</b> Kultur & Geschichte — Museum<br><b>Distanz:</b>  1148 m<br><b>Website:</b> https://www.triberg.de/tourismus-freizeit/tourismus-freizeit/sehens-und-erlebenswertes/instagram-museum-triberg-fantasy<br><b>Wikipedia:</b> <br><b>Telefon:</b> +49 7722 866490", "timestamp": null, "begin": null, "end": null, "altitudeMode": null, "tessellate": -1, "extrude": 0, "visibility": -1, "drawOrder": null, "icon": null, "category_group": "Kultur & Geschichte"}, "geometry": {"type": "Point", "coordinates": [8.2302647, 48.1292273]}}, {"type": "Feature", "properties": {"Name": "Holzgeschnitzter Rathaussaal", "description": "<b>Kategorie:</b> Kultur & Geschichte — Attraktion<br><b>Distanz:</b>  1100 m<br><b>Website:</b> <br><b>Wikipedia:</b> <br><b>Telefon:</b> ", "timestamp": null, "begin": null, "end": null, "altitudeMode": null, "tessellate": -1, "extrude": 0, "visibility": -1, "drawOrder": null, "icon": null, "category_group": "Kultur & Geschichte"}, "geometry": {"type": "Point", "coordinates": [8.2322453, 48.1305421]}}, {"type": "Feature", "properties": {"Name": "Triberg-Land", "description": "<b>Kategorie:</b> Kultur & Geschichte — Museum<br><b>Distanz:</b>  1151 m<br><b>Website:</b> https://www.triberg.de/tourismus-freizeit/tourismus-freizeit/sehens-und-erlebenswertes/triberg-land-interaktive-modellbauanlagen<br><b>Wikipedia:</b> <br><b>Telefon:</b> ", "timestamp": null, "begin": null, "end": null, "altitudeMode": null, "tessellate": -1, "extrude": 0, "visibility": -1, "drawOrder": null, "icon": null, "category_group": "Kultur & Geschichte"}, "geometry": {"type": "Point", "coordinates": [8.2325269, 48.1314895]}}, {"type": "Feature", "properties": {"Name": "Dreibahnenblick", "description": "<b>Kategorie:</b> Natur & Landschaft — Aussichtspunkt<br><b>Distanz:</b>  2461 m<br><b>Website:</b> <br><b>Wikipedia:</b> <br><b>Telefon:</b> ", "timestamp": null, "begin": null, "end": null, "altitudeMode": null, "tessellate": -1, "extrude": 0, "visibility": -1, "drawOrder": null, "icon": null, "category_group": "Natur & Landschaft"}, "geometry": {"type": "Point", "coordinates": [8.2471636, 48.1466177]}}, {"type": "Feature", "properties": {"Name": "Kesselberg", "description": "<b>Kategorie:</b> Natur & Landschaft — Natur-Feature (alle)<br><b>Distanz:</b>  3511 m<br><b>Website:</b> <br><b>Wikipedia:</b> <br><b>Telefon:</b> ", "timestamp": null, "begin": null, "end": null, "altitudeMode": null, "tessellate": -1, "extrude": 0, "visibility": -1, "drawOrder": null, "icon": null, "category_group": "Natur & Landschaft"}, "geometry": {"type": "Point", "coordinates": [8.2724716, 48.0993722]}}, {"type": "Feature", "properties": {"Name": "Dreikaiserfelsen", "description": "<b>Kategorie:</b> Natur & Landschaft — Aussichtspunkt<br><b>Distanz:</b>   898 m<br><b>Website:</b> <br><b>Wikipedia:</b> <br><b>Telefon:</b> ", "timestamp": null, "begin": null, "end": null, "altitudeMode": null, "tessellate": -1, "extrude": 0, "visibility": -1, "drawOrder": null, "icon": null, "category_group": "Natur & Landschaft"}, "geometry": {"type": "Point", "coordinates": [8.2383343, 48.1316989]}}, {"type": "Feature", "properties": {"Name": "Tribergblick", "description": "<b>Kategorie:</b> Natur & Landschaft — Aussichtspunkt<br><b>Distanz:</b>  1629 m<br><b>Website:</b> <br><b>Wikipedia:</b> <br><b>Telefon:</b> ", "timestamp": null, "begin": null, "end": null, "altitudeMode": null, "tessellate": -1, "extrude": 0, "visibility": -1, "drawOrder": null, "icon": null, "category_group": "Natur & Landschaft"}, "geometry": {"type": "Point", "coordinates": [8.2317124, 48.1366852]}}, {"type": "Feature", "properties": {"Name": "Bahnblick", "description": "<b>Kategorie:</b> Natur & Landschaft — Aussichtspunkt<br><b>Distanz:</b>  1615 m<br><b>Website:</b> <br><b>Wikipedia:</b> <br><b>Telefon:</b> ", "timestamp": null, "begin": null, "end": null, "altitudeMode": null, "tessellate": -1, "extrude": 0, "visibility": -1, "drawOrder": null, "icon": null, "category_group": "Natur & Landschaft"}, "geometry": {"type": "Point", "coordinates": [8.2365606, 48.1382175]}}, {"type": "Feature", "properties": {"Name": "Heidenstein", "description": "<b>Kategorie:</b> Natur & Landschaft — Natur-Feature (alle)<br><b>Distanz:</b>  2072 m<br><b>Website:</b> <br><b>Wikipedia:</b> <br><b>Telefon:</b> ", "timestamp": null, "begin": null, "end": null, "altitudeMode": null, "tessellate": -1, "extrude": 0, "visibility": -1, "drawOrder": null, "icon": null, "category_group": "Natur & Landschaft"}, "geometry": {"type": "Point", "coordinates": [8.2606664, 48.1096267]}}, {"type": "Feature", "properties": {"Name": "Kohlplatztanne", "description": "<b>Kategorie:</b> Natur & Landschaft — Natur-Feature (alle)<br><b>Distanz:</b>   951 m<br><b>Website:</b> <br><b>Wikipedia:</b> <br><b>Telefon:</b> ", "timestamp": null, "begin": null, "end": null, "altitudeMode": null, "tessellate": -1, "extrude": 0, "visibility": -1, "drawOrder": null, "icon": null, "category_group": "Natur & Landschaft"}, "geometry": {"type": "Point", "coordinates": [8.2312524, 48.124499]}}, {"type": "Feature", "properties": {"Name": "Kroneck", "description": "<b>Kategorie:</b> Natur & Landschaft — Natur-Feature (alle)<br><b>Distanz:</b>  2424 m<br><b>Website:</b> <br><b>Wikipedia:</b> <br><b>Telefon:</b> ", "timestamp": null, "begin": null, "end": null, "altitudeMode": null, "tessellate": -1, "extrude": 0, "visibility": -1, "drawOrder": null, "icon": null, "category_group": "Natur & Landschaft"}, "geometry": {"type": "Point", "coordinates": [8.2218237, 48.1405341]}}, {"type": "Feature", "properties": {"Name": "Jägertanne", "description": "<b>Kategorie:</b> Natur & Landschaft — Natur-Feature (alle)<br><b>Distanz:</b>  1061 m<br><b>Website:</b> <br><b>Wikipedia:</b> <br><b>Telefon:</b> ", "timestamp": null, "begin": null, "end": null, "altitudeMode": null, "tessellate": -1, "extrude": 0, "visibility": -1, "drawOrder": null, "icon": null, "category_group": "Natur & Landschaft"}, "geometry": {"type": "Point", "coordinates": [8.2300453, 48.1264212]}}, {"type": "Feature", "properties": {"Name": "Hubertus-Felsen", "description": "<b>Kategorie:</b> Natur & Landschaft — Aussichtspunkt<br><b>Distanz:</b>  1370 m<br><b>Website:</b> <br><b>Wikipedia:</b> <br><b>Telefon:</b> ", "timestamp": null, "begin": null, "end": null, "altitudeMode": null, "tessellate": -1, "extrude": 0, "visibility": -1, "drawOrder": null, "icon": null, "category_group": "Natur & Landschaft"}, "geometry": {"type": "Point", "coordinates": [8.2574761, 48.1329965]}}, {"type": "Feature", "properties": {"Name": "Hubertus-Felsen", "description": "<b>Kategorie:</b> Natur & Landschaft — Natur-Feature (alle)<br><b>Distanz:</b>  1374 m<br><b>Website:</b> <br><b>Wikipedia:</b> <br><b>Telefon:</b> ", "timestamp": null, "begin": null, "end": null, "altitudeMode": null, "tessellate": -1, "extrude": 0, "visibility": -1, "drawOrder": null, "icon": null, "category_group": "Natur & Landschaft"}, "geometry": {"type": "Point", "coordinates": [8.2575047, 48.1330264]}}, {"type": "Feature", "properties": {"Name": "Räuberhöhle", "description": "<b>Kategorie:</b> Natur & Landschaft — Natur-Feature (alle)<br><b>Distanz:</b>  2329 m<br><b>Website:</b> <br><b>Wikipedia:</b> <br><b>Telefon:</b> ", "timestamp": null, "begin": null, "end": null, "altitudeMode": null, "tessellate": -1, "extrude": 0, "visibility": -1, "drawOrder": null, "icon": null, "category_group": "Natur & Landschaft"}, "geometry": {"type": "Point", "coordinates": [8.2478773, 48.1453662]}}, {"type": "Feature", "properties": {"Name": "Panoramen - Energie, Landschaft", "description": "<b>Kategorie:</b> Natur & Landschaft — Aussichtspunkt<br><b>Distanz:</b>  1966 m<br><b>Website:</b> <br><b>Wikipedia:</b> <br><b>Telefon:</b> ", "timestamp": null, "begin": null, "end": null, "altitudeMode": null, "tessellate": -1, "extrude": 0, "visibility": -1, "drawOrder": null, "icon": null, "category_group": "Natur & Landschaft"}, "geometry": {"type": "Point", "coordinates": [8.2436728, 48.1422581]}}, {"type": "Feature", "properties": {"Name": "First", "description": "<b>Kategorie:</b> Natur & Landschaft — Natur-Feature (alle)<br><b>Distanz:</b>  1832 m<br><b>Website:</b> <br><b>Wikipedia:</b> <br><b>Telefon:</b> ", "timestamp": null, "begin": null, "end": null, "altitudeMode": null, "tessellate": -1, "extrude": 0, "visibility": -1, "drawOrder": null, "icon": null, "category_group": "Natur & Landschaft"}, "geometry": {"type": "Point", "coordinates": [8.2676812, 48.1291624]}}, {"type": "Feature", "properties": {"Name": "Lägerfels", "description": "<b>Kategorie:</b> Natur & Landschaft — Natur-Feature (alle)<br><b>Distanz:</b>  2564 m<br><b>Website:</b> <br><b>Wikipedia:</b> <br><b>Telefon:</b> ", "timestamp": null, "begin": null, "end": null, "altitudeMode": null, "tessellate": -1, "extrude": 0, "visibility": -1, "drawOrder": null, "icon": null, "category_group": "Natur & Landschaft"}, "geometry": {"type": "Point", "coordinates": [8.2651938, 48.1063713]}}, {"type": "Feature", "properties": {"Name": "Dromedar", "description": "<b>Kategorie:</b> Natur & Landschaft — Natur-Feature (alle)<br><b>Distanz:</b>  1136 m<br><b>Website:</b> https://www.alpenverein.de/thema/felsinfo#/detail/19-11-002<br><b>Wikipedia:</b> <br><b>Telefon:</b> ", "timestamp": null, "begin": null, "end": null, "altitudeMode": null, "tessellate": -1, "extrude": 0, "visibility": -1, "drawOrder": null, "icon": null, "category_group": "Natur & Landschaft"}, "geometry": {"type": "Point", "coordinates": [8.2543532, 48.1170443]}}, {"type": "Feature", "properties": {"Name": "Leibereck", "description": "<b>Kategorie:</b> Natur & Landschaft — Natur-Feature (alle)<br><b>Distanz:</b>  1565 m<br><b>Website:</b> <br><b>Wikipedia:</b> <br><b>Telefon:</b> ", "timestamp": null, "begin": null, "end": null, "altitudeMode": null, "tessellate": -1, "extrude": 0, "visibility": -1, "drawOrder": null, "icon": null, "category_group": "Natur & Landschaft"}, "geometry": {"type": "Point", "coordinates": [8.2253884, 48.1180639]}}, {"type": "Feature", "properties": {"Name": "Kapellenberg", "description": "<b>Kategorie:</b> Natur & Landschaft — Natur-Feature (alle)<br><b>Distanz:</b>   598 m<br><b>Website:</b> <br><b>Wikipedia:</b> <br><b>Telefon:</b> ", "timestamp": null, "begin": null, "end": null, "altitudeMode": null, "tessellate": -1, "extrude": 0, "visibility": -1, "drawOrder": null, "icon": null, "category_group": "Natur & Landschaft"}, "geometry": {"type": "Point", "coordinates": [8.2397966, 48.1291467]}}, {"type": "Feature", "properties": {"Name": "Hohnen", "description": "<b>Kategorie:</b> Natur & Landschaft — Natur-Feature (alle)<br><b>Distanz:</b>  2574 m<br><b>Website:</b> <br><b>Wikipedia:</b> <br><b>Telefon:</b> ", "timestamp": null, "begin": null, "end": null, "altitudeMode": null, "tessellate": -1, "extrude": 0, "visibility": -1, "drawOrder": null, "icon": null, "category_group": "Natur & Landschaft"}, "geometry": {"type": "Point", "coordinates": [8.2563852, 48.1462041]}}, {"type": "Feature", "properties": {"Name": "Mühleberg", "description": "<b>Kategorie:</b> Natur & Landschaft — Natur-Feature (alle)<br><b>Distanz:</b>  2421 m<br><b>Website:</b> <br><b>Wikipedia:</b> <br><b>Telefon:</b> ", "timestamp": null, "begin": null, "end": null, "altitudeMode": null, "tessellate": -1, "extrude": 0, "visibility": -1, "drawOrder": null, "icon": null, "category_group": "Natur & Landschaft"}, "geometry": {"type": "Point", "coordinates": [8.2222963, 48.1083768]}}, {"type": "Feature", "properties": {"Name": "Mosenberg", "description": "<b>Kategorie:</b> Natur & Landschaft — Natur-Feature (alle)<br><b>Distanz:</b>  2391 m<br><b>Website:</b> <br><b>Wikipedia:</b> <br><b>Telefon:</b> ", "timestamp": null, "begin": null, "end": null, "altitudeMode": null, "tessellate": -1, "extrude": 0, "visibility": -1, "drawOrder": null, "icon": null, "category_group": "Natur & Landschaft"}, "geometry": {"type": "Point", "coordinates": [8.2408404, 48.1031756]}}, {"type": "Feature", "properties": {"Name": "Panoramablick Schönwald", "description": "<b>Kategorie:</b> Natur & Landschaft — Aussichtspunkt<br><b>Distanz:</b>  2743 m<br><b>Website:</b> <br><b>Wikipedia:</b> <br><b>Telefon:</b> ", "timestamp": null, "begin": null, "end": null, "altitudeMode": null, "tessellate": -1, "extrude": 0, "visibility": -1, "drawOrder": null, "icon": null, "category_group": "Natur & Landschaft"}, "geometry": {"type": "Point", "coordinates": [8.2209838, 48.1053189]}}, {"type": "Feature", "properties": {"Name": "Obervogt-Huber-Tanne", "description": "<b>Kategorie:</b> Natur & Landschaft — Natur-Feature (alle)<br><b>Distanz:</b>  1147 m<br><b>Website:</b> <br><b>Wikipedia:</b> <br><b>Telefon:</b> ", "timestamp": null, "begin": null, "end": null, "altitudeMode": null, "tessellate": -1, "extrude": 0, "visibility": -1, "drawOrder": null, "icon": null, "category_group": "Natur & Landschaft"}, "geometry": {"type": "Point", "coordinates": [8.2291313, 48.1272162]}}, {"type": "Feature", "properties": {"Name": "Scheffelstein", "description": "<b>Kategorie:</b> Natur & Landschaft — Natur-Feature (alle)<br><b>Distanz:</b>  1351 m<br><b>Website:</b> <br><b>Wikipedia:</b> <br><b>Telefon:</b> ", "timestamp": null, "begin": null, "end": null, "altitudeMode": null, "tessellate": -1, "extrude": 0, "visibility": -1, "drawOrder": null, "icon": null, "category_group": "Natur & Landschaft"}, "geometry": {"type": "Point", "coordinates": [8.2264169, 48.1275251]}}, {"type": "Feature", "properties": {"Name": "Zasius-Tanne", "description": "<b>Kategorie:</b> Natur & Landschaft — Natur-Feature (alle)<br><b>Distanz:</b>   776 m<br><b>Website:</b> <br><b>Wikipedia:</b> <br><b>Telefon:</b> ", "timestamp": null, "begin": null, "end": null, "altitudeMode": null, "tessellate": -1, "extrude": 0, "visibility": -1, "drawOrder": null, "icon": null, "category_group": "Natur & Landschaft"}, "geometry": {"type": "Point", "coordinates": [8.2336494, 48.1252576]}}, {"type": "Feature", "properties": {"Name": "Wasserscheide Rhein/Donau", "description": "<b>Kategorie:</b> Natur & Landschaft — Natur-Feature (alle)<br><b>Distanz:</b>  6115 m<br><b>Website:</b> <br><b>Wikipedia:</b> <br><b>Telefon:</b> ", "timestamp": null, "begin": null, "end": null, "altitudeMode": null, "tessellate": -1, "extrude": 0, "visibility": -1, "drawOrder": null, "icon": null, "category_group": "Natur & Landschaft"}, "geometry": {"type": "Point", "coordinates": [8.1695662, 48.1013472]}}, {"type": "Feature", "properties": {"Name": "Wasserscheide Rhein/Donau", "description": "<b>Kategorie:</b> Natur & Landschaft — Natur-Feature (alle)<br><b>Distanz:</b> 14242 m<br><b>Website:</b> <br><b>Wikipedia:</b> <br><b>Telefon:</b> ", "timestamp": null, "begin": null, "end": null, "altitudeMode": null, "tessellate": -1, "extrude": 0, "visibility": -1, "drawOrder": null, "icon": null, "category_group": "Natur & Landschaft"}, "geometry": {"type": "Point", "coordinates": [8.4338869, 48.1086084]}}]}