{"type": "FeatureCollection", "features": [{"type": "Feature", "properties": {"Name": "JH 467 — Wellness-Jugendherberge", "description": "<b>JH Nr:</b> 467<br><b>Name:</b> Wellness-Jugendherberge<br><b>Ort:</b> Wiehl<br><b>Adresse:</b> An der Krähenhardt 6 51674 Wiehl<br><b>Telefon:</b> +49 2262 72777-0<br><b>Bundesland:</b> Nordrhein-Westfalen", "timestamp": null, "begin": null, "end": null, "altitudeMode": null, "tessellate": -1, "extrude": 0, "visibility": -1, "drawOrder": null, "icon": null, "category_group": "JH"}, "geometry": {"type": "Point", "coordinates": [7.5541047, 50.9445954]}}, {"type": "Feature", "properties": {"Name": "Evangelisches Gemeindezentrum", "description": "<b>Kategorie:</b> Bildungsinfrastruktur — Gemeindezentrum<br><b>Distanz:</b>  660 m<br><b>Website:</b> <br><b>Wikipedia:</b> <br><b>Telefon:</b> ", "timestamp": null, "begin": null, "end": null, "altitudeMode": null, "tessellate": -1, "extrude": 0, "visibility": -1, "drawOrder": null, "icon": null, "category_group": "Bildungsinfrastruktur"}, "geometry": {"type": "Point", "coordinates": [7.5488952, 50.9495294]}}, {"type": "Feature", "properties": {"Name": "Sportpark am See", "description": "<b>Kategorie:</b> Freizeit & Sport — Sportzentrum<br><b>Distanz:</b> 2216 m<br><b>Website:</b> <br><b>Wikipedia:</b> <br><b>Telefon:</b> ", "timestamp": null, "begin": null, "end": null, "altitudeMode": null, "tessellate": -1, "extrude": 0, "visibility": -1, "drawOrder": null, "icon": null, "category_group": "Freizeit & Sport"}, "geometry": {"type": "Point", "coordinates": [7.5856268, 50.943892]}}, {"type": "Feature", "properties": {"Name": "Wiehler Wasser Welt", "description": "<b>Kategorie:</b> Freizeit & Sport — Wasserpark<br><b>Distanz:</b>  310 m<br><b>Website:</b> https://wiehler-wasser-welt.de/<br><b>Wikipedia:</b> <br><b>Telefon:</b> ", "timestamp": null, "begin": null, "end": null, "altitudeMode": null, "tessellate": -1, "extrude": 0, "visibility": -1, "drawOrder": null, "icon": null, "category_group": "Freizeit & Sport"}, "geometry": {"type": "Point", "coordinates": [7.5543174, 50.9473761]}}, {"type": "Feature", "properties": {"Name": "Schlossblicke \"Stockheim\"", "description": "<b>Kategorie:</b> Information — Besucherinformation<br><b>Distanz:</b> 1594 m<br><b>Website:</b> <br><b>Wikipedia:</b> <br><b>Telefon:</b> ", "timestamp": null, "begin": null, "end": null, "altitudeMode": null, "tessellate": -1, "extrude": 0, "visibility": -1, "drawOrder": null, "icon": null, "category_group": "Information"}, "geometry": {"type": "Point", "coordinates": [7.5437575, 50.9318425]}}, {"type": "Feature", "properties": {"Name": "X11+X22", "description": "<b>Kategorie:</b> Information — Besucherinformation<br><b>Distanz:</b> 1253 m<br><b>Website:</b> <br><b>Wikipedia:</b> <br><b>Telefon:</b> ", "timestamp": null, "begin": null, "end": null, "altitudeMode": null, "tessellate": -1, "extrude": 0, "visibility": -1, "drawOrder": null, "icon": null, "category_group": "Information"}, "geometry": {"type": "Point", "coordinates": [7.5466306, 50.934365]}}, {"type": "Feature", "properties": {"Name": "Peinliche Halsgerichtsordnung", "description": "<b>Kategorie:</b> Information — Besucherinformation<br><b>Distanz:</b> 1600 m<br><b>Website:</b> <br><b>Wikipedia:</b> <br><b>Telefon:</b> ", "timestamp": null, "begin": null, "end": null, "altitudeMode": null, "tessellate": -1, "extrude": 0, "visibility": -1, "drawOrder": null, "icon": null, "category_group": "Information"}, "geometry": {"type": "Point", "coordinates": [7.5387216, 50.9339897]}}, {"type": "Feature", "properties": {"Name": "Peinliche Halsgerichtsordnung", "description": "<b>Kategorie:</b> Information — Besucherinformation<br><b>Distanz:</b> 2494 m<br><b>Website:</b> <br><b>Wikipedia:</b> <br><b>Telefon:</b> ", "timestamp": null, "begin": null, "end": null, "altitudeMode": null, "tessellate": -1, "extrude": 0, "visibility": -1, "drawOrder": null, "icon": null, "category_group": "Information"}, "geometry": {"type": "Point", "coordinates": [7.5832563, 50.9318122]}}, {"type": "Feature", "properties": {"Name": "X11+X22", "description": "<b>Kategorie:</b> Information — Besucherinformation<br><b>Distanz:</b> 1211 m<br><b>Website:</b> <br><b>Wikipedia:</b> <br><b>Telefon:</b> ", "timestamp": null, "begin": null, "end": null, "altitudeMode": null, "tessellate": -1, "extrude": 0, "visibility": -1, "drawOrder": null, "icon": null, "category_group": "Information"}, "geometry": {"type": "Point", "coordinates": [7.5472465, 50.9346023]}}, {"type": "Feature", "properties": {"Name": "Rundwege Tropfsteinhöhle", "description": "<b>Kategorie:</b> Information — Besucherinformation<br><b>Distanz:</b>  839 m<br><b>Website:</b> <br><b>Wikipedia:</b> <br><b>Telefon:</b> ", "timestamp": null, "begin": null, "end": null, "altitudeMode": null, "tessellate": -1, "extrude": 0, "visibility": -1, "drawOrder": null, "icon": null, "category_group": "Information"}, "geometry": {"type": "Point", "coordinates": [7.5480806, 50.9380769]}}, {"type": "Feature", "properties": {"Name": "Elsenroth", "description": "<b>Kategorie:</b> Information — Besucherinformation<br><b>Distanz:</b> 2496 m<br><b>Website:</b> <br><b>Wikipedia:</b> <br><b>Telefon:</b> ", "timestamp": null, "begin": null, "end": null, "altitudeMode": null, "tessellate": -1, "extrude": 0, "visibility": -1, "drawOrder": null, "icon": null, "category_group": "Information"}, "geometry": {"type": "Point", "coordinates": [7.5258001, 50.9310304]}}, {"type": "Feature", "properties": {"Name": "Wanderparkplatz Oberholzen", "description": "<b>Kategorie:</b> Information — Besucherinformation<br><b>Distanz:</b> 1901 m<br><b>Website:</b> <br><b>Wikipedia:</b> <br><b>Telefon:</b> ", "timestamp": null, "begin": null, "end": null, "altitudeMode": null, "tessellate": -1, "extrude": 0, "visibility": -1, "drawOrder": null, "icon": null, "category_group": "Information"}, "geometry": {"type": "Point", "coordinates": [7.5716752, 50.9575931]}}, {"type": "Feature", "properties": {"Name": "Forstweg nordöstlich Elsenroth", "description": "<b>Kategorie:</b> Information — Besucherinformation<br><b>Distanz:</b> 1662 m<br><b>Website:</b> <br><b>Wikipedia:</b> <br><b>Telefon:</b> ", "timestamp": null, "begin": null, "end": null, "altitudeMode": null, "tessellate": -1, "extrude": 0, "visibility": -1, "drawOrder": null, "icon": null, "category_group": "Information"}, "geometry": {"type": "Point", "coordinates": [7.5364039, 50.9346798]}}, {"type": "Feature", "properties": {"Name": "Großfischbach, L 350", "description": "<b>Kategorie:</b> Information — Besucherinformation<br><b>Distanz:</b> 1812 m<br><b>Website:</b> <br><b>Wikipedia:</b> <br><b>Telefon:</b> ", "timestamp": null, "begin": null, "end": null, "altitudeMode": null, "tessellate": -1, "extrude": 0, "visibility": -1, "drawOrder": null, "icon": null, "category_group": "Information"}, "geometry": {"type": "Point", "coordinates": [7.5298713, 50.9390283]}}, {"type": "Feature", "properties": {"Name": "Hengstenbergweg, Hessklöhweg", "description": "<b>Kategorie:</b> Information — Besucherinformation<br><b>Distanz:</b> 2411 m<br><b>Website:</b> <br><b>Wikipedia:</b> <br><b>Telefon:</b> ", "timestamp": null, "begin": null, "end": null, "altitudeMode": null, "tessellate": -1, "extrude": 0, "visibility": -1, "drawOrder": null, "icon": null, "category_group": "Information"}, "geometry": {"type": "Point", "coordinates": [7.5209409, 50.9501826]}}, {"type": "Feature", "properties": {"Name": "Stockheim, Stockheimer Bach", "description": "<b>Kategorie:</b> Information — Besucherinformation<br><b>Distanz:</b> 2077 m<br><b>Website:</b> <br><b>Wikipedia:</b> <br><b>Telefon:</b> ", "timestamp": null, "begin": null, "end": null, "altitudeMode": null, "tessellate": -1, "extrude": 0, "visibility": -1, "drawOrder": null, "icon": null, "category_group": "Information"}, "geometry": {"type": "Point", "coordinates": [7.5415251, 50.9277006]}}, {"type": "Feature", "properties": {"Name": "AWO Kindergarten Auf dem Höchsten", "description": "<b>Kategorie:</b> Kinder & Jugend — Kindergarten<br><b>Distanz:</b> 2090 m<br><b>Website:</b> <br><b>Wikipedia:</b> <br><b>Telefon:</b> ", "timestamp": null, "begin": null, "end": null, "altitudeMode": null, "tessellate": -1, "extrude": 0, "visibility": -1, "drawOrder": null, "icon": null, "category_group": "Kinder & Jugend"}, "geometry": {"type": "Point", "coordinates": [7.5651157, 50.9271381]}}, {"type": "Feature", "properties": {"Name": "Oberwiehl", "description": "<b>Kategorie:</b> Kinder & Jugend — Spielplatz<br><b>Distanz:</b> 1779 m<br><b>Website:</b> <br><b>Wikipedia:</b> <br><b>Telefon:</b> ", "timestamp": null, "begin": null, "end": null, "altitudeMode": null, "tessellate": -1, "extrude": 0, "visibility": -1, "drawOrder": null, "icon": null, "category_group": "Kinder & Jugend"}, "geometry": {"type": "Point", "coordinates": [7.5794199, 50.9441849]}}, {"type": "Feature", "properties": {"Name": "kath. Kindertagesstätte St. Franziskus", "description": "<b>Kategorie:</b> Kinder & Jugend — Kindergarten<br><b>Distanz:</b>  421 m<br><b>Website:</b> <br><b>Wikipedia:</b> <br><b>Telefon:</b> ", "timestamp": null, "begin": null, "end": null, "altitudeMode": null, "tessellate": -1, "extrude": 0, "visibility": -1, "drawOrder": null, "icon": null, "category_group": "Kinder & Jugend"}, "geometry": {"type": "Point", "coordinates": [7.5525593, 50.9482543]}}, {"type": "Feature", "properties": {"Name": "Tropfsteinhöhle Wiehl", "description": "<b>Kategorie:</b> Kultur & Geschichte — Attraktion<br><b>Distanz:</b>  781 m<br><b>Website:</b> https://waldhotel-wiehl.de/tropfsteinhoehle/<br><b>Wikipedia:</b> <br><b>Telefon:</b> ", "timestamp": null, "begin": null, "end": null, "altitudeMode": null, "tessellate": -1, "extrude": 0, "visibility": -1, "drawOrder": null, "icon": null, "category_group": "Kultur & Geschichte"}, "geometry": {"type": "Point", "coordinates": [7.5481252, 50.9386779]}}, {"type": "Feature", "properties": {"Name": "BPW, Achse,Rad & Wagen", "description": "<b>Kategorie:</b> Kultur & Geschichte — Museum<br><b>Distanz:</b>  668 m<br><b>Website:</b> <br><b>Wikipedia:</b> <br><b>Telefon:</b> ", "timestamp": null, "begin": null, "end": null, "altitudeMode": null, "tessellate": -1, "extrude": 0, "visibility": -1, "drawOrder": null, "icon": null, "category_group": "Kultur & Geschichte"}, "geometry": {"type": "Point", "coordinates": [7.5631359, 50.9464846]}}, {"type": "Feature", "properties": {"Name": "Schau-Spiel-Studio Oberberg", "description": "<b>Kategorie:</b> Kultur & Geschichte — Theater<br><b>Distanz:</b>  659 m<br><b>Website:</b> https://www.theater-wiehl.de<br><b>Wikipedia:</b> <br><b>Telefon:</b> ", "timestamp": null, "begin": null, "end": null, "altitudeMode": null, "tessellate": -1, "extrude": 0, "visibility": -1, "drawOrder": null, "icon": null, "category_group": "Kultur & Geschichte"}, "geometry": {"type": "Point", "coordinates": [7.5509951, 50.9501888]}}, {"type": "Feature", "properties": {"Name": "Lug ins Land", "description": "<b>Kategorie:</b> Natur & Landschaft — Aussichtspunkt<br><b>Distanz:</b> 1987 m<br><b>Website:</b> <br><b>Wikipedia:</b> <br><b>Telefon:</b> ", "timestamp": null, "begin": null, "end": null, "altitudeMode": null, "tessellate": -1, "extrude": 0, "visibility": -1, "drawOrder": null, "icon": null, "category_group": "Natur & Landschaft"}, "geometry": {"type": "Point", "coordinates": [7.528127, 50.9375367]}}]}