{"type": "FeatureCollection", "features": [{"type": "Feature", "properties": {"Name": "JH 417 — Pfalz-Jugendherberge", "description": "<b>JH Nr:</b> 417<br><b>Name:</b> Pfalz-Jugendherberge<br><b>Ort:</b> Neustadt/Weinstraße<br><b>Adresse:</b> Hans-Geiger-Straße 27 67434 Neustadt/Weinstraße<br><b>Telefon:</b> +49 6321 2289<br><b>Bundesland:</b> Rheinland-Pfalz", "timestamp": null, "begin": null, "end": null, "altitudeMode": null, "tessellate": -1, "extrude": 0, "visibility": -1, "drawOrder": null, "icon": null, "category_group": "JH"}, "geometry": {"type": "Point", "coordinates": [8.1405605, 49.3450436]}}, {"type": "Feature", "properties": {"Name": "Käthe-Kollwitz-Gymnasium", "description": "<b>Kategorie:</b> Bildungsinfrastruktur — Schule<br><b>Distanz:</b> 1240 m<br><b>Website:</b> <br><b>Wikipedia:</b> de:Käthe-Kollwitz-Gymnasium (Neustadt an der Weinstraße)<br><b>Telefon:</b> ", "timestamp": null, "begin": null, "end": null, "altitudeMode": null, "tessellate": -1, "extrude": 0, "visibility": -1, "drawOrder": null, "icon": null, "category_group": "Bildungsinfrastruktur"}, "geometry": {"type": "Point", "coordinates": [8.1368458, 49.3559256]}}, {"type": "Feature", "properties": {"Name": "Schulzentrum Böbig", "description": "<b>Kategorie:</b> Bildungsinfrastruktur — Schule<br><b>Distanz:</b> 1677 m<br><b>Website:</b> <br><b>Wikipedia:</b> <br><b>Telefon:</b> ", "timestamp": null, "begin": null, "end": null, "altitudeMode": null, "tessellate": -1, "extrude": 0, "visibility": -1, "drawOrder": null, "icon": null, "category_group": "Bildungsinfrastruktur"}, "geometry": {"type": "Point", "coordinates": [8.1566752, 49.355845]}}, {"type": "Feature", "properties": {"Name": "Freie Goetheschule", "description": "<b>Kategorie:</b> Bildungsinfrastruktur — Schule<br><b>Distanz:</b>  940 m<br><b>Website:</b> http://www.freie-goetheschule.de/<br><b>Wikipedia:</b> <br><b>Telefon:</b> ", "timestamp": null, "begin": null, "end": null, "altitudeMode": null, "tessellate": -1, "extrude": 0, "visibility": -1, "drawOrder": null, "icon": null, "category_group": "Bildungsinfrastruktur"}, "geometry": {"type": "Point", "coordinates": [8.142691, 49.3533793]}}, {"type": "Feature", "properties": {"Name": "Stadtbücherei", "description": "<b>Kategorie:</b> Bildungsinfrastruktur — Bibliothek<br><b>Distanz:</b>  858 m<br><b>Website:</b> https://www.neustadt.eu/B%C3%BCrger-Leben/Bildung/Stadtb%C3%BCcherei<br><b>Wikipedia:</b> <br><b>Telefon:</b> +49 6321 8551717", "timestamp": null, "begin": null, "end": null, "altitudeMode": null, "tessellate": -1, "extrude": 0, "visibility": -1, "drawOrder": null, "icon": null, "category_group": "Bildungsinfrastruktur"}, "geometry": {"type": "Point", "coordinates": [8.1384418, 49.3526376]}}, {"type": "Feature", "properties": {"Name": "Kath. öffentliche Bücherei St. Jakobus", "description": "<b>Kategorie:</b> Bildungsinfrastruktur — Bibliothek<br><b>Distanz:</b> 1327 m<br><b>Website:</b> www.buecherei-hambach.de<br><b>Wikipedia:</b> <br><b>Telefon:</b> ", "timestamp": null, "begin": null, "end": null, "altitudeMode": null, "tessellate": -1, "extrude": 0, "visibility": -1, "drawOrder": null, "icon": null, "category_group": "Bildungsinfrastruktur"}, "geometry": {"type": "Point", "coordinates": [8.1292185, 49.3356843]}}, {"type": "Feature", "properties": {"Name": "Stadtteiltreff Böbig", "description": "<b>Kategorie:</b> Bildungsinfrastruktur — Gemeindezentrum<br><b>Distanz:</b> 2068 m<br><b>Website:</b> <br><b>Wikipedia:</b> <br><b>Telefon:</b> ", "timestamp": null, "begin": null, "end": null, "altitudeMode": null, "tessellate": -1, "extrude": 0, "visibility": -1, "drawOrder": null, "icon": null, "category_group": "Bildungsinfrastruktur"}, "geometry": {"type": "Point", "coordinates": [8.1578896, 49.3598023]}}, {"type": "Feature", "properties": {"Name": "Prot. Gemeindezentrum Branchweilerhof", "description": "<b>Kategorie:</b> Bildungsinfrastruktur — Gemeindezentrum<br><b>Distanz:</b> 1771 m<br><b>Website:</b> https://www.martin-luther-kirche-nw.de/index.php?id=3038<br><b>Wikipedia:</b> <br><b>Telefon:</b> ", "timestamp": null, "begin": null, "end": null, "altitudeMode": null, "tessellate": -1, "extrude": 0, "visibility": -1, "drawOrder": null, "icon": null, "category_group": "Bildungsinfrastruktur"}, "geometry": {"type": "Point", "coordinates": [8.1636503, 49.350148]}}, {"type": "Feature", "properties": {"Name": "Jugendzentrum Neustadt", "description": "<b>Kategorie:</b> Bildungsinfrastruktur — Gemeindezentrum<br><b>Distanz:</b> 1206 m<br><b>Website:</b> https://ejnnw.de/<br><b>Wikipedia:</b> <br><b>Telefon:</b> ", "timestamp": null, "begin": null, "end": null, "altitudeMode": null, "tessellate": -1, "extrude": 0, "visibility": -1, "drawOrder": null, "icon": null, "category_group": "Bildungsinfrastruktur"}, "geometry": {"type": "Point", "coordinates": [8.1332227, 49.3547702]}}, {"type": "Feature", "properties": {"Name": "Kantine 16", "description": "<b>Kategorie:</b> Bildungsinfrastruktur — Kunstzentrum<br><b>Distanz:</b>  570 m<br><b>Website:</b> www.projekt51.com/orte/kantine-16/<br><b>Wikipedia:</b> <br><b>Telefon:</b> +49 6327 961566", "timestamp": null, "begin": null, "end": null, "altitudeMode": null, "tessellate": -1, "extrude": 0, "visibility": -1, "drawOrder": null, "icon": null, "category_group": "Bildungsinfrastruktur"}, "geometry": {"type": "Point", "coordinates": [8.1424246, 49.3500274]}}, {"type": "Feature", "properties": {"Name": "Bücherei Neustadt", "description": "<b>Kategorie:</b> Bildungsinfrastruktur — Bibliothek<br><b>Distanz:</b> 1194 m<br><b>Website:</b> <br><b>Wikipedia:</b> <br><b>Telefon:</b> ", "timestamp": null, "begin": null, "end": null, "altitudeMode": null, "tessellate": -1, "extrude": 0, "visibility": -1, "drawOrder": null, "icon": null, "category_group": "Bildungsinfrastruktur"}, "geometry": {"type": "Point", "coordinates": [8.1311703, 49.3538632]}}, {"type": "Feature", "properties": {"Name": "Tourismus Büro", "description": "<b>Kategorie:</b> Information — Besucherinformation<br><b>Distanz:</b>  735 m<br><b>Website:</b> <br><b>Wikipedia:</b> <br><b>Telefon:</b> ", "timestamp": null, "begin": null, "end": null, "altitudeMode": null, "tessellate": -1, "extrude": 0, "visibility": -1, "drawOrder": null, "icon": null, "category_group": "Information"}, "geometry": {"type": "Point", "coordinates": [8.1398372, 49.3516377]}}, {"type": "Feature", "properties": {"Name": "Entfernungstabelle Wanderwege PWV", "description": "<b>Kategorie:</b> Information — Besucherinformation<br><b>Distanz:</b> 1498 m<br><b>Website:</b> <br><b>Wikipedia:</b> <br><b>Telefon:</b> ", "timestamp": null, "begin": null, "end": null, "altitudeMode": null, "tessellate": -1, "extrude": 0, "visibility": -1, "drawOrder": null, "icon": null, "category_group": "Information"}, "geometry": {"type": "Point", "coordinates": [8.121738, 49.3505584]}}, {"type": "Feature", "properties": {"Name": "Hauberanlage", "description": "<b>Kategorie:</b> Information — Besucherinformation<br><b>Distanz:</b> 1536 m<br><b>Website:</b> <br><b>Wikipedia:</b> <br><b>Telefon:</b> ", "timestamp": null, "begin": null, "end": null, "altitudeMode": null, "tessellate": -1, "extrude": 0, "visibility": -1, "drawOrder": null, "icon": null, "category_group": "Information"}, "geometry": {"type": "Point", "coordinates": [8.1212079, 49.3506177]}}, {"type": "Feature", "properties": {"Name": "Kneipp-Armbad", "description": "<b>Kategorie:</b> Information — Besucherinformation<br><b>Distanz:</b>  886 m<br><b>Website:</b> <br><b>Wikipedia:</b> <br><b>Telefon:</b> ", "timestamp": null, "begin": null, "end": null, "altitudeMode": null, "tessellate": -1, "extrude": 0, "visibility": -1, "drawOrder": null, "icon": null, "category_group": "Information"}, "geometry": {"type": "Point", "coordinates": [8.1284976, 49.3462067]}}, {"type": "Feature", "properties": {"Name": "Veranstaltungen Lachen-Speyerdorf", "description": "<b>Kategorie:</b> Information — Besucherinformation<br><b>Distanz:</b> 3082 m<br><b>Website:</b> <br><b>Wikipedia:</b> <br><b>Telefon:</b> ", "timestamp": null, "begin": null, "end": null, "altitudeMode": null, "tessellate": -1, "extrude": 0, "visibility": -1, "drawOrder": null, "icon": null, "category_group": "Information"}, "geometry": {"type": "Point", "coordinates": [8.1748602, 49.3287319]}}, {"type": "Feature", "properties": {"Name": "Ruine Wolfsburg", "description": "<b>Kategorie:</b> Information — Besucherinformation<br><b>Distanz:</b> 2850 m<br><b>Website:</b> <br><b>Wikipedia:</b> <br><b>Telefon:</b> ", "timestamp": null, "begin": null, "end": null, "altitudeMode": null, "tessellate": -1, "extrude": 0, "visibility": -1, "drawOrder": null, "icon": null, "category_group": "Information"}, "geometry": {"type": "Point", "coordinates": [8.1085401, 49.3598685]}}, {"type": "Feature", "properties": {"Name": "Haag", "description": "<b>Kategorie:</b> Information — Besucherinformation<br><b>Distanz:</b> 2381 m<br><b>Website:</b> <br><b>Wikipedia:</b> <br><b>Telefon:</b> ", "timestamp": null, "begin": null, "end": null, "altitudeMode": null, "tessellate": -1, "extrude": 0, "visibility": -1, "drawOrder": null, "icon": null, "category_group": "Information"}, "geometry": {"type": "Point", "coordinates": [8.1111382, 49.3356119]}}, {"type": "Feature", "properties": {"Name": "Parkplatz Hambacher Schloss", "description": "<b>Kategorie:</b> Information — Besucherinformation<br><b>Distanz:</b> 2765 m<br><b>Website:</b> <br><b>Wikipedia:</b> <br><b>Telefon:</b> ", "timestamp": null, "begin": null, "end": null, "altitudeMode": null, "tessellate": -1, "extrude": 0, "visibility": -1, "drawOrder": null, "icon": null, "category_group": "Information"}, "geometry": {"type": "Point", "coordinates": [8.1160258, 49.3260344]}}, {"type": "Feature", "properties": {"Name": "Rundwanderwege Hambacher Schloss", "description": "<b>Kategorie:</b> Information — Besucherinformation<br><b>Distanz:</b> 2747 m<br><b>Website:</b> <br><b>Wikipedia:</b> <br><b>Telefon:</b> ", "timestamp": null, "begin": null, "end": null, "altitudeMode": null, "tessellate": -1, "extrude": 0, "visibility": -1, "drawOrder": null, "icon": null, "category_group": "Information"}, "geometry": {"type": "Point", "coordinates": [8.1162692, 49.3261096]}}, {"type": "Feature", "properties": {"Name": "DB Reisezentrum", "description": "<b>Kategorie:</b> Information — Besucherinformation<br><b>Distanz:</b>  535 m<br><b>Website:</b> <br><b>Wikipedia:</b> <br><b>Telefon:</b> ", "timestamp": null, "begin": null, "end": null, "altitudeMode": null, "tessellate": -1, "extrude": 0, "visibility": -1, "drawOrder": null, "icon": null, "category_group": "Information"}, "geometry": {"type": "Point", "coordinates": [8.1402841, 49.3498487]}}, {"type": "Feature", "properties": {"Name": "Dr.-Welsch-Terrasse", "description": "<b>Kategorie:</b> Information — Besucherinformation<br><b>Distanz:</b> 1581 m<br><b>Website:</b> <br><b>Wikipedia:</b> <br><b>Telefon:</b> ", "timestamp": null, "begin": null, "end": null, "altitudeMode": null, "tessellate": -1, "extrude": 0, "visibility": -1, "drawOrder": null, "icon": null, "category_group": "Information"}, "geometry": {"type": "Point", "coordinates": [8.1373416, 49.359106]}}, {"type": "Feature", "properties": {"Name": "Deidesheimer-Tempel", "description": "<b>Kategorie:</b> Information — Besucherinformation<br><b>Distanz:</b> 1552 m<br><b>Website:</b> <br><b>Wikipedia:</b> <br><b>Telefon:</b> ", "timestamp": null, "begin": null, "end": null, "altitudeMode": null, "tessellate": -1, "extrude": 0, "visibility": -1, "drawOrder": null, "icon": null, "category_group": "Information"}, "geometry": {"type": "Point", "coordinates": [8.1339887, 49.3583264]}}, {"type": "Feature", "properties": {"Name": "Vögel in Wald und Flur", "description": "<b>Kategorie:</b> Information — Besucherinformation<br><b>Distanz:</b> 2511 m<br><b>Website:</b> <br><b>Wikipedia:</b> <br><b>Telefon:</b> ", "timestamp": null, "begin": null, "end": null, "altitudeMode": null, "tessellate": -1, "extrude": 0, "visibility": -1, "drawOrder": null, "icon": null, "category_group": "Information"}, "geometry": {"type": "Point", "coordinates": [8.1061694, 49.347338]}}, {"type": "Feature", "properties": {"Name": "Schutzhütte Speierheld", "description": "<b>Kategorie:</b> Information — Besucherinformation<br><b>Distanz:</b> 2224 m<br><b>Website:</b> <br><b>Wikipedia:</b> <br><b>Telefon:</b> ", "timestamp": null, "begin": null, "end": null, "altitudeMode": null, "tessellate": -1, "extrude": 0, "visibility": -1, "drawOrder": null, "icon": null, "category_group": "Information"}, "geometry": {"type": "Point", "coordinates": [8.1117137, 49.3383445]}}, {"type": "Feature", "properties": {"Name": "Abzweig Sühnekreuz", "description": "<b>Kategorie:</b> Information — Besucherinformation<br><b>Distanz:</b> 2804 m<br><b>Website:</b> <br><b>Wikipedia:</b> <br><b>Telefon:</b> ", "timestamp": null, "begin": null, "end": null, "altitudeMode": null, "tessellate": -1, "extrude": 0, "visibility": -1, "drawOrder": null, "icon": null, "category_group": "Information"}, "geometry": {"type": "Point", "coordinates": [8.1109487, 49.328865]}}, {"type": "Feature", "properties": {"Name": "Wolfsburgblick", "description": "<b>Kategorie:</b> Information — Besucherinformation<br><b>Distanz:</b> 2085 m<br><b>Website:</b> <br><b>Wikipedia:</b> <br><b>Telefon:</b> ", "timestamp": null, "begin": null, "end": null, "altitudeMode": null, "tessellate": -1, "extrude": 0, "visibility": -1, "drawOrder": null, "icon": null, "category_group": "Information"}, "geometry": {"type": "Point", "coordinates": [8.1125717, 49.3491946]}}, {"type": "Feature", "properties": {"Name": "Östl. Nollenkopf", "description": "<b>Kategorie:</b> Information — Besucherinformation<br><b>Distanz:</b> 1817 m<br><b>Website:</b> <br><b>Wikipedia:</b> <br><b>Telefon:</b> ", "timestamp": null, "begin": null, "end": null, "altitudeMode": null, "tessellate": -1, "extrude": 0, "visibility": -1, "drawOrder": null, "icon": null, "category_group": "Information"}, "geometry": {"type": "Point", "coordinates": [8.1155491, 49.3448734]}}, {"type": "Feature", "properties": {"Name": "Wolfsbrunnen", "description": "<b>Kategorie:</b> Information — Besucherinformation<br><b>Distanz:</b> 2770 m<br><b>Website:</b> <br><b>Wikipedia:</b> <br><b>Telefon:</b> ", "timestamp": null, "begin": null, "end": null, "altitudeMode": null, "tessellate": -1, "extrude": 0, "visibility": -1, "drawOrder": null, "icon": null, "category_group": "Information"}, "geometry": {"type": "Point", "coordinates": [8.1102704, 49.3601806]}}, {"type": "Feature", "properties": {"Name": "Nollensattel", "description": "<b>Kategorie:</b> Information — Besucherinformation<br><b>Distanz:</b> 1211 m<br><b>Website:</b> <br><b>Wikipedia:</b> <br><b>Telefon:</b> ", "timestamp": null, "begin": null, "end": null, "altitudeMode": null, "tessellate": -1, "extrude": 0, "visibility": -1, "drawOrder": null, "icon": null, "category_group": "Information"}, "geometry": {"type": "Point", "coordinates": [8.1239269, 49.3442699]}}, {"type": "Feature", "properties": {"Name": "Neustadt, Waldstr. / Wittelsbacherstr.", "description": "<b>Kategorie:</b> Information — Besucherinformation<br><b>Distanz:</b>  565 m<br><b>Website:</b> <br><b>Wikipedia:</b> <br><b>Telefon:</b> ", "timestamp": null, "begin": null, "end": null, "altitudeMode": null, "tessellate": -1, "extrude": 0, "visibility": -1, "drawOrder": null, "icon": null, "category_group": "Information"}, "geometry": {"type": "Point", "coordinates": [8.1338108, 49.3475746]}}, {"type": "Feature", "properties": {"Name": "Neustadt, Herz-Jesu-Kloster", "description": "<b>Kategorie:</b> Information — Besucherinformation<br><b>Distanz:</b>  870 m<br><b>Website:</b> <br><b>Wikipedia:</b> <br><b>Telefon:</b> ", "timestamp": null, "begin": null, "end": null, "altitudeMode": null, "tessellate": -1, "extrude": 0, "visibility": -1, "drawOrder": null, "icon": null, "category_group": "Information"}, "geometry": {"type": "Point", "coordinates": [8.1291648, 49.3474515]}}, {"type": "Feature", "properties": {"Name": "Drei Charakterbaumarten des Pfälzerwalds: Traubeneiche", "description": "<b>Kategorie:</b> Information — Besucherinformation<br><b>Distanz:</b> 1589 m<br><b>Website:</b> <br><b>Wikipedia:</b> <br><b>Telefon:</b> ", "timestamp": null, "begin": null, "end": null, "altitudeMode": null, "tessellate": -1, "extrude": 0, "visibility": -1, "drawOrder": null, "icon": null, "category_group": "Information"}, "geometry": {"type": "Point", "coordinates": [8.1188921, 49.3469859]}}, {"type": "Feature", "properties": {"Name": "Klima und Wald: Unser Wald im Klimastress", "description": "<b>Kategorie:</b> Information — Besucherinformation<br><b>Distanz:</b> 1232 m<br><b>Website:</b> <br><b>Wikipedia:</b> <br><b>Telefon:</b> ", "timestamp": null, "begin": null, "end": null, "altitudeMode": null, "tessellate": -1, "extrude": 0, "visibility": -1, "drawOrder": null, "icon": null, "category_group": "Information"}, "geometry": {"type": "Point", "coordinates": [8.1236164, 49.3446267]}}, {"type": "Feature", "properties": {"Name": "Themenweg Kult(ur)wald", "description": "<b>Kategorie:</b> Information — Besucherinformation<br><b>Distanz:</b>  982 m<br><b>Website:</b> <br><b>Wikipedia:</b> <br><b>Telefon:</b> ", "timestamp": null, "begin": null, "end": null, "altitudeMode": null, "tessellate": -1, "extrude": 0, "visibility": -1, "drawOrder": null, "icon": null, "category_group": "Information"}, "geometry": {"type": "Point", "coordinates": [8.1272626, 49.3466196]}}, {"type": "Feature", "properties": {"Name": "Neustadts Altstadt", "description": "<b>Kategorie:</b> Information — Besucherinformation<br><b>Distanz:</b>  890 m<br><b>Website:</b> <br><b>Wikipedia:</b> <br><b>Telefon:</b> ", "timestamp": null, "begin": null, "end": null, "altitudeMode": null, "tessellate": -1, "extrude": 0, "visibility": -1, "drawOrder": null, "icon": null, "category_group": "Information"}, "geometry": {"type": "Point", "coordinates": [8.1288889, 49.34747]}}, {"type": "Feature", "properties": {"Name": "Themenweg Kult(ur)wald", "description": "<b>Kategorie:</b> Information — Besucherinformation<br><b>Distanz:</b>  868 m<br><b>Website:</b> <br><b>Wikipedia:</b> <br><b>Telefon:</b> ", "timestamp": null, "begin": null, "end": null, "altitudeMode": null, "tessellate": -1, "extrude": 0, "visibility": -1, "drawOrder": null, "icon": null, "category_group": "Information"}, "geometry": {"type": "Point", "coordinates": [8.1292099, 49.3474864]}}, {"type": "Feature", "properties": {"Name": "\"Mausoleum\" der Familie Conrad Freytag", "description": "<b>Kategorie:</b> Information — Besucherinformation<br><b>Distanz:</b>  943 m<br><b>Website:</b> <br><b>Wikipedia:</b> <br><b>Telefon:</b> ", "timestamp": null, "begin": null, "end": null, "altitudeMode": null, "tessellate": -1, "extrude": 0, "visibility": -1, "drawOrder": null, "icon": null, "category_group": "Information"}, "geometry": {"type": "Point", "coordinates": [8.1277918, 49.3465716]}}, {"type": "Feature", "properties": {"Name": "Dichter erfüllen den Wald mit Tiefsinn: Wald in Lyrik und Romantik", "description": "<b>Kategorie:</b> Information — Besucherinformation<br><b>Distanz:</b> 1019 m<br><b>Website:</b> <br><b>Wikipedia:</b> <br><b>Telefon:</b> ", "timestamp": null, "begin": null, "end": null, "altitudeMode": null, "tessellate": -1, "extrude": 0, "visibility": -1, "drawOrder": null, "icon": null, "category_group": "Information"}, "geometry": {"type": "Point", "coordinates": [8.1265866, 49.3442343]}}, {"type": "Feature", "properties": {"Name": "Drei Charakterbaumarten des Pfälzerwalds: Waldkiefer", "description": "<b>Kategorie:</b> Information — Besucherinformation<br><b>Distanz:</b> 1156 m<br><b>Website:</b> <br><b>Wikipedia:</b> <br><b>Telefon:</b> ", "timestamp": null, "begin": null, "end": null, "altitudeMode": null, "tessellate": -1, "extrude": 0, "visibility": -1, "drawOrder": null, "icon": null, "category_group": "Information"}, "geometry": {"type": "Point", "coordinates": [8.124788, 49.3436508]}}, {"type": "Feature", "properties": {"Name": "Neustadts Waldgeschichte: Von der Vergangenheit der Wälder lernen", "description": "<b>Kategorie:</b> Information — Besucherinformation<br><b>Distanz:</b> 1293 m<br><b>Website:</b> <br><b>Wikipedia:</b> <br><b>Telefon:</b> ", "timestamp": null, "begin": null, "end": null, "altitudeMode": null, "tessellate": -1, "extrude": 0, "visibility": -1, "drawOrder": null, "icon": null, "category_group": "Information"}, "geometry": {"type": "Point", "coordinates": [8.1228403, 49.3461134]}}, {"type": "Feature", "properties": {"Name": "Die Axt im Walde? Naturnahe Waldbewirtschaftung in Neustadt", "description": "<b>Kategorie:</b> Information — Besucherinformation<br><b>Distanz:</b> 1889 m<br><b>Website:</b> <br><b>Wikipedia:</b> <br><b>Telefon:</b> ", "timestamp": null, "begin": null, "end": null, "altitudeMode": null, "tessellate": -1, "extrude": 0, "visibility": -1, "drawOrder": null, "icon": null, "category_group": "Information"}, "geometry": {"type": "Point", "coordinates": [8.1150677, 49.3483926]}}, {"type": "Feature", "properties": {"Name": "Drei Charakterbaumarten des Pfälzerwalds: Edelkastanie", "description": "<b>Kategorie:</b> Information — Besucherinformation<br><b>Distanz:</b> 1450 m<br><b>Website:</b> <br><b>Wikipedia:</b> <br><b>Telefon:</b> ", "timestamp": null, "begin": null, "end": null, "altitudeMode": null, "tessellate": -1, "extrude": 0, "visibility": -1, "drawOrder": null, "icon": null, "category_group": "Information"}, "geometry": {"type": "Point", "coordinates": [8.1207857, 49.3468246]}}, {"type": "Feature", "properties": {"Name": "Was befindet sich eigentlich unter dem Pfälzerwald? Der Bodenaufbau", "description": "<b>Kategorie:</b> Information — Besucherinformation<br><b>Distanz:</b> 1998 m<br><b>Website:</b> <br><b>Wikipedia:</b> <br><b>Telefon:</b> ", "timestamp": null, "begin": null, "end": null, "altitudeMode": null, "tessellate": -1, "extrude": 0, "visibility": -1, "drawOrder": null, "icon": null, "category_group": "Information"}, "geometry": {"type": "Point", "coordinates": [8.1136809, 49.3488775]}}, {"type": "Feature", "properties": {"Name": "Wozu benötigen wir eigentlich den Wald? Funktionen und Leistungen", "description": "<b>Kategorie:</b> Information — Besucherinformation<br><b>Distanz:</b> 1515 m<br><b>Website:</b> <br><b>Wikipedia:</b> <br><b>Telefon:</b> ", "timestamp": null, "begin": null, "end": null, "altitudeMode": null, "tessellate": -1, "extrude": 0, "visibility": -1, "drawOrder": null, "icon": null, "category_group": "Information"}, "geometry": {"type": "Point", "coordinates": [8.1197577, 49.3460429]}}, {"type": "Feature", "properties": {"Name": "Biosphärenreservat Pfälzerwald", "description": "<b>Kategorie:</b> Information — Besucherinformation<br><b>Distanz:</b>  952 m<br><b>Website:</b> <br><b>Wikipedia:</b> <br><b>Telefon:</b> ", "timestamp": null, "begin": null, "end": null, "altitudeMode": null, "tessellate": -1, "extrude": 0, "visibility": -1, "drawOrder": null, "icon": null, "category_group": "Information"}, "geometry": {"type": "Point", "coordinates": [8.1274546, 49.3451539]}}, {"type": "Feature", "properties": {"Name": "Eine neue Waldgeneration soll wachsen: Pflanzung & natürliche Verjüngung", "description": "<b>Kategorie:</b> Information — Besucherinformation<br><b>Distanz:</b> 1631 m<br><b>Website:</b> <br><b>Wikipedia:</b> <br><b>Telefon:</b> ", "timestamp": null, "begin": null, "end": null, "altitudeMode": null, "tessellate": -1, "extrude": 0, "visibility": -1, "drawOrder": null, "icon": null, "category_group": "Information"}, "geometry": {"type": "Point", "coordinates": [8.1183294, 49.3471011]}}, {"type": "Feature", "properties": {"Name": "Naturschutz im Wald: Von Wildnisflächen und Urwäldern", "description": "<b>Kategorie:</b> Information — Besucherinformation<br><b>Distanz:</b> 1925 m<br><b>Website:</b> <br><b>Wikipedia:</b> <br><b>Telefon:</b> ", "timestamp": null, "begin": null, "end": null, "altitudeMode": null, "tessellate": -1, "extrude": 0, "visibility": -1, "drawOrder": null, "icon": null, "category_group": "Information"}, "geometry": {"type": "Point", "coordinates": [8.1145459, 49.3483691]}}, {"type": "Feature", "properties": {"Name": "Unordnung im Wald: Über die Nachhaltigkeit der Nährstoffe", "description": "<b>Kategorie:</b> Information — Besucherinformation<br><b>Distanz:</b> 1377 m<br><b>Website:</b> <br><b>Wikipedia:</b> <br><b>Telefon:</b> ", "timestamp": null, "begin": null, "end": null, "altitudeMode": null, "tessellate": -1, "extrude": 0, "visibility": -1, "drawOrder": null, "icon": null, "category_group": "Information"}, "geometry": {"type": "Point", "coordinates": [8.121611, 49.345309]}}, {"type": "Feature", "properties": {"Name": "Themenweg Kult(ur)wald", "description": "<b>Kategorie:</b> Information — Besucherinformation<br><b>Distanz:</b> 1207 m<br><b>Website:</b> <br><b>Wikipedia:</b> <br><b>Telefon:</b> ", "timestamp": null, "begin": null, "end": null, "altitudeMode": null, "tessellate": -1, "extrude": 0, "visibility": -1, "drawOrder": null, "icon": null, "category_group": "Information"}, "geometry": {"type": "Point", "coordinates": [8.1239759, 49.3444168]}}, {"type": "Feature", "properties": {"Name": "Blick zum Wolfsberg und zur Ruine Wolfsburg", "description": "<b>Kategorie:</b> Information — Besucherinformation<br><b>Distanz:</b> 2062 m<br><b>Website:</b> <br><b>Wikipedia:</b> <br><b>Telefon:</b> ", "timestamp": null, "begin": null, "end": null, "altitudeMode": null, "tessellate": -1, "extrude": 0, "visibility": -1, "drawOrder": null, "icon": null, "category_group": "Information"}, "geometry": {"type": "Point", "coordinates": [8.1129511, 49.3493697]}}, {"type": "Feature", "properties": {"Name": "Wald und Naturlehrpfad Haardt/Meisen-Tal", "description": "<b>Kategorie:</b> Information — Besucherinformation<br><b>Distanz:</b> 2147 m<br><b>Website:</b> <br><b>Wikipedia:</b> <br><b>Telefon:</b> ", "timestamp": null, "begin": null, "end": null, "altitudeMode": null, "tessellate": -1, "extrude": 0, "visibility": -1, "drawOrder": null, "icon": null, "category_group": "Information"}, "geometry": {"type": "Point", "coordinates": [8.1308497, 49.3632847]}}, {"type": "Feature", "properties": {"Name": "Hambach, Schloßstraße", "description": "<b>Kategorie:</b> Information — Besucherinformation<br><b>Distanz:</b> 2313 m<br><b>Website:</b> <br><b>Wikipedia:</b> <br><b>Telefon:</b> ", "timestamp": null, "begin": null, "end": null, "altitudeMode": null, "tessellate": -1, "extrude": 0, "visibility": -1, "drawOrder": null, "icon": null, "category_group": "Information"}, "geometry": {"type": "Point", "coordinates": [8.1241848, 49.3271975]}}, {"type": "Feature", "properties": {"Name": "Hambach, Dammstr. / Eichstr.", "description": "<b>Kategorie:</b> Information — Besucherinformation<br><b>Distanz:</b> 1852 m<br><b>Website:</b> <br><b>Wikipedia:</b> <br><b>Telefon:</b> ", "timestamp": null, "begin": null, "end": null, "altitudeMode": null, "tessellate": -1, "extrude": 0, "visibility": -1, "drawOrder": null, "icon": null, "category_group": "Information"}, "geometry": {"type": "Point", "coordinates": [8.1307093, 49.3296781]}}, {"type": "Feature", "properties": {"Name": "Nollenkopf / Denkmal", "description": "<b>Kategorie:</b> Information — Besucherinformation<br><b>Distanz:</b> 2087 m<br><b>Website:</b> <br><b>Wikipedia:</b> <br><b>Telefon:</b> ", "timestamp": null, "begin": null, "end": null, "altitudeMode": null, "tessellate": -1, "extrude": 0, "visibility": -1, "drawOrder": null, "icon": null, "category_group": "Information"}, "geometry": {"type": "Point", "coordinates": [8.1134373, 49.3512283]}}, {"type": "Feature", "properties": {"Name": "Axtwurfanlagen / Georg-von-Neumayer-Denkmal", "description": "<b>Kategorie:</b> Information — Besucherinformation<br><b>Distanz:</b> 1864 m<br><b>Website:</b> <br><b>Wikipedia:</b> <br><b>Telefon:</b> ", "timestamp": null, "begin": null, "end": null, "altitudeMode": null, "tessellate": -1, "extrude": 0, "visibility": -1, "drawOrder": null, "icon": null, "category_group": "Information"}, "geometry": {"type": "Point", "coordinates": [8.1163603, 49.3506315]}}, {"type": "Feature", "properties": {"Name": "Königsmühle / Kaltebrunnertalbach", "description": "<b>Kategorie:</b> Information — Besucherinformation<br><b>Distanz:</b> 2469 m<br><b>Website:</b> <br><b>Wikipedia:</b> <br><b>Telefon:</b> ", "timestamp": null, "begin": null, "end": null, "altitudeMode": null, "tessellate": -1, "extrude": 0, "visibility": -1, "drawOrder": null, "icon": null, "category_group": "Information"}, "geometry": {"type": "Point", "coordinates": [8.1067665, 49.3474396]}}, {"type": "Feature", "properties": {"Name": "Schöntalstraße (K 3)", "description": "<b>Kategorie:</b> Information — Besucherinformation<br><b>Distanz:</b> 2369 m<br><b>Website:</b> <br><b>Wikipedia:</b> <br><b>Telefon:</b> ", "timestamp": null, "begin": null, "end": null, "altitudeMode": null, "tessellate": -1, "extrude": 0, "visibility": -1, "drawOrder": null, "icon": null, "category_group": "Information"}, "geometry": {"type": "Point", "coordinates": [8.109485, 49.3515235]}}, {"type": "Feature", "properties": {"Name": "Kaltenbrunnertalbach", "description": "<b>Kategorie:</b> Information — Besucherinformation<br><b>Distanz:</b> 2316 m<br><b>Website:</b> <br><b>Wikipedia:</b> <br><b>Telefon:</b> ", "timestamp": null, "begin": null, "end": null, "altitudeMode": null, "tessellate": -1, "extrude": 0, "visibility": -1, "drawOrder": null, "icon": null, "category_group": "Information"}, "geometry": {"type": "Point", "coordinates": [8.1101227, 49.3512502]}}, {"type": "Feature", "properties": {"Name": "Neustadt, Wolfsburgstraße", "description": "<b>Kategorie:</b> Information — Besucherinformation<br><b>Distanz:</b> 2777 m<br><b>Website:</b> <br><b>Wikipedia:</b> <br><b>Telefon:</b> ", "timestamp": null, "begin": null, "end": null, "altitudeMode": null, "tessellate": -1, "extrude": 0, "visibility": -1, "drawOrder": null, "icon": null, "category_group": "Information"}, "geometry": {"type": "Point", "coordinates": [8.1076072, 49.3577068]}}, {"type": "Feature", "properties": {"Name": "Neustadt, Talstraße (B 39) / Würzmühle", "description": "<b>Kategorie:</b> Information — Besucherinformation<br><b>Distanz:</b> 2662 m<br><b>Website:</b> <br><b>Wikipedia:</b> <br><b>Telefon:</b> ", "timestamp": null, "begin": null, "end": null, "altitudeMode": null, "tessellate": -1, "extrude": 0, "visibility": -1, "drawOrder": null, "icon": null, "category_group": "Information"}, "geometry": {"type": "Point", "coordinates": [8.1081831, 49.3562559]}}, {"type": "Feature", "properties": {"Name": "Abzweig Ruine Josephskapelle", "description": "<b>Kategorie:</b> Information — Besucherinformation<br><b>Distanz:</b> 1536 m<br><b>Website:</b> <br><b>Wikipedia:</b> <br><b>Telefon:</b> ", "timestamp": null, "begin": null, "end": null, "altitudeMode": null, "tessellate": -1, "extrude": 0, "visibility": -1, "drawOrder": null, "icon": null, "category_group": "Information"}, "geometry": {"type": "Point", "coordinates": [8.1269055, 49.3555902]}}, {"type": "Feature", "properties": {"Name": "Abzweig Scheffelwarte", "description": "<b>Kategorie:</b> Information — Besucherinformation<br><b>Distanz:</b> 1656 m<br><b>Website:</b> <br><b>Wikipedia:</b> <br><b>Telefon:</b> ", "timestamp": null, "begin": null, "end": null, "altitudeMode": null, "tessellate": -1, "extrude": 0, "visibility": -1, "drawOrder": null, "icon": null, "category_group": "Information"}, "geometry": {"type": "Point", "coordinates": [8.1303701, 49.3583677]}}, {"type": "Feature", "properties": {"Name": "Kasse", "description": "<b>Kategorie:</b> Information — Besucherinformation<br><b>Distanz:</b> 2767 m<br><b>Website:</b> <br><b>Wikipedia:</b> <br><b>Telefon:</b> ", "timestamp": null, "begin": null, "end": null, "altitudeMode": null, "tessellate": -1, "extrude": 0, "visibility": -1, "drawOrder": null, "icon": null, "category_group": "Information"}, "geometry": {"type": "Point", "coordinates": [8.1182957, 49.3248545]}}, {"type": "Feature", "properties": {"Name": "Besucherhaus", "description": "<b>Kategorie:</b> Information — Besucherinformation<br><b>Distanz:</b> 2702 m<br><b>Website:</b> https://hambacher-schloss.de<br><b>Wikipedia:</b> <br><b>Telefon:</b> ", "timestamp": null, "begin": null, "end": null, "altitudeMode": null, "tessellate": -1, "extrude": 0, "visibility": -1, "drawOrder": null, "icon": null, "category_group": "Information"}, "geometry": {"type": "Point", "coordinates": [8.1181897, 49.3256307]}}, {"type": "Feature", "properties": {"Name": "Eisenbahn- und Bibelmuseum", "description": "<b>Kategorie:</b> Information — Besucherinformation<br><b>Distanz:</b>  544 m<br><b>Website:</b> <br><b>Wikipedia:</b> <br><b>Telefon:</b> ", "timestamp": null, "begin": null, "end": null, "altitudeMode": null, "tessellate": -1, "extrude": 0, "visibility": -1, "drawOrder": null, "icon": null, "category_group": "Information"}, "geometry": {"type": "Point", "coordinates": [8.1409208, 49.3499267]}}, {"type": "Feature", "properties": {"Name": "Saalbau und Wein", "description": "<b>Kategorie:</b> Information — Besucherinformation<br><b>Distanz:</b>  648 m<br><b>Website:</b> <br><b>Wikipedia:</b> <br><b>Telefon:</b> ", "timestamp": null, "begin": null, "end": null, "altitudeMode": null, "tessellate": -1, "extrude": 0, "visibility": -1, "drawOrder": null, "icon": null, "category_group": "Information"}, "geometry": {"type": "Point", "coordinates": [8.1400817, 49.3508678]}}, {"type": "Feature", "properties": {"Name": "Burgmannengebäude", "description": "<b>Kategorie:</b> Information — Besucherinformation<br><b>Distanz:</b> 2766 m<br><b>Website:</b> <br><b>Wikipedia:</b> <br><b>Telefon:</b> ", "timestamp": null, "begin": null, "end": null, "altitudeMode": null, "tessellate": -1, "extrude": 0, "visibility": -1, "drawOrder": null, "icon": null, "category_group": "Information"}, "geometry": {"type": "Point", "coordinates": [8.1170753, 49.3254665]}}, {"type": "Feature", "properties": {"Name": "Saalbau / Roofed Hall", "description": "<b>Kategorie:</b> Information — Besucherinformation<br><b>Distanz:</b> 2742 m<br><b>Website:</b> <br><b>Wikipedia:</b> <br><b>Telefon:</b> ", "timestamp": null, "begin": null, "end": null, "altitudeMode": null, "tessellate": -1, "extrude": 0, "visibility": -1, "drawOrder": null, "icon": null, "category_group": "Information"}, "geometry": {"type": "Point", "coordinates": [8.1183862, 49.3250897]}}, {"type": "Feature", "properties": {"Name": "Der Schlosspark", "description": "<b>Kategorie:</b> Information — Besucherinformation<br><b>Distanz:</b> 2711 m<br><b>Website:</b> <br><b>Wikipedia:</b> <br><b>Telefon:</b> ", "timestamp": null, "begin": null, "end": null, "altitudeMode": null, "tessellate": -1, "extrude": 0, "visibility": -1, "drawOrder": null, "icon": null, "category_group": "Information"}, "geometry": {"type": "Point", "coordinates": [8.1181615, 49.3255374]}}, {"type": "Feature", "properties": {"Name": "Nordturm", "description": "<b>Kategorie:</b> Information — Besucherinformation<br><b>Distanz:</b> 2746 m<br><b>Website:</b> <br><b>Wikipedia:</b> <br><b>Telefon:</b> ", "timestamp": null, "begin": null, "end": null, "altitudeMode": null, "tessellate": -1, "extrude": 0, "visibility": -1, "drawOrder": null, "icon": null, "category_group": "Information"}, "geometry": {"type": "Point", "coordinates": [8.1173369, 49.3255616]}}, {"type": "Feature", "properties": {"Name": "Kästenburg - Maxburg - Hambacher Schloß", "description": "<b>Kategorie:</b> Information — Besucherinformation<br><b>Distanz:</b> 2678 m<br><b>Website:</b> <br><b>Wikipedia:</b> <br><b>Telefon:</b> ", "timestamp": null, "begin": null, "end": null, "altitudeMode": null, "tessellate": -1, "extrude": 0, "visibility": -1, "drawOrder": null, "icon": null, "category_group": "Information"}, "geometry": {"type": "Point", "coordinates": [8.1189698, 49.3255223]}}, {"type": "Feature", "properties": {"Name": "Kapelle St. Michael", "description": "<b>Kategorie:</b> Information — Besucherinformation<br><b>Distanz:</b> 2739 m<br><b>Website:</b> <br><b>Wikipedia:</b> <br><b>Telefon:</b> ", "timestamp": null, "begin": null, "end": null, "altitudeMode": null, "tessellate": -1, "extrude": 0, "visibility": -1, "drawOrder": null, "icon": null, "category_group": "Information"}, "geometry": {"type": "Point", "coordinates": [8.1178712, 49.3253682]}}, {"type": "Feature", "properties": {"Name": "Wirtschaftsgebäude", "description": "<b>Kategorie:</b> Information — Besucherinformation<br><b>Distanz:</b> 2733 m<br><b>Website:</b> <br><b>Wikipedia:</b> <br><b>Telefon:</b> ", "timestamp": null, "begin": null, "end": null, "altitudeMode": null, "tessellate": -1, "extrude": 0, "visibility": -1, "drawOrder": null, "icon": null, "category_group": "Information"}, "geometry": {"type": "Point", "coordinates": [8.1177357, 49.3255093]}}, {"type": "Feature", "properties": {"Name": "160 Jahre Hambacher Fest", "description": "<b>Kategorie:</b> Information — Besucherinformation<br><b>Distanz:</b> 2775 m<br><b>Website:</b> <br><b>Wikipedia:</b> <br><b>Telefon:</b> ", "timestamp": null, "begin": null, "end": null, "altitudeMode": null, "tessellate": -1, "extrude": 0, "visibility": -1, "drawOrder": null, "icon": null, "category_group": "Information"}, "geometry": {"type": "Point", "coordinates": [8.1176964, 49.3250485]}}, {"type": "Feature", "properties": {"Name": "Burghof", "description": "<b>Kategorie:</b> Information — Besucherinformation<br><b>Distanz:</b> 2778 m<br><b>Website:</b> <br><b>Wikipedia:</b> <br><b>Telefon:</b> ", "timestamp": null, "begin": null, "end": null, "altitudeMode": null, "tessellate": -1, "extrude": 0, "visibility": -1, "drawOrder": null, "icon": null, "category_group": "Information"}, "geometry": {"type": "Point", "coordinates": [8.1181995, 49.3247793]}}, {"type": "Feature", "properties": {"Name": "Drei Mauerringe", "description": "<b>Kategorie:</b> Information — Besucherinformation<br><b>Distanz:</b> 2799 m<br><b>Website:</b> <br><b>Wikipedia:</b> <br><b>Telefon:</b> ", "timestamp": null, "begin": null, "end": null, "altitudeMode": null, "tessellate": -1, "extrude": 0, "visibility": -1, "drawOrder": null, "icon": null, "category_group": "Information"}, "geometry": {"type": "Point", "coordinates": [8.1176713, 49.3247913]}}, {"type": "Feature", "properties": {"Name": "Voitscher Vorbau", "description": "<b>Kategorie:</b> Information — Besucherinformation<br><b>Distanz:</b> 2759 m<br><b>Website:</b> <br><b>Wikipedia:</b> <br><b>Telefon:</b> ", "timestamp": null, "begin": null, "end": null, "altitudeMode": null, "tessellate": -1, "extrude": 0, "visibility": -1, "drawOrder": null, "icon": null, "category_group": "Information"}, "geometry": {"type": "Point", "coordinates": [8.1184571, 49.3248595]}}, {"type": "Feature", "properties": {"Name": "Bergfried", "description": "<b>Kategorie:</b> Information — Besucherinformation<br><b>Distanz:</b> 2780 m<br><b>Website:</b> <br><b>Wikipedia:</b> <br><b>Telefon:</b> ", "timestamp": null, "begin": null, "end": null, "altitudeMode": null, "tessellate": -1, "extrude": 0, "visibility": -1, "drawOrder": null, "icon": null, "category_group": "Information"}, "geometry": {"type": "Point", "coordinates": [8.1178233, 49.3249351]}}, {"type": "Feature", "properties": {"Name": "Ludwig Börne", "description": "<b>Kategorie:</b> Information — Besucherinformation<br><b>Distanz:</b> 2722 m<br><b>Website:</b> <br><b>Wikipedia:</b> <br><b>Telefon:</b> ", "timestamp": null, "begin": null, "end": null, "altitudeMode": null, "tessellate": -1, "extrude": 0, "visibility": -1, "drawOrder": null, "icon": null, "category_group": "Information"}, "geometry": {"type": "Point", "coordinates": [8.1188862, 49.3250738]}}, {"type": "Feature", "properties": {"Name": "Die Josephskapelle", "description": "<b>Kategorie:</b> Information — Besucherinformation<br><b>Distanz:</b> 1570 m<br><b>Website:</b> <br><b>Wikipedia:</b> <br><b>Telefon:</b> ", "timestamp": null, "begin": null, "end": null, "altitudeMode": null, "tessellate": -1, "extrude": 0, "visibility": -1, "drawOrder": null, "icon": null, "category_group": "Information"}, "geometry": {"type": "Point", "coordinates": [8.1281736, 49.3566127]}}, {"type": "Feature", "properties": {"Name": "Gehölzbiotop (Info II)", "description": "<b>Kategorie:</b> Information — Besucherinformation<br><b>Distanz:</b> 1502 m<br><b>Website:</b> <br><b>Wikipedia:</b> <br><b>Telefon:</b> ", "timestamp": null, "begin": null, "end": null, "altitudeMode": null, "tessellate": -1, "extrude": 0, "visibility": -1, "drawOrder": null, "icon": null, "category_group": "Information"}, "geometry": {"type": "Point", "coordinates": [8.1463349, 49.3580127]}}, {"type": "Feature", "properties": {"Name": "Gehölzbiotop (Info I)", "description": "<b>Kategorie:</b> Information — Besucherinformation<br><b>Distanz:</b> 1527 m<br><b>Website:</b> <br><b>Wikipedia:</b> <br><b>Telefon:</b> ", "timestamp": null, "begin": null, "end": null, "altitudeMode": null, "tessellate": -1, "extrude": 0, "visibility": -1, "drawOrder": null, "icon": null, "category_group": "Information"}, "geometry": {"type": "Point", "coordinates": [8.1464116, 49.3582323]}}, {"type": "Feature", "properties": {"Name": "Speyerbach 27", "description": "<b>Kategorie:</b> Information — Besucherinformation<br><b>Distanz:</b> 1084 m<br><b>Website:</b> <br><b>Wikipedia:</b> <br><b>Telefon:</b> ", "timestamp": null, "begin": null, "end": null, "altitudeMode": null, "tessellate": -1, "extrude": 0, "visibility": -1, "drawOrder": null, "icon": null, "category_group": "Information"}, "geometry": {"type": "Point", "coordinates": [8.1411984, 49.3547847]}}, {"type": "Feature", "properties": {"Name": "Das Hambacher Fest 1832", "description": "<b>Kategorie:</b> Information — Besucherinformation<br><b>Distanz:</b> 2744 m<br><b>Website:</b> <br><b>Wikipedia:</b> <br><b>Telefon:</b> ", "timestamp": null, "begin": null, "end": null, "altitudeMode": null, "tessellate": -1, "extrude": 0, "visibility": -1, "drawOrder": null, "icon": null, "category_group": "Information"}, "geometry": {"type": "Point", "coordinates": [8.1164377, 49.3260512]}}, {"type": "Feature", "properties": {"Name": "Hambacher Schloss", "description": "<b>Kategorie:</b> Information — Besucherinformation<br><b>Distanz:</b> 2758 m<br><b>Website:</b> <br><b>Wikipedia:</b> <br><b>Telefon:</b> ", "timestamp": null, "begin": null, "end": null, "altitudeMode": null, "tessellate": -1, "extrude": 0, "visibility": -1, "drawOrder": null, "icon": null, "category_group": "Information"}, "geometry": {"type": "Point", "coordinates": [8.1166461, 49.3257836]}}, {"type": "Feature", "properties": {"Name": "Hambacher Handwerkpfad", "description": "<b>Kategorie:</b> Information — Besucherinformation<br><b>Distanz:</b> 2482 m<br><b>Website:</b> <br><b>Wikipedia:</b> <br><b>Telefon:</b> ", "timestamp": null, "begin": null, "end": null, "altitudeMode": null, "tessellate": -1, "extrude": 0, "visibility": -1, "drawOrder": null, "icon": null, "category_group": "Information"}, "geometry": {"type": "Point", "coordinates": [8.1247374, 49.3252548]}}, {"type": "Feature", "properties": {"Name": "radweg deutsche weinstraße", "description": "<b>Kategorie:</b> Information — Besucherinformation<br><b>Distanz:</b> 1929 m<br><b>Website:</b> <br><b>Wikipedia:</b> <br><b>Telefon:</b> ", "timestamp": null, "begin": null, "end": null, "altitudeMode": null, "tessellate": -1, "extrude": 0, "visibility": -1, "drawOrder": null, "icon": null, "category_group": "Information"}, "geometry": {"type": "Point", "coordinates": [8.1297461, 49.3291977]}}, {"type": "Feature", "properties": {"Name": "Altes Schulhaus mit Turnhalle", "description": "<b>Kategorie:</b> Information — Besucherinformation<br><b>Distanz:</b> 1651 m<br><b>Website:</b> <br><b>Wikipedia:</b> <br><b>Telefon:</b> ", "timestamp": null, "begin": null, "end": null, "altitudeMode": null, "tessellate": -1, "extrude": 0, "visibility": -1, "drawOrder": null, "icon": null, "category_group": "Information"}, "geometry": {"type": "Point", "coordinates": [8.1303065, 49.3317923]}}, {"type": "Feature", "properties": {"Name": "Winzergenossenschaft Hambacher Schloß", "description": "<b>Kategorie:</b> Information — Besucherinformation<br><b>Distanz:</b> 1083 m<br><b>Website:</b> <br><b>Wikipedia:</b> <br><b>Telefon:</b> ", "timestamp": null, "begin": null, "end": null, "altitudeMode": null, "tessellate": -1, "extrude": 0, "visibility": -1, "drawOrder": null, "icon": null, "category_group": "Information"}, "geometry": {"type": "Point", "coordinates": [8.1315071, 49.3373045]}}, {"type": "Feature", "properties": {"Name": "Willkommen in Hambach", "description": "<b>Kategorie:</b> Information — Besucherinformation<br><b>Distanz:</b>  661 m<br><b>Website:</b> <br><b>Wikipedia:</b> <br><b>Telefon:</b> ", "timestamp": null, "begin": null, "end": null, "altitudeMode": null, "tessellate": -1, "extrude": 0, "visibility": -1, "drawOrder": null, "icon": null, "category_group": "Information"}, "geometry": {"type": "Point", "coordinates": [8.1340537, 49.3408902]}}, {"type": "Feature", "properties": {"Name": "Knirpsenparadies Neustadt a. d. W.", "description": "<b>Kategorie:</b> Kinder & Jugend — Kindergarten<br><b>Distanz:</b> 1364 m<br><b>Website:</b> <br><b>Wikipedia:</b> <br><b>Telefon:</b> ", "timestamp": null, "begin": null, "end": null, "altitudeMode": null, "tessellate": -1, "extrude": 0, "visibility": -1, "drawOrder": null, "icon": null, "category_group": "Kinder & Jugend"}, "geometry": {"type": "Point", "coordinates": [8.1593414, 49.3450381]}}, {"type": "Feature", "properties": {"Name": "Wasserspielplatz Floßbach", "description": "<b>Kategorie:</b> Kinder & Jugend — Spielplatz<br><b>Distanz:</b> 1372 m<br><b>Website:</b> <br><b>Wikipedia:</b> <br><b>Telefon:</b> ", "timestamp": null, "begin": null, "end": null, "altitudeMode": null, "tessellate": -1, "extrude": 0, "visibility": -1, "drawOrder": null, "icon": null, "category_group": "Kinder & Jugend"}, "geometry": {"type": "Point", "coordinates": [8.1488858, 49.3561222]}}, {"type": "Feature", "properties": {"Name": "Kinderspielplatz Allensteiner Straße", "description": "<b>Kategorie:</b> Kinder & Jugend — Kindergarten<br><b>Distanz:</b> 1487 m<br><b>Website:</b> <br><b>Wikipedia:</b> <br><b>Telefon:</b> ", "timestamp": null, "begin": null, "end": null, "altitudeMode": null, "tessellate": -1, "extrude": 0, "visibility": -1, "drawOrder": null, "icon": null, "category_group": "Kinder & Jugend"}, "geometry": {"type": "Point", "coordinates": [8.1605159, 49.3480211]}}, {"type": "Feature", "properties": {"Name": "St.-Marien-Kindergarten", "description": "<b>Kategorie:</b> Kinder & Jugend — Kindergarten<br><b>Distanz:</b> 1241 m<br><b>Website:</b> <br><b>Wikipedia:</b> <br><b>Telefon:</b> ", "timestamp": null, "begin": null, "end": null, "altitudeMode": null, "tessellate": -1, "extrude": 0, "visibility": -1, "drawOrder": null, "icon": null, "category_group": "Kinder & Jugend"}, "geometry": {"type": "Point", "coordinates": [8.1341015, 49.3553768]}}, {"type": "Feature", "properties": {"Name": "Park der Begegnung", "description": "<b>Kategorie:</b> Kinder & Jugend — Spielplatz<br><b>Distanz:</b> 1431 m<br><b>Website:</b> <br><b>Wikipedia:</b> <br><b>Telefon:</b> ", "timestamp": null, "begin": null, "end": null, "altitudeMode": null, "tessellate": -1, "extrude": 0, "visibility": -1, "drawOrder": null, "icon": null, "category_group": "Kinder & Jugend"}, "geometry": {"type": "Point", "coordinates": [8.1460842, 49.3573957]}}, {"type": "Feature", "properties": {"Name": "Kindergarten Stadtwerke", "description": "<b>Kategorie:</b> Kinder & Jugend — Kindergarten<br><b>Distanz:</b> 1121 m<br><b>Website:</b> <br><b>Wikipedia:</b> <br><b>Telefon:</b> ", "timestamp": null, "begin": null, "end": null, "altitudeMode": null, "tessellate": -1, "extrude": 0, "visibility": -1, "drawOrder": null, "icon": null, "category_group": "Kinder & Jugend"}, "geometry": {"type": "Point", "coordinates": [8.1554735, 49.3476459]}}, {"type": "Feature", "properties": {"Name": "Archimedische Schraube", "description": "<b>Kategorie:</b> Kinder & Jugend — Spielplatz<br><b>Distanz:</b> 1066 m<br><b>Website:</b> <br><b>Wikipedia:</b> <br><b>Telefon:</b> ", "timestamp": null, "begin": null, "end": null, "altitudeMode": null, "tessellate": -1, "extrude": 0, "visibility": -1, "drawOrder": null, "icon": null, "category_group": "Kinder & Jugend"}, "geometry": {"type": "Point", "coordinates": [8.1441755, 49.3543395]}}, {"type": "Feature", "properties": {"Name": "Kita Pulverturmstraße", "description": "<b>Kategorie:</b> Kinder & Jugend — Kinderbetreuung<br><b>Distanz:</b> 1211 m<br><b>Website:</b> <br><b>Wikipedia:</b> <br><b>Telefon:</b> ", "timestamp": null, "begin": null, "end": null, "altitudeMode": null, "tessellate": -1, "extrude": 0, "visibility": -1, "drawOrder": null, "icon": null, "category_group": "Kinder & Jugend"}, "geometry": {"type": "Point", "coordinates": [8.1272842, 49.3516315]}}, {"type": "Feature", "properties": {"Name": "Kinderspielplatz Sulo", "description": "<b>Kategorie:</b> Kinder & Jugend — Spielplatz<br><b>Distanz:</b> 1217 m<br><b>Website:</b> <br><b>Wikipedia:</b> <br><b>Telefon:</b> ", "timestamp": null, "begin": null, "end": null, "altitudeMode": null, "tessellate": -1, "extrude": 0, "visibility": -1, "drawOrder": null, "icon": null, "category_group": "Kinder & Jugend"}, "geometry": {"type": "Point", "coordinates": [8.1570827, 49.3468861]}}, {"type": "Feature", "properties": {"Name": "Prot. Kindertagesstätte Rasselbande", "description": "<b>Kategorie:</b> Kinder & Jugend — Kindergarten<br><b>Distanz:</b> 2103 m<br><b>Website:</b> <br><b>Wikipedia:</b> <br><b>Telefon:</b> ", "timestamp": null, "begin": null, "end": null, "altitudeMode": null, "tessellate": -1, "extrude": 0, "visibility": -1, "drawOrder": null, "icon": null, "category_group": "Kinder & Jugend"}, "geometry": {"type": "Point", "coordinates": [8.1162676, 49.3553341]}}, {"type": "Feature", "properties": {"Name": "Otto-Dill-Museum", "description": "<b>Kategorie:</b> Kultur & Geschichte — Museum<br><b>Distanz:</b> 1094 m<br><b>Website:</b> <br><b>Wikipedia:</b> <br><b>Telefon:</b> ", "timestamp": null, "begin": null, "end": null, "altitudeMode": null, "tessellate": -1, "extrude": 0, "visibility": -1, "drawOrder": null, "icon": null, "category_group": "Kultur & Geschichte"}, "geometry": {"type": "Point", "coordinates": [8.1349042, 49.3541611]}}, {"type": "Feature", "properties": {"Name": "Dr.-Welsch-Terrasse", "description": "<b>Kategorie:</b> Kultur & Geschichte — Attraktion<br><b>Distanz:</b> 1606 m<br><b>Website:</b> <br><b>Wikipedia:</b> <br><b>Telefon:</b> ", "timestamp": null, "begin": null, "end": null, "altitudeMode": null, "tessellate": -1, "extrude": 0, "visibility": -1, "drawOrder": null, "icon": null, "category_group": "Kultur & Geschichte"}, "geometry": {"type": "Point", "coordinates": [8.1364641, 49.3592429]}}, {"type": "Feature", "properties": {"Name": "Holzkelter", "description": "<b>Kategorie:</b> Kultur & Geschichte — Attraktion<br><b>Distanz:</b> 1981 m<br><b>Website:</b> <br><b>Wikipedia:</b> <br><b>Telefon:</b> ", "timestamp": null, "begin": null, "end": null, "altitudeMode": null, "tessellate": -1, "extrude": 0, "visibility": -1, "drawOrder": null, "icon": null, "category_group": "Kultur & Geschichte"}, "geometry": {"type": "Point", "coordinates": [8.1418585, 49.3628426]}}, {"type": "Feature", "properties": {"Name": "Haardter Schloss", "description": "<b>Kategorie:</b> Kultur & Geschichte — Attraktion<br><b>Distanz:</b> 1907 m<br><b>Website:</b> <br><b>Wikipedia:</b> <br><b>Telefon:</b> ", "timestamp": null, "begin": null, "end": null, "altitudeMode": null, "tessellate": -1, "extrude": 0, "visibility": -1, "drawOrder": null, "icon": null, "category_group": "Kultur & Geschichte"}, "geometry": {"type": "Point", "coordinates": [8.1360118, 49.3619408]}}, {"type": "Feature", "properties": {"Name": "Ritterstein 248 \"Speyerheld\"", "description": "<b>Kategorie:</b> Kultur & Geschichte — Attraktion<br><b>Distanz:</b> 2216 m<br><b>Website:</b> <br><b>Wikipedia:</b> de:Liste der Rittersteine<br><b>Telefon:</b> ", "timestamp": null, "begin": null, "end": null, "altitudeMode": null, "tessellate": -1, "extrude": 0, "visibility": -1, "drawOrder": null, "icon": null, "category_group": "Kultur & Geschichte"}, "geometry": {"type": "Point", "coordinates": [8.1118069, 49.3383944]}}, {"type": "Feature", "properties": {"Name": "Pfälzisches Bibelmuseum", "description": "<b>Kategorie:</b> Kultur & Geschichte — Museum<br><b>Distanz:</b>  464 m<br><b>Website:</b> http://bibelverein.de/<br><b>Wikipedia:</b> <br><b>Telefon:</b> ", "timestamp": null, "begin": null, "end": null, "altitudeMode": null, "tessellate": -1, "extrude": 0, "visibility": -1, "drawOrder": null, "icon": null, "category_group": "Kultur & Geschichte"}, "geometry": {"type": "Point", "coordinates": [8.1462593, 49.3469342]}}, {"type": "Feature", "properties": {"Name": "Theater in der Kurve", "description": "<b>Kategorie:</b> Kultur & Geschichte — Theater<br><b>Distanz:</b> 1885 m<br><b>Website:</b> <br><b>Wikipedia:</b> <br><b>Telefon:</b> ", "timestamp": null, "begin": null, "end": null, "altitudeMode": null, "tessellate": -1, "extrude": 0, "visibility": -1, "drawOrder": null, "icon": null, "category_group": "Kultur & Geschichte"}, "geometry": {"type": "Point", "coordinates": [8.1311431, 49.3292434]}}, {"type": "Feature", "properties": {"Name": "Ältestes Fachwerkhaus der Pfalz", "description": "<b>Kategorie:</b> Kultur & Geschichte — Attraktion<br><b>Distanz:</b>  928 m<br><b>Website:</b> <br><b>Wikipedia:</b> <br><b>Telefon:</b> +49 170 1779054", "timestamp": null, "begin": null, "end": null, "altitudeMode": null, "tessellate": -1, "extrude": 0, "visibility": -1, "drawOrder": null, "icon": null, "category_group": "Kultur & Geschichte"}, "geometry": {"type": "Point", "coordinates": [8.1357196, 49.3527729]}}, {"type": "Feature", "properties": {"Name": "Cineplex", "description": "<b>Kategorie:</b> Kultur & Geschichte — Kino<br><b>Distanz:</b> 2213 m<br><b>Website:</b> https://www.cineplex.de/programm/neustadt/<br><b>Wikipedia:</b> <br><b>Telefon:</b> ", "timestamp": null, "begin": null, "end": null, "altitudeMode": null, "tessellate": -1, "extrude": 0, "visibility": -1, "drawOrder": null, "icon": null, "category_group": "Kultur & Geschichte"}, "geometry": {"type": "Point", "coordinates": [8.1700468, 49.3400517]}}, {"type": "Feature", "properties": {"Name": "Clemm’scher Bergpark", "description": "<b>Kategorie:</b> Kultur & Geschichte — Attraktion<br><b>Distanz:</b> 2073 m<br><b>Website:</b> <br><b>Wikipedia:</b> <br><b>Telefon:</b> ", "timestamp": null, "begin": null, "end": null, "altitudeMode": null, "tessellate": -1, "extrude": 0, "visibility": -1, "drawOrder": null, "icon": null, "category_group": "Kultur & Geschichte"}, "geometry": {"type": "Point", "coordinates": [8.1344858, 49.3632604]}}, {"type": "Feature", "properties": {"Name": "Wolf'sche Anlagen", "description": "<b>Kategorie:</b> Kultur & Geschichte — Attraktion<br><b>Distanz:</b> 2211 m<br><b>Website:</b> <br><b>Wikipedia:</b> <br><b>Telefon:</b> ", "timestamp": null, "begin": null, "end": null, "altitudeMode": null, "tessellate": -1, "extrude": 0, "visibility": -1, "drawOrder": null, "icon": null, "category_group": "Kultur & Geschichte"}, "geometry": {"type": "Point", "coordinates": [8.1351332, 49.3646076]}}, {"type": "Feature", "properties": {"Name": "Stadtmuseum", "description": "<b>Kategorie:</b> Kultur & Geschichte — Museum<br><b>Distanz:</b> 1291 m<br><b>Website:</b> <br><b>Wikipedia:</b> <br><b>Telefon:</b> ", "timestamp": null, "begin": null, "end": null, "altitudeMode": null, "tessellate": -1, "extrude": 0, "visibility": -1, "drawOrder": null, "icon": null, "category_group": "Kultur & Geschichte"}, "geometry": {"type": "Point", "coordinates": [8.1420419, 49.3566169]}}, {"type": "Feature", "properties": {"Name": "Kleiner Nollen (ehem. Kiosk)", "description": "<b>Kategorie:</b> Kultur & Geschichte — Attraktion<br><b>Distanz:</b> 1398 m<br><b>Website:</b> <br><b>Wikipedia:</b> <br><b>Telefon:</b> ", "timestamp": null, "begin": null, "end": null, "altitudeMode": null, "tessellate": -1, "extrude": 0, "visibility": -1, "drawOrder": null, "icon": null, "category_group": "Kultur & Geschichte"}, "geometry": {"type": "Point", "coordinates": [8.121357, 49.3441796]}}, {"type": "Feature", "properties": {"Name": "Hohe Felsen, zerbrochener Mühlstein", "description": "<b>Kategorie:</b> Kultur & Geschichte — Attraktion<br><b>Distanz:</b> 1657 m<br><b>Website:</b> <br><b>Wikipedia:</b> <br><b>Telefon:</b> ", "timestamp": null, "begin": null, "end": null, "altitudeMode": null, "tessellate": -1, "extrude": 0, "visibility": -1, "drawOrder": null, "icon": null, "category_group": "Kultur & Geschichte"}, "geometry": {"type": "Point", "coordinates": [8.1177794, 49.3442866]}}, {"type": "Feature", "properties": {"Name": "Ruine Vordere Königsmühle", "description": "<b>Kategorie:</b> Kultur & Geschichte — Attraktion<br><b>Distanz:</b> 2418 m<br><b>Website:</b> <br><b>Wikipedia:</b> <br><b>Telefon:</b> ", "timestamp": null, "begin": null, "end": null, "altitudeMode": null, "tessellate": -1, "extrude": 0, "visibility": -1, "drawOrder": null, "icon": null, "category_group": "Kultur & Geschichte"}, "geometry": {"type": "Point", "coordinates": [8.1080942, 49.3498388]}}, {"type": "Feature", "properties": {"Name": "Showroom LGS 2027", "description": "<b>Kategorie:</b> Kultur & Geschichte — Galerie<br><b>Distanz:</b>  946 m<br><b>Website:</b> <br><b>Wikipedia:</b> <br><b>Telefon:</b> ", "timestamp": null, "begin": null, "end": null, "altitudeMode": null, "tessellate": -1, "extrude": 0, "visibility": -1, "drawOrder": null, "icon": null, "category_group": "Kultur & Geschichte"}, "geometry": {"type": "Point", "coordinates": [8.1378859, 49.3533681]}}, {"type": "Feature", "properties": {"Name": "Bergstein", "description": "<b>Kategorie:</b> Natur & Landschaft — Aussichtspunkt<br><b>Distanz:</b> 2275 m<br><b>Website:</b> <br><b>Wikipedia:</b> <br><b>Telefon:</b> ", "timestamp": null, "begin": null, "end": null, "altitudeMode": null, "tessellate": -1, "extrude": 0, "visibility": -1, "drawOrder": null, "icon": null, "category_group": "Natur & Landschaft"}, "geometry": {"type": "Point", "coordinates": [8.1143043, 49.3338886]}}, {"type": "Feature", "properties": {"Name": "Nollenkopf", "description": "<b>Kategorie:</b> Natur & Landschaft — Natur-Feature (alle)<br><b>Distanz:</b> 1939 m<br><b>Website:</b> <br><b>Wikipedia:</b> de:Nollenkopf (Haardt)<br><b>Telefon:</b> ", "timestamp": null, "begin": null, "end": null, "altitudeMode": null, "tessellate": -1, "extrude": 0, "visibility": -1, "drawOrder": null, "icon": null, "category_group": "Natur & Landschaft"}, "geometry": {"type": "Point", "coordinates": [8.1138806, 49.3444318]}}, {"type": "Feature", "properties": {"Name": "Blick zur Wolfsburg", "description": "<b>Kategorie:</b> Natur & Landschaft — Aussichtspunkt<br><b>Distanz:</b> 2070 m<br><b>Website:</b> <br><b>Wikipedia:</b> <br><b>Telefon:</b> ", "timestamp": null, "begin": null, "end": null, "altitudeMode": null, "tessellate": -1, "extrude": 0, "visibility": -1, "drawOrder": null, "icon": null, "category_group": "Natur & Landschaft"}, "geometry": {"type": "Point", "coordinates": [8.1128635, 49.3494096]}}, {"type": "Feature", "properties": {"Name": "Sühnekreuz", "description": "<b>Kategorie:</b> Natur & Landschaft — Aussichtspunkt<br><b>Distanz:</b> 2817 m<br><b>Website:</b> <br><b>Wikipedia:</b> <br><b>Telefon:</b> ", "timestamp": null, "begin": null, "end": null, "altitudeMode": null, "tessellate": -1, "extrude": 0, "visibility": -1, "drawOrder": null, "icon": null, "category_group": "Natur & Landschaft"}, "geometry": {"type": "Point", "coordinates": [8.1123117, 49.3276827]}}, {"type": "Feature", "properties": {"Name": "Wolfsbrunnen", "description": "<b>Kategorie:</b> Natur & Landschaft — Natur-Feature (alle)<br><b>Distanz:</b> 2780 m<br><b>Website:</b> <br><b>Wikipedia:</b> <br><b>Telefon:</b> ", "timestamp": null, "begin": null, "end": null, "altitudeMode": null, "tessellate": -1, "extrude": 0, "visibility": -1, "drawOrder": null, "icon": null, "category_group": "Natur & Landschaft"}, "geometry": {"type": "Point", "coordinates": [8.1101239, 49.3602102]}}, {"type": "Feature", "properties": {"Name": "Michels-Quelle", "description": "<b>Kategorie:</b> Natur & Landschaft — Natur-Feature (alle)<br><b>Distanz:</b> 2588 m<br><b>Website:</b> <br><b>Wikipedia:</b> <br><b>Telefon:</b> ", "timestamp": null, "begin": null, "end": null, "altitudeMode": null, "tessellate": -1, "extrude": 0, "visibility": -1, "drawOrder": null, "icon": null, "category_group": "Natur & Landschaft"}, "geometry": {"type": "Point", "coordinates": [8.1117117, 49.3313858]}}, {"type": "Feature", "properties": {"Name": "Schlossberg", "description": "<b>Kategorie:</b> Natur & Landschaft — Natur-Feature (alle)<br><b>Distanz:</b> 2745 m<br><b>Website:</b> <br><b>Wikipedia:</b> de:Schlossberg (Hambach)<br><b>Telefon:</b> ", "timestamp": null, "begin": null, "end": null, "altitudeMode": null, "tessellate": -1, "extrude": 0, "visibility": -1, "drawOrder": null, "icon": null, "category_group": "Natur & Landschaft"}, "geometry": {"type": "Point", "coordinates": [8.1188025, 49.3248559]}}, {"type": "Feature", "properties": {"Name": "Conrad-Freytag-Blick", "description": "<b>Kategorie:</b> Natur & Landschaft — Aussichtspunkt<br><b>Distanz:</b>  948 m<br><b>Website:</b> <br><b>Wikipedia:</b> <br><b>Telefon:</b> ", "timestamp": null, "begin": null, "end": null, "altitudeMode": null, "tessellate": -1, "extrude": 0, "visibility": -1, "drawOrder": null, "icon": null, "category_group": "Natur & Landschaft"}, "geometry": {"type": "Point", "coordinates": [8.1279529, 49.3472551]}}, {"type": "Feature", "properties": {"Name": "Bergstein", "description": "<b>Kategorie:</b> Natur & Landschaft — Natur-Feature (alle)<br><b>Distanz:</b> 1940 m<br><b>Website:</b> <br><b>Wikipedia:</b> <br><b>Telefon:</b> ", "timestamp": null, "begin": null, "end": null, "altitudeMode": null, "tessellate": -1, "extrude": 0, "visibility": -1, "drawOrder": null, "icon": null, "category_group": "Natur & Landschaft"}, "geometry": {"type": "Point", "coordinates": [8.1236769, 49.3585702]}}, {"type": "Feature", "properties": {"Name": "Heidelberg", "description": "<b>Kategorie:</b> Natur & Landschaft — Natur-Feature (alle)<br><b>Distanz:</b> 1795 m<br><b>Website:</b> <br><b>Wikipedia:</b> <br><b>Telefon:</b> ", "timestamp": null, "begin": null, "end": null, "altitudeMode": null, "tessellate": -1, "extrude": 0, "visibility": -1, "drawOrder": null, "icon": null, "category_group": "Natur & Landschaft"}, "geometry": {"type": "Point", "coordinates": [8.123754, 49.3332034]}}, {"type": "Feature", "properties": {"Name": "Häuselberg", "description": "<b>Kategorie:</b> Natur & Landschaft — Natur-Feature (alle)<br><b>Distanz:</b> 1279 m<br><b>Website:</b> <br><b>Wikipedia:</b> <br><b>Telefon:</b> ", "timestamp": null, "begin": null, "end": null, "altitudeMode": null, "tessellate": -1, "extrude": 0, "visibility": -1, "drawOrder": null, "icon": null, "category_group": "Natur & Landschaft"}, "geometry": {"type": "Point", "coordinates": [8.1246634, 49.3400958]}}, {"type": "Feature", "properties": {"Name": "Rittersberg", "description": "<b>Kategorie:</b> Natur & Landschaft — Natur-Feature (alle)<br><b>Distanz:</b> 2945 m<br><b>Website:</b> <br><b>Wikipedia:</b> <br><b>Telefon:</b> ", "timestamp": null, "begin": null, "end": null, "altitudeMode": null, "tessellate": -1, "extrude": 0, "visibility": -1, "drawOrder": null, "icon": null, "category_group": "Natur & Landschaft"}, "geometry": {"type": "Point", "coordinates": [8.1082643, 49.3290356]}}, {"type": "Feature", "properties": {"Name": "Bergstein bei Hambach", "description": "<b>Kategorie:</b> Natur & Landschaft — Natur-Feature (alle)<br><b>Distanz:</b> 2277 m<br><b>Website:</b> <br><b>Wikipedia:</b> <br><b>Telefon:</b> ", "timestamp": null, "begin": null, "end": null, "altitudeMode": null, "tessellate": -1, "extrude": 0, "visibility": -1, "drawOrder": null, "icon": null, "category_group": "Natur & Landschaft"}, "geometry": {"type": "Point", "coordinates": [8.1142752, 49.3338887]}}, {"type": "Feature", "properties": {"Name": "Köpfel", "description": "<b>Kategorie:</b> Natur & Landschaft — Natur-Feature (alle)<br><b>Distanz:</b> 1142 m<br><b>Website:</b> <br><b>Wikipedia:</b> <br><b>Telefon:</b> ", "timestamp": null, "begin": null, "end": null, "altitudeMode": null, "tessellate": -1, "extrude": 0, "visibility": -1, "drawOrder": null, "icon": null, "category_group": "Natur & Landschaft"}, "geometry": {"type": "Point", "coordinates": [8.1248561, 49.3444843]}}, {"type": "Feature", "properties": {"Name": "Blick über Neustadt", "description": "<b>Kategorie:</b> Natur & Landschaft — Aussichtspunkt<br><b>Distanz:</b> 1987 m<br><b>Website:</b> <br><b>Wikipedia:</b> <br><b>Telefon:</b> ", "timestamp": null, "begin": null, "end": null, "altitudeMode": null, "tessellate": -1, "extrude": 0, "visibility": -1, "drawOrder": null, "icon": null, "category_group": "Natur & Landschaft"}, "geometry": {"type": "Point", "coordinates": [8.1143793, 49.3502113]}}, {"type": "Feature", "properties": {"Name": "Linde", "description": "<b>Kategorie:</b> Natur & Landschaft — Natur-Feature (alle)<br><b>Distanz:</b> 2683 m<br><b>Website:</b> <br><b>Wikipedia:</b> <br><b>Telefon:</b> ", "timestamp": null, "begin": null, "end": null, "altitudeMode": null, "tessellate": -1, "extrude": 0, "visibility": -1, "drawOrder": null, "icon": null, "category_group": "Natur & Landschaft"}, "geometry": {"type": "Point", "coordinates": [8.1185759, 49.3256587]}}, {"type": "Feature", "properties": {"Name": "Franzosenfels", "description": "<b>Kategorie:</b> Natur & Landschaft — Aussichtspunkt<br><b>Distanz:</b> 1949 m<br><b>Website:</b> <br><b>Wikipedia:</b> <br><b>Telefon:</b> ", "timestamp": null, "begin": null, "end": null, "altitudeMode": null, "tessellate": -1, "extrude": 0, "visibility": -1, "drawOrder": null, "icon": null, "category_group": "Natur & Landschaft"}, "geometry": {"type": "Point", "coordinates": [8.113776, 49.3440579]}}, {"type": "Feature", "properties": {"Name": "Königsquelle", "description": "<b>Kategorie:</b> Natur & Landschaft — Natur-Feature (alle)<br><b>Distanz:</b> 2412 m<br><b>Website:</b> <br><b>Wikipedia:</b> <br><b>Telefon:</b> ", "timestamp": null, "begin": null, "end": null, "altitudeMode": null, "tessellate": -1, "extrude": 0, "visibility": -1, "drawOrder": null, "icon": null, "category_group": "Natur & Landschaft"}, "geometry": {"type": "Point", "coordinates": [8.1105141, 49.354276]}}, {"type": "Feature", "properties": {"Name": "Suppenschüssel", "description": "<b>Kategorie:</b> Natur & Landschaft — Natur-Feature (alle)<br><b>Distanz:</b> 3216 m<br><b>Website:</b> <br><b>Wikipedia:</b> <br><b>Telefon:</b> ", "timestamp": null, "begin": null, "end": null, "altitudeMode": null, "tessellate": -1, "extrude": 0, "visibility": -1, "drawOrder": null, "icon": null, "category_group": "Natur & Landschaft"}, "geometry": {"type": "Point", "coordinates": [8.1104792, 49.3238186]}}]}