{"type": "FeatureCollection", "features": [{"type": "Feature", "properties": {"Name": "JH 554 — Jugendherberge Westensee", "description": "<b>JH Nr:</b> 554<br><b>Name:</b> Jugendherberge Westensee<br><b>Ort:</b> Westensee<br><b>Adresse:</b> Am See 24 24259 Westensee<br><b>Telefon:</b> +49 4305 542<br><b>Bundesland:</b> Schleswig-Holstein", "timestamp": null, "begin": null, "end": null, "altitudeMode": null, "tessellate": -1, "extrude": 0, "visibility": -1, "drawOrder": null, "icon": null, "category_group": "JH"}, "geometry": {"type": "Point", "coordinates": [9.9083144, 54.2746896]}}, {"type": "Feature", "properties": {"Name": "Kita Catherinen", "description": "<b>Kategorie:</b> Kinder & Jugend — Kindergarten<br><b>Distanz:</b>  462 m<br><b>Website:</b> http://www.kita-kiel.de/unsere-kitas/westensee-kita-catharinen<br><b>Wikipedia:</b> ", "timestamp": null, "begin": null, "end": null, "altitudeMode": null, "tessellate": -1, "extrude": 0, "visibility": -1, "drawOrder": null, "icon": null, "category_group": "Kinder & Jugend"}, "geometry": {"type": "Point", "coordinates": [9.9017554, 54.2762633]}}, {"type": "Feature", "properties": {"Name": "Tüteberg", "description": "<b>Kategorie:</b> Natur & Landschaft — Aussichtspunkt<br><b>Distanz:</b>  936 m<br><b>Website:</b> <br><b>Wikipedia:</b> ", "timestamp": null, "begin": null, "end": null, "altitudeMode": null, "tessellate": -1, "extrude": 0, "visibility": -1, "drawOrder": null, "icon": null, "category_group": "Natur & Landschaft"}, "geometry": {"type": "Point", "coordinates": [9.9047919, 54.2665345]}}, {"type": "Feature", "properties": {"Name": "Blotenberg", "description": "<b>Kategorie:</b> Natur & Landschaft — Natur-Feature (alle)<br><b>Distanz:</b> 1942 m<br><b>Website:</b> <br><b>Wikipedia:</b> ", "timestamp": null, "begin": null, "end": null, "altitudeMode": null, "tessellate": -1, "extrude": 0, "visibility": -1, "drawOrder": null, "icon": null, "category_group": "Natur & Landschaft"}, "geometry": {"type": "Point", "coordinates": [9.9372573, 54.2704845]}}, {"type": "Feature", "properties": {"Name": "Tüteberg", "description": "<b>Kategorie:</b> Natur & Landschaft — Natur-Feature (alle)<br><b>Distanz:</b>  934 m<br><b>Website:</b> <br><b>Wikipedia:</b> ", "timestamp": null, "begin": null, "end": null, "altitudeMode": null, "tessellate": -1, "extrude": 0, "visibility": -1, "drawOrder": null, "icon": null, "category_group": "Natur & Landschaft"}, "geometry": {"type": "Point", "coordinates": [9.9049028, 54.2665407]}}, {"type": "Feature", "properties": {"Name": "Krähenberg", "description": "<b>Kategorie:</b> Natur & Landschaft — Natur-Feature (alle)<br><b>Distanz:</b> 1585 m<br><b>Website:</b> <br><b>Wikipedia:</b> ", "timestamp": null, "begin": null, "end": null, "altitudeMode": null, "tessellate": -1, "extrude": 0, "visibility": -1, "drawOrder": null, "icon": null, "category_group": "Natur & Landschaft"}, "geometry": {"type": "Point", "coordinates": [9.8959243, 54.2624294]}}]}