{"type": "FeatureCollection", "features": [{"type": "Feature", "properties": {"Name": "JH 63 — Jugendherberge Johanngeorgenstadt", "description": "<b>JH Nr:</b> 63<br><b>Name:</b> Jugendherberge Johanngeorgenstadt<br><b>Ort:</b> Johanngeorgenstadt<br><b>Adresse:</b> Hospitalstr. 5 08349 Johanngeorgenstadt<br><b>Telefon:</b> +49 3773 882194<br>", "timestamp": null, "begin": null, "end": null, "altitudeMode": null, "tessellate": -1, "extrude": 0, "visibility": -1, "drawOrder": null, "icon": null, "category_group": "JH"}, "geometry": {"type": "Point", "coordinates": [12.7273908, 50.4228998]}}, {"type": "Feature", "properties": {"Name": "Kirchgemeindehaus", "description": "<b>Kategorie:</b> Bildungsinfrastruktur — Gemeindezentrum<br><b>Distanz:</b>  567 m<br><b>Website:</b> <br><b>Wikipedia:</b> <br><b>Telefon:</b> ", "timestamp": null, "begin": null, "end": null, "altitudeMode": null, "tessellate": -1, "extrude": 0, "visibility": -1, "drawOrder": null, "icon": null, "category_group": "Bildungsinfrastruktur"}, "geometry": {"type": "Point", "coordinates": [12.7284861, 50.4279425]}}, {"type": "Feature", "properties": {"Name": "Bibliothek Johanngeorgenstadt", "description": "<b>Kategorie:</b> Bildungsinfrastruktur — Bibliothek<br><b>Distanz:</b> 1630 m<br><b>Website:</b> <br><b>Wikipedia:</b> <br><b>Telefon:</b> ", "timestamp": null, "begin": null, "end": null, "altitudeMode": null, "tessellate": -1, "extrude": 0, "visibility": -1, "drawOrder": null, "icon": null, "category_group": "Bildungsinfrastruktur"}, "geometry": {"type": "Point", "coordinates": [12.7103327, 50.4326891]}}, {"type": "Feature", "properties": {"Name": "Horská NS Potůčky č. 2: Sluneční stráň", "description": "<b>Kategorie:</b> Information — Besucherinformation<br><b>Distanz:</b> 1442 m<br><b>Website:</b> <br><b>Wikipedia:</b> <br><b>Telefon:</b> ", "timestamp": null, "begin": null, "end": null, "altitudeMode": null, "tessellate": -1, "extrude": 0, "visibility": -1, "drawOrder": null, "icon": null, "category_group": "Information"}, "geometry": {"type": "Point", "coordinates": [12.7410752, 50.4324681]}}, {"type": "Feature", "properties": {"Name": "Horská NS Potůčky č. 3: Rudná", "description": "<b>Kategorie:</b> Information — Besucherinformation<br><b>Distanz:</b> 2231 m<br><b>Website:</b> <br><b>Wikipedia:</b> <br><b>Telefon:</b> ", "timestamp": null, "begin": null, "end": null, "altitudeMode": null, "tessellate": -1, "extrude": 0, "visibility": -1, "drawOrder": null, "icon": null, "category_group": "Information"}, "geometry": {"type": "Point", "coordinates": [12.7524437, 50.4349782]}}, {"type": "Feature", "properties": {"Name": "Horská NS Potůčky č. 4: Rudenská hrana", "description": "<b>Kategorie:</b> Information — Besucherinformation<br><b>Distanz:</b> 2140 m<br><b>Website:</b> <br><b>Wikipedia:</b> <br><b>Telefon:</b> ", "timestamp": null, "begin": null, "end": null, "altitudeMode": null, "tessellate": -1, "extrude": 0, "visibility": -1, "drawOrder": null, "icon": null, "category_group": "Information"}, "geometry": {"type": "Point", "coordinates": [12.7529922, 50.4330214]}}, {"type": "Feature", "properties": {"Name": "Pachthaus", "description": "<b>Kategorie:</b> Information — Besucherinformation<br><b>Distanz:</b> 1496 m<br><b>Website:</b> <br><b>Wikipedia:</b> <br><b>Telefon:</b> ", "timestamp": null, "begin": null, "end": null, "altitudeMode": null, "tessellate": -1, "extrude": 0, "visibility": -1, "drawOrder": null, "icon": null, "category_group": "Information"}, "geometry": {"type": "Point", "coordinates": [12.738538, 50.434306]}}, {"type": "Feature", "properties": {"Name": "Anton-Günther-Weg", "description": "<b>Kategorie:</b> Information — Besucherinformation<br><b>Distanz:</b>  759 m<br><b>Website:</b> <br><b>Wikipedia:</b> <br><b>Telefon:</b> ", "timestamp": null, "begin": null, "end": null, "altitudeMode": null, "tessellate": -1, "extrude": 0, "visibility": -1, "drawOrder": null, "icon": null, "category_group": "Information"}, "geometry": {"type": "Point", "coordinates": [12.7323153, 50.4289484]}}, {"type": "Feature", "properties": {"Name": "Neu Freiberger Glück Stollen", "description": "<b>Kategorie:</b> Information — Besucherinformation<br><b>Distanz:</b>  670 m<br><b>Website:</b> <br><b>Wikipedia:</b> <br><b>Telefon:</b> ", "timestamp": null, "begin": null, "end": null, "altitudeMode": null, "tessellate": -1, "extrude": 0, "visibility": -1, "drawOrder": null, "icon": null, "category_group": "Information"}, "geometry": {"type": "Point", "coordinates": [12.7189095, 50.4255169]}}, {"type": "Feature", "properties": {"Name": "Gegenglück Stollen", "description": "<b>Kategorie:</b> Information — Besucherinformation<br><b>Distanz:</b> 1024 m<br><b>Website:</b> <br><b>Wikipedia:</b> <br><b>Telefon:</b> ", "timestamp": null, "begin": null, "end": null, "altitudeMode": null, "tessellate": -1, "extrude": 0, "visibility": -1, "drawOrder": null, "icon": null, "category_group": "Information"}, "geometry": {"type": "Point", "coordinates": [12.7140944, 50.4264471]}}, {"type": "Feature", "properties": {"Name": "Potůčky (st. hranice)", "description": "<b>Kategorie:</b> Information — Besucherinformation<br><b>Distanz:</b>  731 m<br><b>Website:</b> <br><b>Wikipedia:</b> <br><b>Telefon:</b> ", "timestamp": null, "begin": null, "end": null, "altitudeMode": null, "tessellate": -1, "extrude": 0, "visibility": -1, "drawOrder": null, "icon": null, "category_group": "Information"}, "geometry": {"type": "Point", "coordinates": [12.7333978, 50.4282298]}}, {"type": "Feature", "properties": {"Name": "Preißhausstraße/Alte Poststraße", "description": "<b>Kategorie:</b> Information — Besucherinformation<br><b>Distanz:</b> 2837 m<br><b>Website:</b> <br><b>Wikipedia:</b> <br><b>Telefon:</b> ", "timestamp": null, "begin": null, "end": null, "altitudeMode": null, "tessellate": -1, "extrude": 0, "visibility": -1, "drawOrder": null, "icon": null, "category_group": "Information"}, "geometry": {"type": "Point", "coordinates": [12.7542151, 50.4417738]}}, {"type": "Feature", "properties": {"Name": "Lehmergrundweg/Rodelbahn", "description": "<b>Kategorie:</b> Information — Besucherinformation<br><b>Distanz:</b> 1252 m<br><b>Website:</b> <br><b>Wikipedia:</b> <br><b>Telefon:</b> ", "timestamp": null, "begin": null, "end": null, "altitudeMode": null, "tessellate": -1, "extrude": 0, "visibility": -1, "drawOrder": null, "icon": null, "category_group": "Information"}, "geometry": {"type": "Point", "coordinates": [12.7100554, 50.4248621]}}, {"type": "Feature", "properties": {"Name": "Ferienzimmervermietung \"Zur alten Poststraße\"", "description": "<b>Kategorie:</b> Information — Besucherinformation<br><b>Distanz:</b> 1478 m<br><b>Website:</b> <br><b>Wikipedia:</b> <br><b>Telefon:</b> ", "timestamp": null, "begin": null, "end": null, "altitudeMode": null, "tessellate": -1, "extrude": 0, "visibility": -1, "drawOrder": null, "icon": null, "category_group": "Information"}, "geometry": {"type": "Point", "coordinates": [12.7383579, 50.4341842]}}, {"type": "Feature", "properties": {"Name": "Trailcenter Rabenberg", "description": "<b>Kategorie:</b> Information — Besucherinformation<br><b>Distanz:</b> 1596 m<br><b>Website:</b> <br><b>Wikipedia:</b> <br><b>Telefon:</b> ", "timestamp": null, "begin": null, "end": null, "altitudeMode": null, "tessellate": -1, "extrude": 0, "visibility": -1, "drawOrder": null, "icon": null, "category_group": "Information"}, "geometry": {"type": "Point", "coordinates": [12.737702, 50.4356414]}}, {"type": "Feature", "properties": {"Name": "Herrenhaus Wittigsthal", "description": "<b>Kategorie:</b> Information — Besucherinformation<br><b>Distanz:</b>  837 m<br><b>Website:</b> <br><b>Wikipedia:</b> <br><b>Telefon:</b> ", "timestamp": null, "begin": null, "end": null, "altitudeMode": null, "tessellate": -1, "extrude": 0, "visibility": -1, "drawOrder": null, "icon": null, "category_group": "Information"}, "geometry": {"type": "Point", "coordinates": [12.7324024, 50.4297061]}}, {"type": "Feature", "properties": {"Name": "Die Hohneujahrer Pochwäsche", "description": "<b>Kategorie:</b> Information — Besucherinformation<br><b>Distanz:</b> 1039 m<br><b>Website:</b> <br><b>Wikipedia:</b> <br><b>Telefon:</b> ", "timestamp": null, "begin": null, "end": null, "altitudeMode": null, "tessellate": -1, "extrude": 0, "visibility": -1, "drawOrder": null, "icon": null, "category_group": "Information"}, "geometry": {"type": "Point", "coordinates": [12.7138516, 50.4264225]}}, {"type": "Feature", "properties": {"Name": "Rudná", "description": "<b>Kategorie:</b> Information — Besucherinformation<br><b>Distanz:</b> 2237 m<br><b>Website:</b> <br><b>Wikipedia:</b> <br><b>Telefon:</b> ", "timestamp": null, "begin": null, "end": null, "altitudeMode": null, "tessellate": -1, "extrude": 0, "visibility": -1, "drawOrder": null, "icon": null, "category_group": "Information"}, "geometry": {"type": "Point", "coordinates": [12.7525902, 50.4349315]}}, {"type": "Feature", "properties": {"Name": "Potůčky (vlak)", "description": "<b>Kategorie:</b> Information — Besucherinformation<br><b>Distanz:</b> 1137 m<br><b>Website:</b> <br><b>Wikipedia:</b> <br><b>Telefon:</b> ", "timestamp": null, "begin": null, "end": null, "altitudeMode": null, "tessellate": -1, "extrude": 0, "visibility": -1, "drawOrder": null, "icon": null, "category_group": "Information"}, "geometry": {"type": "Point", "coordinates": [12.7385881, 50.4301947]}}, {"type": "Feature", "properties": {"Name": "Potůčky", "description": "<b>Kategorie:</b> Information — Besucherinformation<br><b>Distanz:</b>  671 m<br><b>Website:</b> <br><b>Wikipedia:</b> <br><b>Telefon:</b> ", "timestamp": null, "begin": null, "end": null, "altitudeMode": null, "tessellate": -1, "extrude": 0, "visibility": -1, "drawOrder": null, "icon": null, "category_group": "Information"}, "geometry": {"type": "Point", "coordinates": [12.7336236, 50.4274253]}}, {"type": "Feature", "properties": {"Name": "1789 - ein neues Element - URAN", "description": "<b>Kategorie:</b> Information — Besucherinformation<br><b>Distanz:</b> 1065 m<br><b>Website:</b> <br><b>Wikipedia:</b> <br><b>Telefon:</b> ", "timestamp": null, "begin": null, "end": null, "altitudeMode": null, "tessellate": -1, "extrude": 0, "visibility": -1, "drawOrder": null, "icon": null, "category_group": "Information"}, "geometry": {"type": "Point", "coordinates": [12.7297808, 50.4323493]}}, {"type": "Feature", "properties": {"Name": "Zinnschmelzhütte", "description": "<b>Kategorie:</b> Information — Besucherinformation<br><b>Distanz:</b>  236 m<br><b>Website:</b> <br><b>Wikipedia:</b> <br><b>Telefon:</b> ", "timestamp": null, "begin": null, "end": null, "altitudeMode": null, "tessellate": -1, "extrude": 0, "visibility": -1, "drawOrder": null, "icon": null, "category_group": "Information"}, "geometry": {"type": "Point", "coordinates": [12.7265567, 50.420846]}}, {"type": "Feature", "properties": {"Name": "Farbmühle", "description": "<b>Kategorie:</b> Information — Besucherinformation<br><b>Distanz:</b>  277 m<br><b>Website:</b> <br><b>Wikipedia:</b> <br><b>Telefon:</b> ", "timestamp": null, "begin": null, "end": null, "altitudeMode": null, "tessellate": -1, "extrude": 0, "visibility": -1, "drawOrder": null, "icon": null, "category_group": "Information"}, "geometry": {"type": "Point", "coordinates": [12.7246202, 50.4211468]}}, {"type": "Feature", "properties": {"Name": "Neue Brüderschaft Fundgrube", "description": "<b>Kategorie:</b> Information — Besucherinformation<br><b>Distanz:</b>  326 m<br><b>Website:</b> <br><b>Wikipedia:</b> <br><b>Telefon:</b> ", "timestamp": null, "begin": null, "end": null, "altitudeMode": null, "tessellate": -1, "extrude": 0, "visibility": -1, "drawOrder": null, "icon": null, "category_group": "Information"}, "geometry": {"type": "Point", "coordinates": [12.7230216, 50.4220226]}}, {"type": "Feature", "properties": {"Name": "Weiße Taube Stollen", "description": "<b>Kategorie:</b> Information — Besucherinformation<br><b>Distanz:</b>  505 m<br><b>Website:</b> <br><b>Wikipedia:</b> <br><b>Telefon:</b> ", "timestamp": null, "begin": null, "end": null, "altitudeMode": null, "tessellate": -1, "extrude": 0, "visibility": -1, "drawOrder": null, "icon": null, "category_group": "Information"}, "geometry": {"type": "Point", "coordinates": [12.7204574, 50.4238759]}}, {"type": "Feature", "properties": {"Name": "SAG/SDAG Wismut Schacht 51", "description": "<b>Kategorie:</b> Information — Besucherinformation<br><b>Distanz:</b>  511 m<br><b>Website:</b> <br><b>Wikipedia:</b> <br><b>Telefon:</b> ", "timestamp": null, "begin": null, "end": null, "altitudeMode": null, "tessellate": -1, "extrude": 0, "visibility": -1, "drawOrder": null, "icon": null, "category_group": "Information"}, "geometry": {"type": "Point", "coordinates": [12.7203763, 50.4239189]}}, {"type": "Feature", "properties": {"Name": "U Přejezdu", "description": "<b>Kategorie:</b> Information — Besucherinformation<br><b>Distanz:</b> 1312 m<br><b>Website:</b> <br><b>Wikipedia:</b> <br><b>Telefon:</b> ", "timestamp": null, "begin": null, "end": null, "altitudeMode": null, "tessellate": -1, "extrude": 0, "visibility": -1, "drawOrder": null, "icon": null, "category_group": "Information"}, "geometry": {"type": "Point", "coordinates": [12.7445892, 50.4271621]}}, {"type": "Feature", "properties": {"Name": "Neusilber", "description": "<b>Kategorie:</b> Information — Besucherinformation<br><b>Distanz:</b> 1234 m<br><b>Website:</b> <br><b>Wikipedia:</b> <br><b>Telefon:</b> ", "timestamp": null, "begin": null, "end": null, "altitudeMode": null, "tessellate": -1, "extrude": 0, "visibility": -1, "drawOrder": null, "icon": null, "category_group": "Information"}, "geometry": {"type": "Point", "coordinates": [12.7109107, 50.4263886]}}, {"type": "Feature", "properties": {"Name": "Druckluftleitung", "description": "<b>Kategorie:</b> Information — Besucherinformation<br><b>Distanz:</b> 1396 m<br><b>Website:</b> <br><b>Wikipedia:</b> <br><b>Telefon:</b> ", "timestamp": null, "begin": null, "end": null, "altitudeMode": null, "tessellate": -1, "extrude": 0, "visibility": -1, "drawOrder": null, "icon": null, "category_group": "Information"}, "geometry": {"type": "Point", "coordinates": [12.7108805, 50.4296877]}}, {"type": "Feature", "properties": {"Name": "NS Horská Potůčky: Hraniční kameny", "description": "<b>Kategorie:</b> Information — Besucherinformation<br><b>Distanz:</b> 2405 m<br><b>Website:</b> <br><b>Wikipedia:</b> <br><b>Telefon:</b> ", "timestamp": null, "begin": null, "end": null, "altitudeMode": null, "tessellate": -1, "extrude": 0, "visibility": -1, "drawOrder": null, "icon": null, "category_group": "Information"}, "geometry": {"type": "Point", "coordinates": [12.7525319, 50.4373621]}}, {"type": "Feature", "properties": {"Name": "Horská NS Potůčky č. 14: Stráň horské louky", "description": "<b>Kategorie:</b> Information — Besucherinformation<br><b>Distanz:</b>  689 m<br><b>Website:</b> <br><b>Wikipedia:</b> <br><b>Telefon:</b> ", "timestamp": null, "begin": null, "end": null, "altitudeMode": null, "tessellate": -1, "extrude": 0, "visibility": -1, "drawOrder": null, "icon": null, "category_group": "Information"}, "geometry": {"type": "Point", "coordinates": [12.7367096, 50.421203]}}, {"type": "Feature", "properties": {"Name": "Horská NS Potůčky č. 1: Potůčky - železniční stanice", "description": "<b>Kategorie:</b> Information — Besucherinformation<br><b>Distanz:</b> 1118 m<br><b>Website:</b> <br><b>Wikipedia:</b> <br><b>Telefon:</b> ", "timestamp": null, "begin": null, "end": null, "altitudeMode": null, "tessellate": -1, "extrude": 0, "visibility": -1, "drawOrder": null, "icon": null, "category_group": "Information"}, "geometry": {"type": "Point", "coordinates": [12.7386206, 50.4299263]}}, {"type": "Feature", "properties": {"Name": "Karlova stezka", "description": "<b>Kategorie:</b> Information — Besucherinformation<br><b>Distanz:</b>  878 m<br><b>Website:</b> <br><b>Wikipedia:</b> <br><b>Telefon:</b> ", "timestamp": null, "begin": null, "end": null, "altitudeMode": null, "tessellate": -1, "extrude": 0, "visibility": -1, "drawOrder": null, "icon": null, "category_group": "Information"}, "geometry": {"type": "Point", "coordinates": [12.7366526, 50.4281149]}}, {"type": "Feature", "properties": {"Name": "Horská NS Potůčky č. 15: Potůčky - u kostela", "description": "<b>Kategorie:</b> Information — Besucherinformation<br><b>Distanz:</b>  656 m<br><b>Website:</b> <br><b>Wikipedia:</b> <br><b>Telefon:</b> ", "timestamp": null, "begin": null, "end": null, "altitudeMode": null, "tessellate": -1, "extrude": 0, "visibility": -1, "drawOrder": null, "icon": null, "category_group": "Information"}, "geometry": {"type": "Point", "coordinates": [12.7334332, 50.4273518]}}, {"type": "Feature", "properties": {"Name": "Lyžařská běžecká trasa", "description": "<b>Kategorie:</b> Information — Besucherinformation<br><b>Distanz:</b>  769 m<br><b>Website:</b> <br><b>Wikipedia:</b> <br><b>Telefon:</b> ", "timestamp": null, "begin": null, "end": null, "altitudeMode": null, "tessellate": -1, "extrude": 0, "visibility": -1, "drawOrder": null, "icon": null, "category_group": "Information"}, "geometry": {"type": "Point", "coordinates": [12.7369684, 50.4261159]}}, {"type": "Feature", "properties": {"Name": "Grenzüberschreitender Reitwanderweg", "description": "<b>Kategorie:</b> Information — Besucherinformation<br><b>Distanz:</b> 5604 m<br><b>Website:</b> <br><b>Wikipedia:</b> <br><b>Telefon:</b> ", "timestamp": null, "begin": null, "end": null, "altitudeMode": null, "tessellate": -1, "extrude": 0, "visibility": -1, "drawOrder": null, "icon": null, "category_group": "Information"}, "geometry": {"type": "Point", "coordinates": [12.7967759, 50.4468063]}}, {"type": "Feature", "properties": {"Name": "Ökosystem Feuchtgebiet", "description": "<b>Kategorie:</b> Information — Besucherinformation<br><b>Distanz:</b> 2587 m<br><b>Website:</b> <br><b>Wikipedia:</b> <br><b>Telefon:</b> ", "timestamp": null, "begin": null, "end": null, "altitudeMode": null, "tessellate": -1, "extrude": 0, "visibility": -1, "drawOrder": null, "icon": null, "category_group": "Information"}, "geometry": {"type": "Point", "coordinates": [12.6928577, 50.4302321]}}, {"type": "Feature", "properties": {"Name": "Trailcenter Rabenberg 046", "description": "<b>Kategorie:</b> Information — Besucherinformation<br><b>Distanz:</b> 2416 m<br><b>Website:</b> <br><b>Wikipedia:</b> <br><b>Telefon:</b> ", "timestamp": null, "begin": null, "end": null, "altitudeMode": null, "tessellate": -1, "extrude": 0, "visibility": -1, "drawOrder": null, "icon": null, "category_group": "Information"}, "geometry": {"type": "Point", "coordinates": [12.7343726, 50.4441444]}}, {"type": "Feature", "properties": {"Name": "Trailcenter Rabenberg 045", "description": "<b>Kategorie:</b> Information — Besucherinformation<br><b>Distanz:</b> 2345 m<br><b>Website:</b> <br><b>Wikipedia:</b> <br><b>Telefon:</b> ", "timestamp": null, "begin": null, "end": null, "altitudeMode": null, "tessellate": -1, "extrude": 0, "visibility": -1, "drawOrder": null, "icon": null, "category_group": "Information"}, "geometry": {"type": "Point", "coordinates": [12.7341464, 50.4435237]}}, {"type": "Feature", "properties": {"Name": "Trailcenter Rabenberg 042", "description": "<b>Kategorie:</b> Information — Besucherinformation<br><b>Distanz:</b> 2228 m<br><b>Website:</b> <br><b>Wikipedia:</b> <br><b>Telefon:</b> ", "timestamp": null, "begin": null, "end": null, "altitudeMode": null, "tessellate": -1, "extrude": 0, "visibility": -1, "drawOrder": null, "icon": null, "category_group": "Information"}, "geometry": {"type": "Point", "coordinates": [12.7349141, 50.4423354]}}, {"type": "Feature", "properties": {"Name": "Trailcenter Rabenberg 041", "description": "<b>Kategorie:</b> Information — Besucherinformation<br><b>Distanz:</b> 2083 m<br><b>Website:</b> <br><b>Wikipedia:</b> <br><b>Telefon:</b> ", "timestamp": null, "begin": null, "end": null, "altitudeMode": null, "tessellate": -1, "extrude": 0, "visibility": -1, "drawOrder": null, "icon": null, "category_group": "Information"}, "geometry": {"type": "Point", "coordinates": [12.7349635, 50.4409822]}}, {"type": "Feature", "properties": {"Name": "Trailcenter Rabenberg 039", "description": "<b>Kategorie:</b> Information — Besucherinformation<br><b>Distanz:</b> 2032 m<br><b>Website:</b> <br><b>Wikipedia:</b> <br><b>Telefon:</b> ", "timestamp": null, "begin": null, "end": null, "altitudeMode": null, "tessellate": -1, "extrude": 0, "visibility": -1, "drawOrder": null, "icon": null, "category_group": "Information"}, "geometry": {"type": "Point", "coordinates": [12.7353213, 50.4404426]}}, {"type": "Feature", "properties": {"Name": "Trailcenter Rabenberg 038", "description": "<b>Kategorie:</b> Information — Besucherinformation<br><b>Distanz:</b> 1883 m<br><b>Website:</b> <br><b>Wikipedia:</b> <br><b>Telefon:</b> ", "timestamp": null, "begin": null, "end": null, "altitudeMode": null, "tessellate": -1, "extrude": 0, "visibility": -1, "drawOrder": null, "icon": null, "category_group": "Information"}, "geometry": {"type": "Point", "coordinates": [12.7361973, 50.4388553]}}, {"type": "Feature", "properties": {"Name": "Trailcenter Rabenberg 034", "description": "<b>Kategorie:</b> Information — Besucherinformation<br><b>Distanz:</b> 1664 m<br><b>Website:</b> <br><b>Wikipedia:</b> <br><b>Telefon:</b> ", "timestamp": null, "begin": null, "end": null, "altitudeMode": null, "tessellate": -1, "extrude": 0, "visibility": -1, "drawOrder": null, "icon": null, "category_group": "Information"}, "geometry": {"type": "Point", "coordinates": [12.7373296, 50.4364384]}}, {"type": "Feature", "properties": {"Name": "Trailcenter Rabenberg 037", "description": "<b>Kategorie:</b> Information — Besucherinformation<br><b>Distanz:</b> 1624 m<br><b>Website:</b> <br><b>Wikipedia:</b> <br><b>Telefon:</b> ", "timestamp": null, "begin": null, "end": null, "altitudeMode": null, "tessellate": -1, "extrude": 0, "visibility": -1, "drawOrder": null, "icon": null, "category_group": "Information"}, "geometry": {"type": "Point", "coordinates": [12.7376669, 50.4359337]}}, {"type": "Feature", "properties": {"Name": "Trailcenter Rabenberg 033", "description": "<b>Kategorie:</b> Information — Besucherinformation<br><b>Distanz:</b> 1947 m<br><b>Website:</b> <br><b>Wikipedia:</b> <br><b>Telefon:</b> ", "timestamp": null, "begin": null, "end": null, "altitudeMode": null, "tessellate": -1, "extrude": 0, "visibility": -1, "drawOrder": null, "icon": null, "category_group": "Information"}, "geometry": {"type": "Point", "coordinates": [12.7378506, 50.4390735]}}, {"type": "Feature", "properties": {"Name": "Trailcenter Rabenberg 032", "description": "<b>Kategorie:</b> Information — Besucherinformation<br><b>Distanz:</b> 1964 m<br><b>Website:</b> <br><b>Wikipedia:</b> <br><b>Telefon:</b> ", "timestamp": null, "begin": null, "end": null, "altitudeMode": null, "tessellate": -1, "extrude": 0, "visibility": -1, "drawOrder": null, "icon": null, "category_group": "Information"}, "geometry": {"type": "Point", "coordinates": [12.7377025, 50.4392735]}}, {"type": "Feature", "properties": {"Name": "Trailcenter Rabenberg 031", "description": "<b>Kategorie:</b> Information — Besucherinformation<br><b>Distanz:</b> 1979 m<br><b>Website:</b> <br><b>Wikipedia:</b> <br><b>Telefon:</b> ", "timestamp": null, "begin": null, "end": null, "altitudeMode": null, "tessellate": -1, "extrude": 0, "visibility": -1, "drawOrder": null, "icon": null, "category_group": "Information"}, "geometry": {"type": "Point", "coordinates": [12.737767, 50.4393983]}}, {"type": "Feature", "properties": {"Name": "Trailcenter Rabenberg 048", "description": "<b>Kategorie:</b> Information — Besucherinformation<br><b>Distanz:</b> 2541 m<br><b>Website:</b> <br><b>Wikipedia:</b> <br><b>Telefon:</b> ", "timestamp": null, "begin": null, "end": null, "altitudeMode": null, "tessellate": -1, "extrude": 0, "visibility": -1, "drawOrder": null, "icon": null, "category_group": "Information"}, "geometry": {"type": "Point", "coordinates": [12.7380315, 50.4446966]}}, {"type": "Feature", "properties": {"Name": "Trailcenter Rabenberg 047", "description": "<b>Kategorie:</b> Information — Besucherinformation<br><b>Distanz:</b> 2541 m<br><b>Website:</b> <br><b>Wikipedia:</b> <br><b>Telefon:</b> ", "timestamp": null, "begin": null, "end": null, "altitudeMode": null, "tessellate": -1, "extrude": 0, "visibility": -1, "drawOrder": null, "icon": null, "category_group": "Information"}, "geometry": {"type": "Point", "coordinates": [12.7380096, 50.4447044]}}, {"type": "Feature", "properties": {"Name": "Trailcenter Rabenberg 030", "description": "<b>Kategorie:</b> Information — Besucherinformation<br><b>Distanz:</b> 2636 m<br><b>Website:</b> <br><b>Wikipedia:</b> <br><b>Telefon:</b> ", "timestamp": null, "begin": null, "end": null, "altitudeMode": null, "tessellate": -1, "extrude": 0, "visibility": -1, "drawOrder": null, "icon": null, "category_group": "Information"}, "geometry": {"type": "Point", "coordinates": [12.7399769, 50.4451789]}}, {"type": "Feature", "properties": {"Name": "Trailcenter Rabenberg 055", "description": "<b>Kategorie:</b> Information — Besucherinformation<br><b>Distanz:</b> 3011 m<br><b>Website:</b> <br><b>Wikipedia:</b> <br><b>Telefon:</b> ", "timestamp": null, "begin": null, "end": null, "altitudeMode": null, "tessellate": -1, "extrude": 0, "visibility": -1, "drawOrder": null, "icon": null, "category_group": "Information"}, "geometry": {"type": "Point", "coordinates": [12.7570761, 50.4422036]}}, {"type": "Feature", "properties": {"Name": "Trailcenter Rabenberg 054", "description": "<b>Kategorie:</b> Information — Besucherinformation<br><b>Distanz:</b> 2992 m<br><b>Website:</b> <br><b>Wikipedia:</b> <br><b>Telefon:</b> ", "timestamp": null, "begin": null, "end": null, "altitudeMode": null, "tessellate": -1, "extrude": 0, "visibility": -1, "drawOrder": null, "icon": null, "category_group": "Information"}, "geometry": {"type": "Point", "coordinates": [12.7567622, 50.4421617]}}, {"type": "Feature", "properties": {"Name": "Schaukasten", "description": "<b>Kategorie:</b> Information — Besucherinformation<br><b>Distanz:</b>  552 m<br><b>Website:</b> <br><b>Wikipedia:</b> <br><b>Telefon:</b> ", "timestamp": null, "begin": null, "end": null, "altitudeMode": null, "tessellate": -1, "extrude": 0, "visibility": -1, "drawOrder": null, "icon": null, "category_group": "Information"}, "geometry": {"type": "Point", "coordinates": [12.7288708, 50.4277671]}}, {"type": "Feature", "properties": {"Name": "ČESKÁ REPUBLIKA", "description": "<b>Kategorie:</b> Information — Besucherinformation<br><b>Distanz:</b>  762 m<br><b>Website:</b> <br><b>Wikipedia:</b> <br><b>Telefon:</b> ", "timestamp": null, "begin": null, "end": null, "altitudeMode": null, "tessellate": -1, "extrude": 0, "visibility": -1, "drawOrder": null, "icon": null, "category_group": "Information"}, "geometry": {"type": "Point", "coordinates": [12.7328666, 50.4287809]}}, {"type": "Feature", "properties": {"Name": "ČESKÁ REPUBLIKA", "description": "<b>Kategorie:</b> Information — Besucherinformation<br><b>Distanz:</b> 1163 m<br><b>Website:</b> <br><b>Wikipedia:</b> <br><b>Telefon:</b> ", "timestamp": null, "begin": null, "end": null, "altitudeMode": null, "tessellate": -1, "extrude": 0, "visibility": -1, "drawOrder": null, "icon": null, "category_group": "Information"}, "geometry": {"type": "Point", "coordinates": [12.7345282, 50.4323001]}}, {"type": "Feature", "properties": {"Name": "Krusné hory", "description": "<b>Kategorie:</b> Information — Besucherinformation<br><b>Distanz:</b>  974 m<br><b>Website:</b> <br><b>Wikipedia:</b> <br><b>Telefon:</b> ", "timestamp": null, "begin": null, "end": null, "altitudeMode": null, "tessellate": -1, "extrude": 0, "visibility": -1, "drawOrder": null, "icon": null, "category_group": "Information"}, "geometry": {"type": "Point", "coordinates": [12.7401442, 50.4261039]}}, {"type": "Feature", "properties": {"Name": "Lyžařské běžecké trasy", "description": "<b>Kategorie:</b> Information — Besucherinformation<br><b>Distanz:</b>  963 m<br><b>Website:</b> <br><b>Wikipedia:</b> <br><b>Telefon:</b> ", "timestamp": null, "begin": null, "end": null, "altitudeMode": null, "tessellate": -1, "extrude": 0, "visibility": -1, "drawOrder": null, "icon": null, "category_group": "Information"}, "geometry": {"type": "Point", "coordinates": [12.74012, 50.4258564]}}, {"type": "Feature", "properties": {"Name": "Skifernwanderweg Vogtland-Osterzgebirge", "description": "<b>Kategorie:</b> Information — Besucherinformation<br><b>Distanz:</b> 3274 m<br><b>Website:</b> <br><b>Wikipedia:</b> <br><b>Telefon:</b> ", "timestamp": null, "begin": null, "end": null, "altitudeMode": null, "tessellate": -1, "extrude": 0, "visibility": -1, "drawOrder": null, "icon": null, "category_group": "Information"}, "geometry": {"type": "Point", "coordinates": [12.6968281, 50.4008924]}}, {"type": "Feature", "properties": {"Name": "ČESKÁ REPUBLIKA", "description": "<b>Kategorie:</b> Information — Besucherinformation<br><b>Distanz:</b> 3275 m<br><b>Website:</b> <br><b>Wikipedia:</b> <br><b>Telefon:</b> ", "timestamp": null, "begin": null, "end": null, "altitudeMode": null, "tessellate": -1, "extrude": 0, "visibility": -1, "drawOrder": null, "icon": null, "category_group": "Information"}, "geometry": {"type": "Point", "coordinates": [12.6969305, 50.400833]}}, {"type": "Feature", "properties": {"Name": "Kindergarten Regenbogen", "description": "<b>Kategorie:</b> Kinder & Jugend — Kindergarten<br><b>Distanz:</b>  581 m<br><b>Website:</b> http://www.kirche-johanngeorgenstadt.de/kindergarten/<br><b>Wikipedia:</b> <br><b>Telefon:</b> +49 3773 882668", "timestamp": null, "begin": null, "end": null, "altitudeMode": null, "tessellate": -1, "extrude": 0, "visibility": -1, "drawOrder": null, "icon": null, "category_group": "Kinder & Jugend"}, "geometry": {"type": "Point", "coordinates": [12.7283135, 50.4280909]}}, {"type": "Feature", "properties": {"Name": "Stollenlehrpfad", "description": "<b>Kategorie:</b> Kultur & Geschichte — Attraktion<br><b>Distanz:</b> 1061 m<br><b>Website:</b> <br><b>Wikipedia:</b> <br><b>Telefon:</b> ", "timestamp": null, "begin": null, "end": null, "altitudeMode": null, "tessellate": -1, "extrude": 0, "visibility": -1, "drawOrder": null, "icon": null, "category_group": "Kultur & Geschichte"}, "geometry": {"type": "Point", "coordinates": [12.7294444, 50.4323436]}}, {"type": "Feature", "properties": {"Name": "Förderverein Pferdegöpel", "description": "<b>Kategorie:</b> Kultur & Geschichte — Museum<br><b>Distanz:</b> 1501 m<br><b>Website:</b> https://www.pferdegoepel.de<br><b>Wikipedia:</b> <br><b>Telefon:</b> ", "timestamp": null, "begin": null, "end": null, "altitudeMode": null, "tessellate": -1, "extrude": 0, "visibility": -1, "drawOrder": null, "icon": null, "category_group": "Kultur & Geschichte"}, "geometry": {"type": "Point", "coordinates": [12.7096963, 50.4302501]}}, {"type": "Feature", "properties": {"Name": "Korec", "description": "<b>Kategorie:</b> Natur & Landschaft — Natur-Feature (alle)<br><b>Distanz:</b> 3256 m<br><b>Website:</b> <br><b>Wikipedia:</b> <br><b>Telefon:</b> ", "timestamp": null, "begin": null, "end": null, "altitudeMode": null, "tessellate": -1, "extrude": 0, "visibility": -1, "drawOrder": null, "icon": null, "category_group": "Natur & Landschaft"}, "geometry": {"type": "Point", "coordinates": [12.6948148, 50.4023439]}}, {"type": "Feature", "properties": {"Name": "Anton Günther Höhe", "description": "<b>Kategorie:</b> Natur & Landschaft — Natur-Feature (alle)<br><b>Distanz:</b>  307 m<br><b>Website:</b> <br><b>Wikipedia:</b> <br><b>Telefon:</b> ", "timestamp": null, "begin": null, "end": null, "altitudeMode": null, "tessellate": -1, "extrude": 0, "visibility": -1, "drawOrder": null, "icon": null, "category_group": "Natur & Landschaft"}, "geometry": {"type": "Point", "coordinates": [12.7244579, 50.4249252]}}, {"type": "Feature", "properties": {"Name": "Fastenberg", "description": "<b>Kategorie:</b> Natur & Landschaft — Natur-Feature (alle)<br><b>Distanz:</b> 2916 m<br><b>Website:</b> <br><b>Wikipedia:</b> de:Fastenberg<br><b>Telefon:</b> ", "timestamp": null, "begin": null, "end": null, "altitudeMode": null, "tessellate": -1, "extrude": 0, "visibility": -1, "drawOrder": null, "icon": null, "category_group": "Natur & Landschaft"}, "geometry": {"type": "Point", "coordinates": [12.6972993, 50.4407104]}}, {"type": "Feature", "properties": {"Name": "Silberberg", "description": "<b>Kategorie:</b> Natur & Landschaft — Natur-Feature (alle)<br><b>Distanz:</b> 1711 m<br><b>Website:</b> <br><b>Wikipedia:</b> <br><b>Telefon:</b> ", "timestamp": null, "begin": null, "end": null, "altitudeMode": null, "tessellate": -1, "extrude": 0, "visibility": -1, "drawOrder": null, "icon": null, "category_group": "Natur & Landschaft"}, "geometry": {"type": "Point", "coordinates": [12.7038309, 50.4197709]}}, {"type": "Feature", "properties": {"Name": "Schimmelfelsen", "description": "<b>Kategorie:</b> Natur & Landschaft — Natur-Feature (alle)<br><b>Distanz:</b> 3428 m<br><b>Website:</b> <br><b>Wikipedia:</b> <br><b>Telefon:</b> ", "timestamp": null, "begin": null, "end": null, "altitudeMode": null, "tessellate": -1, "extrude": 0, "visibility": -1, "drawOrder": null, "icon": null, "category_group": "Natur & Landschaft"}, "geometry": {"type": "Point", "coordinates": [12.6929491, 50.4444579]}}, {"type": "Feature", "properties": {"Name": "Rudná", "description": "<b>Kategorie:</b> Natur & Landschaft — Natur-Feature (alle)<br><b>Distanz:</b> 2188 m<br><b>Website:</b> <br><b>Wikipedia:</b> <br><b>Telefon:</b> ", "timestamp": null, "begin": null, "end": null, "altitudeMode": null, "tessellate": -1, "extrude": 0, "visibility": -1, "drawOrder": null, "icon": null, "category_group": "Natur & Landschaft"}, "geometry": {"type": "Point", "coordinates": [12.7519342, 50.4347569]}}, {"type": "Feature", "properties": {"Name": "Preishausquelle", "description": "<b>Kategorie:</b> Natur & Landschaft — Natur-Feature (alle)<br><b>Distanz:</b> 3266 m<br><b>Website:</b> <br><b>Wikipedia:</b> <br><b>Telefon:</b> ", "timestamp": null, "begin": null, "end": null, "altitudeMode": null, "tessellate": -1, "extrude": 0, "visibility": -1, "drawOrder": null, "icon": null, "category_group": "Natur & Landschaft"}, "geometry": {"type": "Point", "coordinates": [12.7602488, 50.443416]}}]}