{"type": "FeatureCollection", "features": [{"type": "Feature", "properties": {"Name": "JH 644 — Jugendherberge Kelbra", "description": "<b>JH Nr:</b> 644<br><b>Name:</b> Jugendherberge Kelbra<br><b>Ort:</b> Kelbra<br><b>Adresse:</b> Forsthaus 90a 06537 Kelbra<br><b>Telefon:</b> +49 34651 55890<br><b>Bundesland:</b> Sachsen-Anhalt", "timestamp": null, "begin": null, "end": null, "altitudeMode": null, "tessellate": -1, "extrude": 0, "visibility": -1, "drawOrder": null, "icon": null, "category_group": "JH"}, "geometry": {"type": "Point", "coordinates": [11.1003338, 51.4202798]}}, {"type": "Feature", "properties": {"Name": "Wandern im Naturpark Kyffhäuser", "description": "<b>Kategorie:</b> Information — Besucherinformation<br><b>Distanz:</b>  742 m<br><b>Website:</b> <br><b>Wikipedia:</b> <br><b>Telefon:</b> ", "timestamp": null, "begin": null, "end": null, "altitudeMode": null, "tessellate": -1, "extrude": 0, "visibility": -1, "drawOrder": null, "icon": null, "category_group": "Information"}, "geometry": {"type": "Point", "coordinates": [11.1018538, 51.4136748]}}, {"type": "Feature", "properties": {"Name": "Langes Tal", "description": "<b>Kategorie:</b> Information — Besucherinformation<br><b>Distanz:</b>  956 m<br><b>Website:</b> <br><b>Wikipedia:</b> <br><b>Telefon:</b> ", "timestamp": null, "begin": null, "end": null, "altitudeMode": null, "tessellate": -1, "extrude": 0, "visibility": -1, "drawOrder": null, "icon": null, "category_group": "Information"}, "geometry": {"type": "Point", "coordinates": [11.0934246, 51.4128522]}}, {"type": "Feature", "properties": {"Name": "Gedenkstein \"Johanna Westpfal\"", "description": "<b>Kategorie:</b> Information — Besucherinformation<br><b>Distanz:</b>  580 m<br><b>Website:</b> <br><b>Wikipedia:</b> <br><b>Telefon:</b> ", "timestamp": null, "begin": null, "end": null, "altitudeMode": null, "tessellate": -1, "extrude": 0, "visibility": -1, "drawOrder": null, "icon": null, "category_group": "Information"}, "geometry": {"type": "Point", "coordinates": [11.0925614, 51.4183893]}}, {"type": "Feature", "properties": {"Name": "Wege deutscher Kaiser und Könige des Mittelalters", "description": "<b>Kategorie:</b> Information — Besucherinformation<br><b>Distanz:</b> 1616 m<br><b>Website:</b> <br><b>Wikipedia:</b> <br><b>Telefon:</b> ", "timestamp": null, "begin": null, "end": null, "altitudeMode": null, "tessellate": -1, "extrude": 0, "visibility": -1, "drawOrder": null, "icon": null, "category_group": "Information"}, "geometry": {"type": "Point", "coordinates": [11.1227306, 51.4164013]}}, {"type": "Feature", "properties": {"Name": "Steinbrüche im oberen Steintal", "description": "<b>Kategorie:</b> Information — Besucherinformation<br><b>Distanz:</b> 2031 m<br><b>Website:</b> <br><b>Wikipedia:</b> <br><b>Telefon:</b> ", "timestamp": null, "begin": null, "end": null, "altitudeMode": null, "tessellate": -1, "extrude": 0, "visibility": -1, "drawOrder": null, "icon": null, "category_group": "Information"}, "geometry": {"type": "Point", "coordinates": [11.071664, 51.4237679]}}, {"type": "Feature", "properties": {"Name": "Königspfalz Tilleda", "description": "<b>Kategorie:</b> Information — Besucherinformation<br><b>Distanz:</b> 2367 m<br><b>Website:</b> <br><b>Wikipedia:</b> <br><b>Telefon:</b> ", "timestamp": null, "begin": null, "end": null, "altitudeMode": null, "tessellate": -1, "extrude": 0, "visibility": -1, "drawOrder": null, "icon": null, "category_group": "Information"}, "geometry": {"type": "Point", "coordinates": [11.1343358, 51.4193904]}}, {"type": "Feature", "properties": {"Name": "Biosphärenreservat Karstlandschaft Südharz", "description": "<b>Kategorie:</b> Information — Besucherinformation<br><b>Distanz:</b> 2335 m<br><b>Website:</b> <br><b>Wikipedia:</b> <br><b>Telefon:</b> ", "timestamp": null, "begin": null, "end": null, "altitudeMode": null, "tessellate": -1, "extrude": 0, "visibility": -1, "drawOrder": null, "icon": null, "category_group": "Information"}, "geometry": {"type": "Point", "coordinates": [11.133846, 51.4190073]}}, {"type": "Feature", "properties": {"Name": "Frauengrab", "description": "<b>Kategorie:</b> Information — Besucherinformation<br><b>Distanz:</b> 2304 m<br><b>Website:</b> <br><b>Wikipedia:</b> <br><b>Telefon:</b> ", "timestamp": null, "begin": null, "end": null, "altitudeMode": null, "tessellate": -1, "extrude": 0, "visibility": -1, "drawOrder": null, "icon": null, "category_group": "Information"}, "geometry": {"type": "Point", "coordinates": [11.1176621, 51.4026298]}}, {"type": "Feature", "properties": {"Name": "Rosengarten", "description": "<b>Kategorie:</b> Information — Besucherinformation<br><b>Distanz:</b> 1086 m<br><b>Website:</b> <br><b>Wikipedia:</b> <br><b>Telefon:</b> ", "timestamp": null, "begin": null, "end": null, "altitudeMode": null, "tessellate": -1, "extrude": 0, "visibility": -1, "drawOrder": null, "icon": null, "category_group": "Information"}, "geometry": {"type": "Point", "coordinates": [11.1090842, 51.4121945]}}, {"type": "Feature", "properties": {"Name": "Novalis", "description": "<b>Kategorie:</b> Information — Besucherinformation<br><b>Distanz:</b> 1115 m<br><b>Website:</b> <br><b>Wikipedia:</b> <br><b>Telefon:</b> ", "timestamp": null, "begin": null, "end": null, "altitudeMode": null, "tessellate": -1, "extrude": 0, "visibility": -1, "drawOrder": null, "icon": null, "category_group": "Information"}, "geometry": {"type": "Point", "coordinates": [11.111595, 51.4131434]}}, {"type": "Feature", "properties": {"Name": "Kyffhäuser-Denkmal", "description": "<b>Kategorie:</b> Information — Besucherinformation<br><b>Distanz:</b>  924 m<br><b>Website:</b> <br><b>Wikipedia:</b> <br><b>Telefon:</b> ", "timestamp": null, "begin": null, "end": null, "altitudeMode": null, "tessellate": -1, "extrude": 0, "visibility": -1, "drawOrder": null, "icon": null, "category_group": "Information"}, "geometry": {"type": "Point", "coordinates": [11.1085327, 51.4137401]}}, {"type": "Feature", "properties": {"Name": "Karte Geopark", "description": "<b>Kategorie:</b> Information — Besucherinformation<br><b>Distanz:</b>  932 m<br><b>Website:</b> <br><b>Wikipedia:</b> <br><b>Telefon:</b> ", "timestamp": null, "begin": null, "end": null, "altitudeMode": null, "tessellate": -1, "extrude": 0, "visibility": -1, "drawOrder": null, "icon": null, "category_group": "Information"}, "geometry": {"type": "Point", "coordinates": [11.1084753, 51.4136281]}}, {"type": "Feature", "properties": {"Name": "Gesamtlageplan Kyffhäuser", "description": "<b>Kategorie:</b> Information — Besucherinformation<br><b>Distanz:</b>  741 m<br><b>Website:</b> <br><b>Wikipedia:</b> <br><b>Telefon:</b> ", "timestamp": null, "begin": null, "end": null, "altitudeMode": null, "tessellate": -1, "extrude": 0, "visibility": -1, "drawOrder": null, "icon": null, "category_group": "Information"}, "geometry": {"type": "Point", "coordinates": [11.1018118, 51.4136854]}}, {"type": "Feature", "properties": {"Name": "Ententeich", "description": "<b>Kategorie:</b> Information — Besucherinformation<br><b>Distanz:</b> 1948 m<br><b>Website:</b> <br><b>Wikipedia:</b> <br><b>Telefon:</b> ", "timestamp": null, "begin": null, "end": null, "altitudeMode": null, "tessellate": -1, "extrude": 0, "visibility": -1, "drawOrder": null, "icon": null, "category_group": "Information"}, "geometry": {"type": "Point", "coordinates": [11.0881178, 51.4045227]}}, {"type": "Feature", "properties": {"Name": "Novalis", "description": "<b>Kategorie:</b> Information — Besucherinformation<br><b>Distanz:</b> 2297 m<br><b>Website:</b> <br><b>Wikipedia:</b> <br><b>Telefon:</b> ", "timestamp": null, "begin": null, "end": null, "altitudeMode": null, "tessellate": -1, "extrude": 0, "visibility": -1, "drawOrder": null, "icon": null, "category_group": "Information"}, "geometry": {"type": "Point", "coordinates": [11.1333366, 51.4195637]}}, {"type": "Feature", "properties": {"Name": "Tilleda Königspfalz", "description": "<b>Kategorie:</b> Information — Besucherinformation<br><b>Distanz:</b> 2345 m<br><b>Website:</b> <br><b>Wikipedia:</b> <br><b>Telefon:</b> ", "timestamp": null, "begin": null, "end": null, "altitudeMode": null, "tessellate": -1, "extrude": 0, "visibility": -1, "drawOrder": null, "icon": null, "category_group": "Information"}, "geometry": {"type": "Point", "coordinates": [11.1339721, 51.418913]}}, {"type": "Feature", "properties": {"Name": "Lied-Text", "description": "<b>Kategorie:</b> Information — Besucherinformation<br><b>Distanz:</b> 1182 m<br><b>Website:</b> <br><b>Wikipedia:</b> <br><b>Telefon:</b> ", "timestamp": null, "begin": null, "end": null, "altitudeMode": null, "tessellate": -1, "extrude": 0, "visibility": -1, "drawOrder": null, "icon": null, "category_group": "Information"}, "geometry": {"type": "Point", "coordinates": [11.1110868, 51.41205]}}, {"type": "Feature", "properties": {"Name": "Lied-Text", "description": "<b>Kategorie:</b> Information — Besucherinformation<br><b>Distanz:</b> 1049 m<br><b>Website:</b> <br><b>Wikipedia:</b> <br><b>Telefon:</b> ", "timestamp": null, "begin": null, "end": null, "altitudeMode": null, "tessellate": -1, "extrude": 0, "visibility": -1, "drawOrder": null, "icon": null, "category_group": "Information"}, "geometry": {"type": "Point", "coordinates": [11.1100466, 51.4130647]}}, {"type": "Feature", "properties": {"Name": "Lied-Text", "description": "<b>Kategorie:</b> Information — Besucherinformation<br><b>Distanz:</b> 1005 m<br><b>Website:</b> <br><b>Wikipedia:</b> <br><b>Telefon:</b> ", "timestamp": null, "begin": null, "end": null, "altitudeMode": null, "tessellate": -1, "extrude": 0, "visibility": -1, "drawOrder": null, "icon": null, "category_group": "Information"}, "geometry": {"type": "Point", "coordinates": [11.1099811, 51.4135539]}}, {"type": "Feature", "properties": {"Name": "Klingender Wanderweg", "description": "<b>Kategorie:</b> Information — Besucherinformation<br><b>Distanz:</b> 1087 m<br><b>Website:</b> <br><b>Wikipedia:</b> <br><b>Telefon:</b> ", "timestamp": null, "begin": null, "end": null, "altitudeMode": null, "tessellate": -1, "extrude": 0, "visibility": -1, "drawOrder": null, "icon": null, "category_group": "Information"}, "geometry": {"type": "Point", "coordinates": [11.1092263, 51.41224]}}, {"type": "Feature", "properties": {"Name": "(4) Obstwiesen machen auch Arbeit", "description": "<b>Kategorie:</b> Information — Besucherinformation<br><b>Distanz:</b> 1621 m<br><b>Website:</b> http://www.kirschtilla.de/<br><b>Wikipedia:</b> <br><b>Telefon:</b> ", "timestamp": null, "begin": null, "end": null, "altitudeMode": null, "tessellate": -1, "extrude": 0, "visibility": -1, "drawOrder": null, "icon": null, "category_group": "Information"}, "geometry": {"type": "Point", "coordinates": [11.1228294, 51.416468]}}, {"type": "Feature", "properties": {"Name": "(3) Streuobswiesen sind voller Leben", "description": "<b>Kategorie:</b> Information — Besucherinformation<br><b>Distanz:</b> 1845 m<br><b>Website:</b> http://www.kirschtilla.de/<br><b>Wikipedia:</b> <br><b>Telefon:</b> ", "timestamp": null, "begin": null, "end": null, "altitudeMode": null, "tessellate": -1, "extrude": 0, "visibility": -1, "drawOrder": null, "icon": null, "category_group": "Information"}, "geometry": {"type": "Point", "coordinates": [11.12653, 51.417688]}}, {"type": "Feature", "properties": {"Name": "Messen ohne Messgeräte", "description": "<b>Kategorie:</b> Information — Besucherinformation<br><b>Distanz:</b> 2190 m<br><b>Website:</b> <br><b>Wikipedia:</b> <br><b>Telefon:</b> ", "timestamp": null, "begin": null, "end": null, "altitudeMode": null, "tessellate": -1, "extrude": 0, "visibility": -1, "drawOrder": null, "icon": null, "category_group": "Information"}, "geometry": {"type": "Point", "coordinates": [11.0690284, 51.4224037]}}, {"type": "Feature", "properties": {"Name": "(2) Obstbäume versüssen die Landschaft", "description": "<b>Kategorie:</b> Information — Besucherinformation<br><b>Distanz:</b> 1994 m<br><b>Website:</b> http://www.kirschtilla.de/<br><b>Wikipedia:</b> <br><b>Telefon:</b> ", "timestamp": null, "begin": null, "end": null, "altitudeMode": null, "tessellate": -1, "extrude": 0, "visibility": -1, "drawOrder": null, "icon": null, "category_group": "Information"}, "geometry": {"type": "Point", "coordinates": [11.1288331, 51.4182949]}}, {"type": "Feature", "properties": {"Name": "(1) Lebensraum Streuobstwiese", "description": "<b>Kategorie:</b> Information — Besucherinformation<br><b>Distanz:</b> 2237 m<br><b>Website:</b> http://www.kirschtilla.de/<br><b>Wikipedia:</b> <br><b>Telefon:</b> ", "timestamp": null, "begin": null, "end": null, "altitudeMode": null, "tessellate": -1, "extrude": 0, "visibility": -1, "drawOrder": null, "icon": null, "category_group": "Information"}, "geometry": {"type": "Point", "coordinates": [11.1324513, 51.4191361]}}, {"type": "Feature", "properties": {"Name": "Hörerlebnis Kyffhäuser", "description": "<b>Kategorie:</b> Information — Besucherinformation<br><b>Distanz:</b> 2300 m<br><b>Website:</b> <br><b>Wikipedia:</b> <br><b>Telefon:</b> ", "timestamp": null, "begin": null, "end": null, "altitudeMode": null, "tessellate": -1, "extrude": 0, "visibility": -1, "drawOrder": null, "icon": null, "category_group": "Information"}, "geometry": {"type": "Point", "coordinates": [11.1333791, 51.4195257]}}, {"type": "Feature", "properties": {"Name": "Skandal beim Picknick: Verwarnung für Goethe", "description": "<b>Kategorie:</b> Information — Besucherinformation<br><b>Distanz:</b> 1101 m<br><b>Website:</b> http://pico.naturpark-kyffhaeuser.de/37<br><b>Wikipedia:</b> <br><b>Telefon:</b> +49 361 3026153", "timestamp": null, "begin": null, "end": null, "altitudeMode": null, "tessellate": -1, "extrude": 0, "visibility": -1, "drawOrder": null, "icon": null, "category_group": "Information"}, "geometry": {"type": "Point", "coordinates": [11.1106327, 51.4127643]}}, {"type": "Feature", "properties": {"Name": "Warum wachsen hier so viele Obstbäume ?", "description": "<b>Kategorie:</b> Information — Besucherinformation<br><b>Distanz:</b> 2360 m<br><b>Website:</b> http://pico.naturpark-kyffhaeuser.de/07<br><b>Wikipedia:</b> <br><b>Telefon:</b> +49 361 302615307", "timestamp": null, "begin": null, "end": null, "altitudeMode": null, "tessellate": -1, "extrude": 0, "visibility": -1, "drawOrder": null, "icon": null, "category_group": "Information"}, "geometry": {"type": "Point", "coordinates": [11.1342221, 51.4192923]}}, {"type": "Feature", "properties": {"Name": "Skandal beim Picknick: Verwarnung für Goethe", "description": "<b>Kategorie:</b> Information — Besucherinformation<br><b>Distanz:</b> 2413 m<br><b>Website:</b> http://pico.naturpark-kyffhaeuser.de/47<br><b>Wikipedia:</b> <br><b>Telefon:</b> +49 361 3026153-47", "timestamp": null, "begin": null, "end": null, "altitudeMode": null, "tessellate": -1, "extrude": 0, "visibility": -1, "drawOrder": null, "icon": null, "category_group": "Information"}, "geometry": {"type": "Point", "coordinates": [11.1346151, 51.4169665]}}, {"type": "Feature", "properties": {"Name": "Damals, zur Einweihung des Denkmals...", "description": "<b>Kategorie:</b> Information — Besucherinformation<br><b>Distanz:</b>  989 m<br><b>Website:</b> http://pico.naturpark-kyffhaeuser.de/38<br><b>Wikipedia:</b> <br><b>Telefon:</b> +49 361 3026153", "timestamp": null, "begin": null, "end": null, "altitudeMode": null, "tessellate": -1, "extrude": 0, "visibility": -1, "drawOrder": null, "icon": null, "category_group": "Information"}, "geometry": {"type": "Point", "coordinates": [11.109408, 51.4134365]}}, {"type": "Feature", "properties": {"Name": "Mühlsteinbruch", "description": "<b>Kategorie:</b> Kultur & Geschichte — Attraktion<br><b>Distanz:</b> 1498 m<br><b>Website:</b> <br><b>Wikipedia:</b> <br><b>Telefon:</b> ", "timestamp": null, "begin": null, "end": null, "altitudeMode": null, "tessellate": -1, "extrude": 0, "visibility": -1, "drawOrder": null, "icon": null, "category_group": "Kultur & Geschichte"}, "geometry": {"type": "Point", "coordinates": [11.1157342, 51.4108638]}}, {"type": "Feature", "properties": {"Name": "Streuobstzentrum", "description": "<b>Kategorie:</b> Kultur & Geschichte — Attraktion<br><b>Distanz:</b> 2336 m<br><b>Website:</b> <br><b>Wikipedia:</b> <br><b>Telefon:</b> ", "timestamp": null, "begin": null, "end": null, "altitudeMode": null, "tessellate": -1, "extrude": 0, "visibility": -1, "drawOrder": null, "icon": null, "category_group": "Kultur & Geschichte"}, "geometry": {"type": "Point", "coordinates": [11.1338848, 51.4193176]}}, {"type": "Feature", "properties": {"Name": "Kyffhäuserblick", "description": "<b>Kategorie:</b> Natur & Landschaft — Aussichtspunkt<br><b>Distanz:</b> 1897 m<br><b>Website:</b> <br><b>Wikipedia:</b> <br><b>Telefon:</b> ", "timestamp": null, "begin": null, "end": null, "altitudeMode": null, "tessellate": -1, "extrude": 0, "visibility": -1, "drawOrder": null, "icon": null, "category_group": "Natur & Landschaft"}, "geometry": {"type": "Point", "coordinates": [11.1044595, 51.4034244]}}, {"type": "Feature", "properties": {"Name": "Gietenkopf", "description": "<b>Kategorie:</b> Natur & Landschaft — Natur-Feature (alle)<br><b>Distanz:</b> 2064 m<br><b>Website:</b> <br><b>Wikipedia:</b> <br><b>Telefon:</b> ", "timestamp": null, "begin": null, "end": null, "altitudeMode": null, "tessellate": -1, "extrude": 0, "visibility": -1, "drawOrder": null, "icon": null, "category_group": "Natur & Landschaft"}, "geometry": {"type": "Point", "coordinates": [11.1178688, 51.4053137]}}, {"type": "Feature", "properties": {"Name": "Kautsberge", "description": "<b>Kategorie:</b> Natur & Landschaft — Natur-Feature (alle)<br><b>Distanz:</b> 1723 m<br><b>Website:</b> <br><b>Wikipedia:</b> <br><b>Telefon:</b> ", "timestamp": null, "begin": null, "end": null, "altitudeMode": null, "tessellate": -1, "extrude": 0, "visibility": -1, "drawOrder": null, "icon": null, "category_group": "Natur & Landschaft"}, "geometry": {"type": "Point", "coordinates": [11.1008275, 51.4047952]}}, {"type": "Feature", "properties": {"Name": "Goldener Mann", "description": "<b>Kategorie:</b> Natur & Landschaft — Natur-Feature (alle)<br><b>Distanz:</b> 1683 m<br><b>Website:</b> <br><b>Wikipedia:</b> <br><b>Telefon:</b> ", "timestamp": null, "begin": null, "end": null, "altitudeMode": null, "tessellate": -1, "extrude": 0, "visibility": -1, "drawOrder": null, "icon": null, "category_group": "Natur & Landschaft"}, "geometry": {"type": "Point", "coordinates": [11.0763949, 51.4225028]}}, {"type": "Feature", "properties": {"Name": "Heiligenborn", "description": "<b>Kategorie:</b> Natur & Landschaft — Natur-Feature (alle)<br><b>Distanz:</b> 1315 m<br><b>Website:</b> <br><b>Wikipedia:</b> <br><b>Telefon:</b> ", "timestamp": null, "begin": null, "end": null, "altitudeMode": null, "tessellate": -1, "extrude": 0, "visibility": -1, "drawOrder": null, "icon": null, "category_group": "Natur & Landschaft"}, "geometry": {"type": "Point", "coordinates": [11.0815038, 51.4192092]}}, {"type": "Feature", "properties": {"Name": "Kuhtränke", "description": "<b>Kategorie:</b> Natur & Landschaft — Natur-Feature (alle)<br><b>Distanz:</b>  318 m<br><b>Website:</b> <br><b>Wikipedia:</b> <br><b>Telefon:</b> ", "timestamp": null, "begin": null, "end": null, "altitudeMode": null, "tessellate": -1, "extrude": 0, "visibility": -1, "drawOrder": null, "icon": null, "category_group": "Natur & Landschaft"}, "geometry": {"type": "Point", "coordinates": [11.0962786, 51.4189542]}}, {"type": "Feature", "properties": {"Name": "Wolweda", "description": "<b>Kategorie:</b> Natur & Landschaft — Natur-Feature (alle)<br><b>Distanz:</b> 1126 m<br><b>Website:</b> <br><b>Wikipedia:</b> <br><b>Telefon:</b> ", "timestamp": null, "begin": null, "end": null, "altitudeMode": null, "tessellate": -1, "extrude": 0, "visibility": -1, "drawOrder": null, "icon": null, "category_group": "Natur & Landschaft"}, "geometry": {"type": "Point", "coordinates": [11.1001282, 51.4101606]}}, {"type": "Feature", "properties": {"Name": "Taterborn", "description": "<b>Kategorie:</b> Natur & Landschaft — Natur-Feature (alle)<br><b>Distanz:</b> 1360 m<br><b>Website:</b> <br><b>Wikipedia:</b> <br><b>Telefon:</b> ", "timestamp": null, "begin": null, "end": null, "altitudeMode": null, "tessellate": -1, "extrude": 0, "visibility": -1, "drawOrder": null, "icon": null, "category_group": "Natur & Landschaft"}, "geometry": {"type": "Point", "coordinates": [11.0946121, 51.4085898]}}, {"type": "Feature", "properties": {"Name": "Taterborn", "description": "<b>Kategorie:</b> Natur & Landschaft — Natur-Feature (alle)<br><b>Distanz:</b> 1363 m<br><b>Website:</b> <br><b>Wikipedia:</b> <br><b>Telefon:</b> ", "timestamp": null, "begin": null, "end": null, "altitudeMode": null, "tessellate": -1, "extrude": 0, "visibility": -1, "drawOrder": null, "icon": null, "category_group": "Natur & Landschaft"}, "geometry": {"type": "Point", "coordinates": [11.0945862, 51.408566]}}, {"type": "Feature", "properties": {"Name": "Taterborn", "description": "<b>Kategorie:</b> Natur & Landschaft — Natur-Feature (alle)<br><b>Distanz:</b> 1339 m<br><b>Website:</b> <br><b>Wikipedia:</b> <br><b>Telefon:</b> ", "timestamp": null, "begin": null, "end": null, "altitudeMode": null, "tessellate": -1, "extrude": 0, "visibility": -1, "drawOrder": null, "icon": null, "category_group": "Natur & Landschaft"}, "geometry": {"type": "Point", "coordinates": [11.094863, 51.4087423]}}, {"type": "Feature", "properties": {"Name": "Novalisblick", "description": "<b>Kategorie:</b> Natur & Landschaft — Aussichtspunkt<br><b>Distanz:</b> 1120 m<br><b>Website:</b> <br><b>Wikipedia:</b> <br><b>Telefon:</b> ", "timestamp": null, "begin": null, "end": null, "altitudeMode": null, "tessellate": -1, "extrude": 0, "visibility": -1, "drawOrder": null, "icon": null, "category_group": "Natur & Landschaft"}, "geometry": {"type": "Point", "coordinates": [11.1116508, 51.4131178]}}, {"type": "Feature", "properties": {"Name": "Kulpenberg", "description": "<b>Kategorie:</b> Natur & Landschaft — Natur-Feature (alle)<br><b>Distanz:</b> 1905 m<br><b>Website:</b> <br><b>Wikipedia:</b> <br><b>Telefon:</b> ", "timestamp": null, "begin": null, "end": null, "altitudeMode": null, "tessellate": -1, "extrude": 0, "visibility": -1, "drawOrder": null, "icon": null, "category_group": "Natur & Landschaft"}, "geometry": {"type": "Point", "coordinates": [11.0765417, 51.4117932]}}, {"type": "Feature", "properties": {"Name": "Kyffhäuserburgberg", "description": "<b>Kategorie:</b> Natur & Landschaft — Natur-Feature (alle)<br><b>Distanz:</b>  841 m<br><b>Website:</b> <br><b>Wikipedia:</b> <br><b>Telefon:</b> ", "timestamp": null, "begin": null, "end": null, "altitudeMode": null, "tessellate": -1, "extrude": 0, "visibility": -1, "drawOrder": null, "icon": null, "category_group": "Natur & Landschaft"}, "geometry": {"type": "Point", "coordinates": [11.1063792, 51.4137363]}}, {"type": "Feature", "properties": {"Name": "Berg der Rothenburg", "description": "<b>Kategorie:</b> Natur & Landschaft — Natur-Feature (alle)<br><b>Distanz:</b> 2507 m<br><b>Website:</b> <br><b>Wikipedia:</b> <br><b>Telefon:</b> ", "timestamp": null, "begin": null, "end": null, "altitudeMode": null, "tessellate": -1, "extrude": 0, "visibility": -1, "drawOrder": null, "icon": null, "category_group": "Natur & Landschaft"}, "geometry": {"type": "Point", "coordinates": [11.0648551, 51.4242693]}}, {"type": "Feature", "properties": {"Name": "Bärenköpfe", "description": "<b>Kategorie:</b> Natur & Landschaft — Natur-Feature (alle)<br><b>Distanz:</b>  458 m<br><b>Website:</b> <br><b>Wikipedia:</b> <br><b>Telefon:</b> ", "timestamp": null, "begin": null, "end": null, "altitudeMode": null, "tessellate": -1, "extrude": 0, "visibility": -1, "drawOrder": null, "icon": null, "category_group": "Natur & Landschaft"}, "geometry": {"type": "Point", "coordinates": [11.1055169, 51.4177447]}}, {"type": "Feature", "properties": {"Name": "Mondskopf", "description": "<b>Kategorie:</b> Natur & Landschaft — Natur-Feature (alle)<br><b>Distanz:</b> 3109 m<br><b>Website:</b> <br><b>Wikipedia:</b> <br><b>Telefon:</b> ", "timestamp": null, "begin": null, "end": null, "altitudeMode": null, "tessellate": -1, "extrude": 0, "visibility": -1, "drawOrder": null, "icon": null, "category_group": "Natur & Landschaft"}, "geometry": {"type": "Point", "coordinates": [11.1288041, 51.4418271]}}, {"type": "Feature", "properties": {"Name": "Kleiner Weinberg", "description": "<b>Kategorie:</b> Natur & Landschaft — Natur-Feature (alle)<br><b>Distanz:</b> 2337 m<br><b>Website:</b> <br><b>Wikipedia:</b> <br><b>Telefon:</b> ", "timestamp": null, "begin": null, "end": null, "altitudeMode": null, "tessellate": -1, "extrude": 0, "visibility": -1, "drawOrder": null, "icon": null, "category_group": "Natur & Landschaft"}, "geometry": {"type": "Point", "coordinates": [11.1174732, 51.4383461]}}, {"type": "Feature", "properties": {"Name": "Sittendorfer Köpfe", "description": "<b>Kategorie:</b> Natur & Landschaft — Natur-Feature (alle)<br><b>Distanz:</b> 1048 m<br><b>Website:</b> <br><b>Wikipedia:</b> <br><b>Telefon:</b> ", "timestamp": null, "begin": null, "end": null, "altitudeMode": null, "tessellate": -1, "extrude": 0, "visibility": -1, "drawOrder": null, "icon": null, "category_group": "Natur & Landschaft"}, "geometry": {"type": "Point", "coordinates": [11.0863124, 51.4168274]}}, {"type": "Feature", "properties": {"Name": "Kirchenratskopf", "description": "<b>Kategorie:</b> Natur & Landschaft — Natur-Feature (alle)<br><b>Distanz:</b> 1848 m<br><b>Website:</b> <br><b>Wikipedia:</b> <br><b>Telefon:</b> ", "timestamp": null, "begin": null, "end": null, "altitudeMode": null, "tessellate": -1, "extrude": 0, "visibility": -1, "drawOrder": null, "icon": null, "category_group": "Natur & Landschaft"}, "geometry": {"type": "Point", "coordinates": [11.1090403, 51.4045838]}}, {"type": "Feature", "properties": {"Name": "Brandberg", "description": "<b>Kategorie:</b> Natur & Landschaft — Natur-Feature (alle)<br><b>Distanz:</b> 1979 m<br><b>Website:</b> <br><b>Wikipedia:</b> <br><b>Telefon:</b> ", "timestamp": null, "begin": null, "end": null, "altitudeMode": null, "tessellate": -1, "extrude": 0, "visibility": -1, "drawOrder": null, "icon": null, "category_group": "Natur & Landschaft"}, "geometry": {"type": "Point", "coordinates": [11.1212794, 51.408238]}}, {"type": "Feature", "properties": {"Name": "Solberkopf", "description": "<b>Kategorie:</b> Natur & Landschaft — Natur-Feature (alle)<br><b>Distanz:</b> 2523 m<br><b>Website:</b> <br><b>Wikipedia:</b> <br><b>Telefon:</b> ", "timestamp": null, "begin": null, "end": null, "altitudeMode": null, "tessellate": -1, "extrude": 0, "visibility": -1, "drawOrder": null, "icon": null, "category_group": "Natur & Landschaft"}, "geometry": {"type": "Point", "coordinates": [11.1276346, 51.4053498]}}, {"type": "Feature", "properties": {"Name": "Schneeberge", "description": "<b>Kategorie:</b> Natur & Landschaft — Natur-Feature (alle)<br><b>Distanz:</b> 3149 m<br><b>Website:</b> <br><b>Wikipedia:</b> <br><b>Telefon:</b> ", "timestamp": null, "begin": null, "end": null, "altitudeMode": null, "tessellate": -1, "extrude": 0, "visibility": -1, "drawOrder": null, "icon": null, "category_group": "Natur & Landschaft"}, "geometry": {"type": "Point", "coordinates": [11.1282803, 51.3980093]}}]}