{"type": "FeatureCollection", "features": [{"type": "Feature", "properties": {"Name": "JH 60 — Jugendherberge Grumbach", "description": "<b>JH Nr:</b> 60<br><b>Name:</b> Jugendherberge Grumbach<br><b>Ort:</b> Grumbach<br><b>Adresse:</b> Jöhstädter Str. 19 09477 Grumbach<br><b>Telefon:</b> +49 37343 2288<br><b>Bundesland:</b> Sachsen", "timestamp": null, "begin": null, "end": null, "altitudeMode": null, "tessellate": -1, "extrude": 0, "visibility": -1, "drawOrder": null, "icon": null, "category_group": "JH"}, "geometry": {"type": "Point", "coordinates": [13.0984443, 50.5274574]}}, {"type": "Feature", "properties": {"Name": "Gleisabfangung Typ \"Dresden\"", "description": "<b>Kategorie:</b> Information — Besucherinformation<br><b>Distanz:</b> 2129 m<br><b>Website:</b> <br><b>Wikipedia:</b> <br><b>Telefon:</b> ", "timestamp": null, "begin": null, "end": null, "altitudeMode": null, "tessellate": -1, "extrude": 0, "visibility": -1, "drawOrder": null, "icon": null, "category_group": "Information"}, "geometry": {"type": "Point", "coordinates": [13.1282216, 50.5298421]}}, {"type": "Feature", "properties": {"Name": "Bergstadt Jöhstadt", "description": "<b>Kategorie:</b> Information — Besucherinformation<br><b>Distanz:</b> 2106 m<br><b>Website:</b> <br><b>Wikipedia:</b> <br><b>Telefon:</b> ", "timestamp": null, "begin": null, "end": null, "altitudeMode": null, "tessellate": -1, "extrude": 0, "visibility": -1, "drawOrder": null, "icon": null, "category_group": "Information"}, "geometry": {"type": "Point", "coordinates": [13.0981665, 50.5085366]}}, {"type": "Feature", "properties": {"Name": "Bergstadt Jöhstadt", "description": "<b>Kategorie:</b> Information — Besucherinformation<br><b>Distanz:</b> 1828 m<br><b>Website:</b> <br><b>Wikipedia:</b> <br><b>Telefon:</b> ", "timestamp": null, "begin": null, "end": null, "altitudeMode": null, "tessellate": -1, "extrude": 0, "visibility": -1, "drawOrder": null, "icon": null, "category_group": "Information"}, "geometry": {"type": "Point", "coordinates": [13.09567, 50.5111312]}}, {"type": "Feature", "properties": {"Name": "Harzerei-Picherei", "description": "<b>Kategorie:</b> Information — Besucherinformation<br><b>Distanz:</b> 2655 m<br><b>Website:</b> <br><b>Wikipedia:</b> <br><b>Telefon:</b> ", "timestamp": null, "begin": null, "end": null, "altitudeMode": null, "tessellate": -1, "extrude": 0, "visibility": -1, "drawOrder": null, "icon": null, "category_group": "Information"}, "geometry": {"type": "Point", "coordinates": [13.0656699, 50.5159562]}}, {"type": "Feature", "properties": {"Name": "Skigebiet Jöhstadt", "description": "<b>Kategorie:</b> Information — Besucherinformation<br><b>Distanz:</b> 1569 m<br><b>Website:</b> <br><b>Wikipedia:</b> <br><b>Telefon:</b> ", "timestamp": null, "begin": null, "end": null, "altitudeMode": null, "tessellate": -1, "extrude": 0, "visibility": -1, "drawOrder": null, "icon": null, "category_group": "Information"}, "geometry": {"type": "Point", "coordinates": [13.0917536, 50.5140184]}}, {"type": "Feature", "properties": {"Name": "Zigeunerfelsen-Historik", "description": "<b>Kategorie:</b> Information — Besucherinformation<br><b>Distanz:</b> 3107 m<br><b>Website:</b> <br><b>Wikipedia:</b> <br><b>Telefon:</b> ", "timestamp": null, "begin": null, "end": null, "altitudeMode": null, "tessellate": -1, "extrude": 0, "visibility": -1, "drawOrder": null, "icon": null, "category_group": "Information"}, "geometry": {"type": "Point", "coordinates": [13.0635898, 50.5105611]}}, {"type": "Feature", "properties": {"Name": "Kryštofovy Hamry (CZ/D)", "description": "<b>Kategorie:</b> Information — Besucherinformation<br><b>Distanz:</b> 2588 m<br><b>Website:</b> <br><b>Wikipedia:</b> <br><b>Telefon:</b> ", "timestamp": null, "begin": null, "end": null, "altitudeMode": null, "tessellate": -1, "extrude": 0, "visibility": -1, "drawOrder": null, "icon": null, "category_group": "Information"}, "geometry": {"type": "Point", "coordinates": [13.1319806, 50.5183285]}}, {"type": "Feature", "properties": {"Name": "Výzkum starého hornictví v krušnohoří", "description": "<b>Kategorie:</b> Information — Besucherinformation<br><b>Distanz:</b> 2575 m<br><b>Website:</b> <br><b>Wikipedia:</b> <br><b>Telefon:</b> ", "timestamp": null, "begin": null, "end": null, "altitudeMode": null, "tessellate": -1, "extrude": 0, "visibility": -1, "drawOrder": null, "icon": null, "category_group": "Information"}, "geometry": {"type": "Point", "coordinates": [13.1319847, 50.5186343]}}, {"type": "Feature", "properties": {"Name": "Kunstgraben", "description": "<b>Kategorie:</b> Information — Besucherinformation<br><b>Distanz:</b> 3128 m<br><b>Website:</b> <br><b>Wikipedia:</b> <br><b>Telefon:</b> ", "timestamp": null, "begin": null, "end": null, "altitudeMode": null, "tessellate": -1, "extrude": 0, "visibility": -1, "drawOrder": null, "icon": null, "category_group": "Information"}, "geometry": {"type": "Point", "coordinates": [13.1326011, 50.5452215]}}, {"type": "Feature", "properties": {"Name": "Kunstgraben", "description": "<b>Kategorie:</b> Information — Besucherinformation<br><b>Distanz:</b> 3027 m<br><b>Website:</b> <br><b>Wikipedia:</b> <br><b>Telefon:</b> ", "timestamp": null, "begin": null, "end": null, "altitudeMode": null, "tessellate": -1, "extrude": 0, "visibility": -1, "drawOrder": null, "icon": null, "category_group": "Information"}, "geometry": {"type": "Point", "coordinates": [13.1329575, 50.5434484]}}, {"type": "Feature", "properties": {"Name": "Kunstgraben", "description": "<b>Kategorie:</b> Information — Besucherinformation<br><b>Distanz:</b> 3087 m<br><b>Website:</b> <br><b>Wikipedia:</b> <br><b>Telefon:</b> ", "timestamp": null, "begin": null, "end": null, "altitudeMode": null, "tessellate": -1, "extrude": 0, "visibility": -1, "drawOrder": null, "icon": null, "category_group": "Information"}, "geometry": {"type": "Point", "coordinates": [13.1326692, 50.5445822]}}, {"type": "Feature", "properties": {"Name": "Kunstgraben", "description": "<b>Kategorie:</b> Information — Besucherinformation<br><b>Distanz:</b> 3118 m<br><b>Website:</b> <br><b>Wikipedia:</b> <br><b>Telefon:</b> ", "timestamp": null, "begin": null, "end": null, "altitudeMode": null, "tessellate": -1, "extrude": 0, "visibility": -1, "drawOrder": null, "icon": null, "category_group": "Information"}, "geometry": {"type": "Point", "coordinates": [13.1325346, 50.5451378]}}, {"type": "Feature", "properties": {"Name": "Flugzeugabschuss 1944", "description": "<b>Kategorie:</b> Information — Besucherinformation<br><b>Distanz:</b> 2620 m<br><b>Website:</b> <br><b>Wikipedia:</b> <br><b>Telefon:</b> ", "timestamp": null, "begin": null, "end": null, "altitudeMode": null, "tessellate": -1, "extrude": 0, "visibility": -1, "drawOrder": null, "icon": null, "category_group": "Information"}, "geometry": {"type": "Point", "coordinates": [13.1279547, 50.5416163]}}, {"type": "Feature", "properties": {"Name": "Preßnitztalbahn", "description": "<b>Kategorie:</b> Information — Besucherinformation<br><b>Distanz:</b> 1884 m<br><b>Website:</b> <br><b>Wikipedia:</b> <br><b>Telefon:</b> ", "timestamp": null, "begin": null, "end": null, "altitudeMode": null, "tessellate": -1, "extrude": 0, "visibility": -1, "drawOrder": null, "icon": null, "category_group": "Information"}, "geometry": {"type": "Point", "coordinates": [13.0989638, 50.510532]}}, {"type": "Feature", "properties": {"Name": "Bahnhof Jöhstadt", "description": "<b>Kategorie:</b> Information — Besucherinformation<br><b>Distanz:</b> 2088 m<br><b>Website:</b> <br><b>Wikipedia:</b> <br><b>Telefon:</b> ", "timestamp": null, "begin": null, "end": null, "altitudeMode": null, "tessellate": -1, "extrude": 0, "visibility": -1, "drawOrder": null, "icon": null, "category_group": "Information"}, "geometry": {"type": "Point", "coordinates": [13.0982346, 50.5086989]}}, {"type": "Feature", "properties": {"Name": "Jöhnstadt", "description": "<b>Kategorie:</b> Information — Besucherinformation<br><b>Distanz:</b> 2102 m<br><b>Website:</b> <br><b>Wikipedia:</b> <br><b>Telefon:</b> ", "timestamp": null, "begin": null, "end": null, "altitudeMode": null, "tessellate": -1, "extrude": 0, "visibility": -1, "drawOrder": null, "icon": null, "category_group": "Information"}, "geometry": {"type": "Point", "coordinates": [13.0981853, 50.5085716]}}, {"type": "Feature", "properties": {"Name": "Der Hilfe Gottes Stolln am Schwarzwasser in Jöhnstadt", "description": "<b>Kategorie:</b> Information — Besucherinformation<br><b>Distanz:</b> 1917 m<br><b>Website:</b> <br><b>Wikipedia:</b> <br><b>Telefon:</b> ", "timestamp": null, "begin": null, "end": null, "altitudeMode": null, "tessellate": -1, "extrude": 0, "visibility": -1, "drawOrder": null, "icon": null, "category_group": "Information"}, "geometry": {"type": "Point", "coordinates": [13.0985488, 50.5102397]}}, {"type": "Feature", "properties": {"Name": "Preßnitztalbahn", "description": "<b>Kategorie:</b> Information — Besucherinformation<br><b>Distanz:</b> 1911 m<br><b>Website:</b> <br><b>Wikipedia:</b> <br><b>Telefon:</b> ", "timestamp": null, "begin": null, "end": null, "altitudeMode": null, "tessellate": -1, "extrude": 0, "visibility": -1, "drawOrder": null, "icon": null, "category_group": "Information"}, "geometry": {"type": "Point", "coordinates": [13.0985859, 50.5102859]}}, {"type": "Feature", "properties": {"Name": "Preßnitztalbahn", "description": "<b>Kategorie:</b> Kultur & Geschichte — Attraktion<br><b>Distanz:</b> 1478 m<br><b>Website:</b> <br><b>Wikipedia:</b> <br><b>Telefon:</b> ", "timestamp": null, "begin": null, "end": null, "altitudeMode": null, "tessellate": -1, "extrude": 0, "visibility": -1, "drawOrder": null, "icon": null, "category_group": "Kultur & Geschichte"}, "geometry": {"type": "Point", "coordinates": [13.1032644, 50.5145377]}}, {"type": "Feature", "properties": {"Name": "Schmelzofen", "description": "<b>Kategorie:</b> Kultur & Geschichte — Attraktion<br><b>Distanz:</b> 2511 m<br><b>Website:</b> <br><b>Wikipedia:</b> <br><b>Telefon:</b> ", "timestamp": null, "begin": null, "end": null, "altitudeMode": null, "tessellate": -1, "extrude": 0, "visibility": -1, "drawOrder": null, "icon": null, "category_group": "Kultur & Geschichte"}, "geometry": {"type": "Point", "coordinates": [13.1333804, 50.5238691]}}, {"type": "Feature", "properties": {"Name": "Das Betglöcklein zu Schmalzgrube", "description": "<b>Kategorie:</b> Kultur & Geschichte — Attraktion<br><b>Distanz:</b> 2440 m<br><b>Website:</b> <br><b>Wikipedia:</b> <br><b>Telefon:</b> ", "timestamp": null, "begin": null, "end": null, "altitudeMode": null, "tessellate": -1, "extrude": 0, "visibility": -1, "drawOrder": null, "icon": null, "category_group": "Kultur & Geschichte"}, "geometry": {"type": "Point", "coordinates": [13.1327258, 50.5291864]}}, {"type": "Feature", "properties": {"Name": "Preßnitztalbahn", "description": "<b>Kategorie:</b> Kultur & Geschichte — Museum<br><b>Distanz:</b> 1892 m<br><b>Website:</b> https://www.pressnitztalbahn.de/<br><b>Wikipedia:</b> de:Schmalspurbahn Wolkenstein–Jöhstadt<br><b>Telefon:</b> ", "timestamp": null, "begin": null, "end": null, "altitudeMode": null, "tessellate": -1, "extrude": 0, "visibility": -1, "drawOrder": null, "icon": null, "category_group": "Kultur & Geschichte"}, "geometry": {"type": "Point", "coordinates": [13.0989204, 50.5104621]}}, {"type": "Feature", "properties": {"Name": "Preßnitztalbahn Austellungs- und Fahrzeughalle", "description": "<b>Kategorie:</b> Kultur & Geschichte — Museum<br><b>Distanz:</b> 1525 m<br><b>Website:</b> https://www.pressnitztalbahn.de/<br><b>Wikipedia:</b> de:Schmalspurbahn Wolkenstein–Jöhstadt<br><b>Telefon:</b> ", "timestamp": null, "begin": null, "end": null, "altitudeMode": null, "tessellate": -1, "extrude": 0, "visibility": -1, "drawOrder": null, "icon": null, "category_group": "Kultur & Geschichte"}, "geometry": {"type": "Point", "coordinates": [13.1035271, 50.5141463]}}, {"type": "Feature", "properties": {"Name": "Zigeunerfelsen", "description": "<b>Kategorie:</b> Natur & Landschaft — Natur-Feature (alle)<br><b>Distanz:</b> 3102 m<br><b>Website:</b> <br><b>Wikipedia:</b> <br><b>Telefon:</b> ", "timestamp": null, "begin": null, "end": null, "altitudeMode": null, "tessellate": -1, "extrude": 0, "visibility": -1, "drawOrder": null, "icon": null, "category_group": "Natur & Landschaft"}, "geometry": {"type": "Point", "coordinates": [13.063929, 50.5103538]}}, {"type": "Feature", "properties": {"Name": "Deutscher Felsen", "description": "<b>Kategorie:</b> Natur & Landschaft — Natur-Feature (alle)<br><b>Distanz:</b> 2331 m<br><b>Website:</b> <br><b>Wikipedia:</b> <br><b>Telefon:</b> ", "timestamp": null, "begin": null, "end": null, "altitudeMode": null, "tessellate": -1, "extrude": 0, "visibility": -1, "drawOrder": null, "icon": null, "category_group": "Natur & Landschaft"}, "geometry": {"type": "Point", "coordinates": [13.127596, 50.517797]}}]}