{"type": "FeatureCollection", "features": [{"type": "Feature", "properties": {"Name": "JH 82 — Jugendherberge Strehla", "description": "<b>JH Nr:</b> 82<br><b>Name:</b> Jugendherberge Strehla<br><b>Ort:</b> Strehla<br><b>Adresse:</b> Torgauer Str. 33 01616 Strehla<br><b>Telefon:</b> +49 35264 90330<br><b>Bundesland:</b> Sachsen", "timestamp": null, "begin": null, "end": null, "altitudeMode": null, "tessellate": -1, "extrude": 0, "visibility": -1, "drawOrder": null, "icon": null, "category_group": "JH"}, "geometry": {"type": "Point", "coordinates": [13.2226093, 51.3590267]}}, {"type": "Feature", "properties": {"Name": "Tourist-Information", "description": "<b>Kategorie:</b> Information — Besucherinformation<br><b>Distanz:</b>  605 m<br><b>Website:</b> <br><b>Wikipedia:</b> <br><b>Telefon:</b> ", "timestamp": null, "begin": null, "end": null, "altitudeMode": null, "tessellate": -1, "extrude": 0, "visibility": -1, "drawOrder": null, "icon": null, "category_group": "Information"}, "geometry": {"type": "Point", "coordinates": [13.2261765, 51.3540685]}}, {"type": "Feature", "properties": {"Name": "Willkommen in Strehla", "description": "<b>Kategorie:</b> Information — Besucherinformation<br><b>Distanz:</b>  610 m<br><b>Website:</b> <br><b>Wikipedia:</b> <br><b>Telefon:</b> ", "timestamp": null, "begin": null, "end": null, "altitudeMode": null, "tessellate": -1, "extrude": 0, "visibility": -1, "drawOrder": null, "icon": null, "category_group": "Information"}, "geometry": {"type": "Point", "coordinates": [13.2275316, 51.3635601]}}, {"type": "Feature", "properties": {"Name": "Freilichtbühne", "description": "<b>Kategorie:</b> Kultur & Geschichte — Attraktion<br><b>Distanz:</b>  311 m<br><b>Website:</b> <br><b>Wikipedia:</b> <br><b>Telefon:</b> ", "timestamp": null, "begin": null, "end": null, "altitudeMode": null, "tessellate": -1, "extrude": 0, "visibility": -1, "drawOrder": null, "icon": null, "category_group": "Kultur & Geschichte"}, "geometry": {"type": "Point", "coordinates": [13.2246093, 51.3565286]}}, {"type": "Feature", "properties": {"Name": "Begegnung an der Elbe", "description": "<b>Kategorie:</b> Kultur & Geschichte — Museum<br><b>Distanz:</b> 2772 m<br><b>Website:</b> <br><b>Wikipedia:</b> <br><b>Telefon:</b> ", "timestamp": null, "begin": null, "end": null, "altitudeMode": null, "tessellate": -1, "extrude": 0, "visibility": -1, "drawOrder": null, "icon": null, "category_group": "Kultur & Geschichte"}, "geometry": {"type": "Point", "coordinates": [13.2552526, 51.3732554]}}, {"type": "Feature", "properties": {"Name": "Nixstein", "description": "<b>Kategorie:</b> Kultur & Geschichte — Attraktion<br><b>Distanz:</b>  473 m<br><b>Website:</b> <br><b>Wikipedia:</b> <br><b>Telefon:</b> ", "timestamp": null, "begin": null, "end": null, "altitudeMode": null, "tessellate": -1, "extrude": 0, "visibility": -1, "drawOrder": null, "icon": null, "category_group": "Kultur & Geschichte"}, "geometry": {"type": "Point", "coordinates": [13.2279481, 51.3616488]}}, {"type": "Feature", "properties": {"Name": "Heimatmuseum", "description": "<b>Kategorie:</b> Kultur & Geschichte — Museum<br><b>Distanz:</b>  599 m<br><b>Website:</b> <br><b>Wikipedia:</b> <br><b>Telefon:</b> ", "timestamp": null, "begin": null, "end": null, "altitudeMode": null, "tessellate": -1, "extrude": 0, "visibility": -1, "drawOrder": null, "icon": null, "category_group": "Kultur & Geschichte"}, "geometry": {"type": "Point", "coordinates": [13.2260679, 51.3541053]}}, {"type": "Feature", "properties": {"Name": "Robinie", "description": "<b>Kategorie:</b> Natur & Landschaft — Natur-Feature (alle)<br><b>Distanz:</b>  540 m<br><b>Website:</b> <br><b>Wikipedia:</b> <br><b>Telefon:</b> ", "timestamp": null, "begin": null, "end": null, "altitudeMode": null, "tessellate": -1, "extrude": 0, "visibility": -1, "drawOrder": null, "icon": null, "category_group": "Natur & Landschaft"}, "geometry": {"type": "Point", "coordinates": [13.2264397, 51.3548077]}}, {"type": "Feature", "properties": {"Name": "Robinie", "description": "<b>Kategorie:</b> Natur & Landschaft — Natur-Feature (alle)<br><b>Distanz:</b>  531 m<br><b>Website:</b> <br><b>Wikipedia:</b> <br><b>Telefon:</b> ", "timestamp": null, "begin": null, "end": null, "altitudeMode": null, "tessellate": -1, "extrude": 0, "visibility": -1, "drawOrder": null, "icon": null, "category_group": "Natur & Landschaft"}, "geometry": {"type": "Point", "coordinates": [13.2263704, 51.3548765]}}, {"type": "Feature", "properties": {"Name": "Hutberg", "description": "<b>Kategorie:</b> Natur & Landschaft — Natur-Feature (alle)<br><b>Distanz:</b> 1470 m<br><b>Website:</b> <br><b>Wikipedia:</b> <br><b>Telefon:</b> ", "timestamp": null, "begin": null, "end": null, "altitudeMode": null, "tessellate": -1, "extrude": 0, "visibility": -1, "drawOrder": null, "icon": null, "category_group": "Natur & Landschaft"}, "geometry": {"type": "Point", "coordinates": [13.2046879, 51.3659897]}}, {"type": "Feature", "properties": {"Name": "Schieferberg", "description": "<b>Kategorie:</b> Natur & Landschaft — Natur-Feature (alle)<br><b>Distanz:</b> 1712 m<br><b>Website:</b> <br><b>Wikipedia:</b> <br><b>Telefon:</b> ", "timestamp": null, "begin": null, "end": null, "altitudeMode": null, "tessellate": -1, "extrude": 0, "visibility": -1, "drawOrder": null, "icon": null, "category_group": "Natur & Landschaft"}, "geometry": {"type": "Point", "coordinates": [13.2031797, 51.3496268]}}]}